timestamp,heartbeat_time,data_rate,rate_multiplier,rate_rx,rate_tx,rate_txerr,remote_system_id,remote_component_id,remote_type,remote_system_status,type,mode,flow_control,forwarding,mavlink_v2,ftp,streams
2624103,0,1200.0,0.6060793,0.0,0.0,0.0,0,0,0,0,0,0,1,1,0,1,36
2995387,2995214,1200.0,0.5320668,0.0,0.0,0.0,255,0,6,4,0,0,1,1,1,1,36
3997227,2995214,1200.0,0.5320668,0.020985834,0.22984484,0.0,255,0,6,4,1,0,1,1,1,1,36
5003259,2995214,1200.0,0.5320668,0.0208457,0.6501873,0.0,255,0,6,4,1,0,1,1,1,1,36
5886343,5880093,1200.0,0.5320668,0.020798318,0.46944776,0.0,255,0,6,4,1,0,1,1,1,1,36
6114368,6108318,1200.0,0.5320668,0.020798318,0.46944776,0.0,255,0,6,4,1,0,1,1,1,1,36
7044036,7041040,1200.0,0.5320668,0.2345012,3.8627837,0.16664553,255,0,6,4,1,0,1,1,1,1,36
8053493,7041040,1200.0,0.5320668,0.13135976,0.5204632,0.0,255,0,6,4,1,0,1,1,1,1,36
8083192,8079132,1200.0,0.5320668,0.13135976,0.5204632,0.0,255,0,6,4,1,0,1,1,1,1,36
9014711,9011585,1200.0,0.37224478,0.04162541,0.89593744,0.0,255,0,6,4,1,0,1,1,1,1,36
10022207,9011585,1200.0,0.37224478,0.04170804,0.91658384,0.0,255,0,6,4,1,0,1,1,1,1,36
10042465,10038041,1200.0,0.37224478,0.04170804,0.91658384,0.0,255,0,6,4,1,0,1,1,1,1,36
11045612,10038041,1200.0,0.36675593,0.04183146,0.9003723,0.0,255,0,6,4,1,0,1,1,1,1,36
11117947,11117712,1200.0,0.36675593,0.04183146,0.9003723,0.0,255,0,6,4,1,0,1,1,1,1,36
12013151,12006833,1200.0,0.36675593,0.041749667,1.1809192,0.0,255,0,6,4,1,0,1,1,1,1,36
13021005,12006833,1200.0,0.36675593,0.09229111,1.4429169,0.0,255,0,6,4,1,0,1,1,1,1,36
13045039,13042182,1200.0,0.36675593,0.09229111,1.4429169,0.0,255,0,6,4,1,0,1,1,1,1,36
14045619,13042182,1200.0,0.36675593,0.06750458,1.0959567,0.0,255,0,6,4,1,0,1,1,1,1,36
14098419,14090382,1200.0,0.36675593,0.06750458,1.0959567,0.0,255,0,6,4,1,0,1,1,1,1,36
15013146,15011742,1200.0,0.36675593,0.062751815,0.81776565,0.0,255,0,6,4,1,0,1,1,1,1,36
16016937,15011742,1200.0,0.36675593,0.020832712,1.2707955,0.0,255,0,6,4,1,0,1,1,1,1,36
16056736,16050042,1200.0,0.36675593,0.020832712,1.2707955,0.0,255,0,6,4,1,0,1,1,1,1,36
16970999,16967149,1200.0,0.36675593,0.041999873,1.1879964,0.0,255,0,6,4,1,0,1,1,1,1,36
17976131,16967149,1200.0,0.36675593,0.08365659,0.90130013,0.0,255,0,6,4,1,0,1,1,1,1,36
18040430,18040173,1200.0,0.36675593,0.08365659,0.90130013,0.0,255,0,6,4,1,0,1,1,1,1,36
19042210,18040173,1200.0,0.36675593,0.020877302,1.06176,0.0,255,0,6,4,1,0,1,1,1,1,36
19062275,19056197,1200.0,0.36675593,0.020877302,1.06176,0.0,255,0,6,4,1,0,1,1,1,1,36
20067170,19056197,1200.0,0.36675593,0.04193584,1.0833424,0.0,255,0,6,4,1,0,1,1,1,1,36
20110458,20104088,1200.0,0.36675593,0.04193584,1.0833424,0.0,255,0,6,4,1,0,1,1,1,1,36
21036667,21029167,1200.0,0.36675593,0.0626582,0.9796559,0.0,255,0,6,4,1,0,1,1,1,1,36
22004955,21999545,1200.0,0.36675593,0.026858348,0.81569797,0.0,255,0,6,4,1,0,1,1,1,1,36
22988141,22986455,1200.0,0.36675593,0.035793614,1.2865815,0.0,255,0,6,4,1,0,1,1,1,1,36
23994188,22986455,1200.0,0.36675593,0.088627934,0.9609658,0.0,255,0,6,4,1,0,1,1,1,1,36
24047426,24044416,1200.0,0.36675593,0.088627934,0.9609658,0.0,255,0,6,4,1,0,1,1,1,1,36
25054320,24044416,1200.0,0.36675593,0.041756723,1.0976053,0.0,255,0,6,4,1,0,1,1,1,1,36
25432298,25426031,1200.0,0.36675593,0.041756723,1.0976053,0.0,255,0,6,4,1,0,1,1,1,1,36
25996142,25988043,1200.0,0.36675593,0.020830667,1.1367593,0.0,255,0,6,4,1,0,1,1,1,1,36
27005145,25988043,1200.0,0.36675593,0.045593306,1.0585576,0.0,255,0,6,4,1,0,1,1,1,1,36
27048295,27042042,1200.0,0.36675593,0.045593306,1.0585576,0.0,255,0,6,4,1,0,1,1,1,1,36
28050799,27042042,1200.0,0.36675593,0.058693442,1.0704092,0.0,255,0,6,4,1,0,1,1,1,1,36
28073319,28065045,1200.0,0.36675593,0.058693442,1.0704092,0.0,255,0,6,4,1,0,1,1,1,1,36
28994832,28994211,1200.0,0.36675593,0.041515633,0.96276736,0.0,255,0,6,4,1,0,1,1,1,1,36
31061786,30042159,1200.0,0.36675593,0.041613244,1.1037418,0.0,255,0,6,4,1,0,1,1,1,1,36
31085056,31076162,1200.0,0.36675593,0.041613244,1.1037418,0.0,255,0,6,4,1,0,1,1,1,1,36
31999004,31992089,1200.0,0.36675593,0.04186294,1.0356094,0.0,255,0,6,4,1,0,1,1,1,1,36
33005076,31992089,1200.0,0.36675593,0.04185476,1.0473657,0.0,255,0,6,4,1,0,1,1,1,1,36
33119405,33110063,1200.0,0.36675593,0.04185476,1.0473657,0.0,255,0,6,4,1,0,1,1,1,1,36
33986723,33983208,1200.0,0.36675593,0.06721167,1.008175,0.0,255,0,6,4,1,0,1,1,1,1,36
34991480,34987203,1200.0,0.36675593,0.041573044,1.183842,0.0,255,0,6,4,1,0,1,1,1,1,36
35996817,34987203,1200.0,0.36675593,0.041984085,1.1585609,0.0,255,0,6,4,1,0,1,1,1,1,36
36061387,36054042,1200.0,0.36675593,0.041984085,1.1585609,0.0,255,0,6,4,1,0,1,1,1,1,36
36989842,36983091,1200.0,0.36675593,0.041985974,0.9336881,0.0,255,0,6,4,1,0,1,1,1,1,36
37996182,36983091,1200.0,0.36675593,0.0419895,0.9537615,0.0,255,0,6,4,1,0,1,1,1,1,36
38016315,38008172,1200.0,0.36675593,0.0419895,0.9537615,0.0,255,0,6,4,1,0,1,1,1,1,36
39019467,38008172,1200.0,0.36675593,0.041839126,1.1545607,0.0,255,0,6,4,1,0,1,1,1,1,36
39072297,39064579,1200.0,0.36675593,0.041839126,1.1545607,0.0,255,0,6,4,1,0,1,1,1,1,36
39995511,39987171,1200.0,0.36675593,0.041803688,0.99134463,0.0,255,0,6,4,1,0,1,1,1,1,36
41005908,39987171,1200.0,0.36675593,0.041851927,0.89084816,0.0,255,0,6,4,1,0,1,1,1,1,36
41015398,41013953,1200.0,0.36675593,0.041851927,0.89084816,0.0,255,0,6,4,1,0,1,1,1,1,36
42020087,41013953,1200.0,0.36675593,0.04162863,1.1041498,0.0,255,0,6,4,1,0,1,1,1,1,36
42128218,42128057,1200.0,0.36675593,0.04162863,1.1041498,0.0,255,0,6,4,1,0,1,1,1,1,36
43007323,42998038,1200.0,0.36675593,0.06764829,1.0545175,0.0,255,0,6,4,1,0,1,1,1,1,36
44015422,42998038,1200.0,0.36675593,0.041643117,1.0648739,0.0,255,0,6,4,1,0,1,1,1,1,36
44025970,44020043,1200.0,0.36675593,0.041643117,1.0648739,0.0,255,0,6,4,1,0,1,1,1,1,36
45035950,44020043,1200.0,0.36675593,0.04195951,1.2997457,0.0,255,0,6,4,1,0,1,1,1,1,36
45075580,45071931,1200.0,0.36675593,0.04195951,1.2997457,0.0,255,0,6,4,1,0,1,1,1,1,36
45993669,45991233,1200.0,0.36675593,0.04196181,1.0270653,0.0,255,0,6,4,1,0,1,1,1,1,36
46996197,45991233,1200.0,0.36675593,0.041939314,1.0005522,0.0,255,0,6,4,1,0,1,1,1,1,36
47027335,47024038,1200.0,0.36675593,0.041939314,1.0005522,0.0,255,0,6,4,1,0,1,1,1,1,36
48033147,47024038,1200.0,0.36675593,0.04171057,0.95636374,0.0,255,0,6,4,1,0,1,1,1,1,36
48095637,48089041,1200.0,0.36675593,0.04171057,0.95636374,0.0,255,0,6,4,1,0,1,1,1,1,36
49007200,48999114,1200.0,0.36675593,0.04181093,0.920836,0.0,255,0,6,4,1,0,1,1,1,1,36
51032219,50022189,1200.0,0.36675593,0.0627327,1.0455449,0.0,255,0,6,4,1,0,1,1,1,1,36
51085494,51079961,1200.0,0.36675593,0.0627327,1.0455449,0.0,255,0,6,4,1,0,1,1,1,1,36
52007660,52005377,1200.0,0.36675593,0.041579217,1.0929394,0.0,255,0,6,4,1,0,1,1,1,1,36
53016142,52005377,1200.0,0.36675593,0.06773947,0.87862074,0.0,255,0,6,4,1,0,1,1,1,1,36
53037943,53034644,1200.0,0.36675593,0.06773947,0.87862074,0.0,255,0,6,4,1,0,1,1,1,1,36
54043514,53034644,1200.0,0.36675593,0.041640226,1.2591211,0.0,255,0,6,4,1,0,1,1,1,1,36
54096104,54090043,1200.0,0.36675593,0.041640226,1.2591211,0.0,255,0,6,4,1,0,1,1,1,1,36
55100875,54090043,1200.0,0.36675593,0.041792292,1.1532682,0.0,255,0,6,4,1,0,1,1,1,1,36
56040172,56038339,1200.0,0.36675593,0.02083999,0.9377995,0.0,255,0,6,4,1,0,1,1,1,1,36
57042210,56038339,1200.0,0.36675593,0.041860938,1.0245962,0.0,255,0,6,4,1,0,1,1,1,1,36
57084305,57084144,1200.0,0.36675593,0.041860938,1.0245962,0.0,255,0,6,4,1,0,1,1,1,1,36
58028797,58022076,1200.0,0.36675593,0.041880764,1.0819197,0.0,255,0,6,4,1,0,1,1,1,1,36
59032237,58022076,1200.0,0.36675593,0.04162533,1.0584726,0.0,255,0,6,4,1,0,1,1,1,1,36
59052142,59043164,1200.0,0.36675593,0.04162533,1.0584726,0.0,255,0,6,4,1,0,1,1,1,1,36
59968451,59968231,1200.0,0.36675593,0.041825045,0.73392993,0.0,255,0,6,4,1,0,1,1,1,1,36
60978268,59968231,1200.0,0.36675593,0.041792333,1.306508,0.0,255,0,6,4,1,0,1,1,1,1,36
61045586,61040556,1200.0,0.36675593,0.041792333,1.306508,0.0,255,0,6,4,1,0,1,1,1,1,36
62050553,61040556,1200.0,0.36675593,0.041859854,0.9219134,0.0,255,0,6,4,1,0,1,1,1,1,36
63054979,61040556,1200.0,0.36675593,0.020840527,1.1601228,0.0,255,0,6,4,1,0,1,1,1,1,36
64058328,61040556,1200.0,0.36675593,0.046862736,1.2124486,0.0,255,0,6,4,1,0,1,1,1,1,36
65978816,65978543,1200.0,0.36675593,0.020817038,1.0666254,0.0,255,0,6,4,1,0,1,1,1,1,36
66989813,65978543,1200.0,0.36675593,0.041650053,0.9658846,0.0,255,0,6,4,1,0,1,1,1,1,36
67999350,65978543,1200.0,0.36675593,0.0,0.9960695,0.0,255,0,6,4,1,0,1,1,1,1,36
69000214,65978543,1200.0,0.36675593,0.04159676,1.1429205,0.0,255,0,6,4,1,0,1,1,1,1,36
70001712,65978543,1200.0,0.36675593,0.020979544,0.9980269,0.0,255,0,6,4,1,0,1,1,1,1,36
71011236,65978543,1200.0,0.36675593,0.020833332,1.0218253,0.0,255,0,6,4,1,0,1,1,1,1,36
72018707,65978543,1200.0,0.36675593,0.020806951,1.0106233,0.0,255,0,6,4,1,0,1,1,1,1,36
73019750,65978543,1200.0,0.36675593,0.020774039,1.203905,0.0,255,0,6,4,1,0,1,1,1,1,36
74023315,65978543,1200.0,0.36675593,0.020896748,1.1931049,0.0,255,0,6,4,1,0,1,1,1,1,36
75032122,65978543,1200.0,0.36675593,0.02081514,0.914875,0.0,255,0,6,4,1,0,1,1,1,1,36
76032386,65978543,1200.0,0.25786987,0.02099498,0.92477894,0.0,255,0,6,4,1,0,1,1,1,1,36
77039563,65978543,1200.0,0.25786987,0.020858495,0.65257293,0.0,255,0,6,4,1,0,1,1,1,1,36
78044214,65978543,1200.0,0.25786987,0.020895418,0.750245,0.0,255,0,6,4,1,0,1,1,1,1,36
79049694,65978543,1200.0,0.25786987,0.020888267,0.8365254,0.0,255,0,6,4,1,0,1,1,1,1,36
80052978,65978543,1200.0,0.25786987,0.020936748,0.8574097,0.0,255,0,6,4,1,0,1,1,1,1,36
81056423,65978543,1200.0,0.25786987,0.02092415,0.698468,0.0,255,0,6,4,1,0,1,1,1,1,36
82064318,65978543,1200.0,0.25786987,0.020829571,0.71316487,0.0,255,0,6,4,1,0,1,1,1,1,36
84074746,65978543,1200.0,0.25786987,0.020871928,0.69374317,0.0,255,0,6,4,1,0,1,1,1,1,36
85079462,65978543,1200.0,0.25786987,0.020899681,0.6986465,0.0,255,0,6,4,1,0,1,1,1,1,36
86081193,65978543,1200.0,0.25786987,0.020963857,1.034217,0.0,255,0,6,4,1,0,1,1,1,1,36
87088236,65978543,1200.0,0.25786987,0.020853752,0.51737165,0.0,255,0,6,4,1,0,1,1,1,1,36
88094747,65978543,1200.0,0.25786987,0.020864235,0.8117181,0.0,255,0,6,4,1,0,1,1,1,1,36
89103546,65978543,1200.0,0.25786987,0.020816006,0.7781221,0.0,255,0,6,4,1,0,1,1,1,1,36
90021926,90014557,1200.0,0.25786987,0.020816006,0.7781221,0.0,255,0,6,4,1,0,1,1,1,1,36
91027346,90014557,1200.0,0.36675593,0.041849714,1.1070246,0.0,255,0,6,4,1,0,1,1,1,1,36
92035791,90014557,1200.0,0.36675593,0.020952668,0.89398044,0.0,255,0,6,4,1,0,1,1,1,1,36
93043220,90014557,1200.0,0.36675593,0.020940006,1.1467146,0.0,255,0,6,4,1,0,1,1,1,1,36
94051930,90014557,1200.0,0.36675593,0.046766773,1.1064819,0.0,255,0,6,4,1,0,1,1,1,1,36
94061148,94055197,1200.0,0.36675593,0.046766773,1.1064819,0.0,255,0,6,4,1,0,1,1,1,1,36
94996590,94993093,1200.0,0.36675593,0.04164068,0.8347965,0.0,255,0,6,4,1,0,1,1,1,1,36
96002076,94993093,1200.0,0.36675593,0.041988704,1.2606609,0.0,255,0,6,4,1,0,1,1,1,1,36
96023512,96023361,1200.0,0.36675593,0.041988704,1.2606609,0.0,255,0,6,4,1,0,1,1,1,1,36
97996904,97993090,1200.0,0.36675593,0.041583046,0.9296781,0.0,255,0,6,4,1,0,1,1,1,1,36
99005691,97993090,1200.0,0.36675593,0.04181809,1.40688,0.0,255,0,6,4,1,0,1,1,1,1,36
100008175,97993090,1200.0,0.36675593,0.020954443,1.0207808,0.0,255,0,6,4,1,0,1,1,1,1,36
101013169,97993090,1200.0,0.36675593,0.020816067,1.0358472,0.0,255,0,6,4,1,0,1,1,1,1,36
102022489,97993090,1200.0,0.36675593,0.020805014,1.0154828,0.0,255,0,6,4,1,0,1,1,1,1,36
103026181,97993090,1200.0,0.36675593,0.020902384,0.81618834,0.0,255,0,6,4,1,0,1,1,1,1,36
105038213,104027336,1200.0,0.36675593,0.04182696,1.0187852,0.0,255,0,6,4,1,0,1,1,1,1,36
105048340,105042038,1200.0,0.36675593,0.04182696,1.0187852,0.0,255,0,6,4,1,0,1,1,1,1,36
106057357,105042038,1200.0,0.36675593,0.041806016,0.88887554,0.0,255,0,6,4,1,0,1,1,1,1,36
107067620,105042038,1200.0,0.36675593,0.02096097,1.21374,0.0,255,0,6,4,1,0,1,1,1,1,36
108075643,105042038,1200.0,0.36675593,0.020799842,1.041973,0.0,255,0,6,4,1,0,1,1,1,1,36
109078510,105042038,1200.0,0.36675593,0.020776054,0.9675705,0.0,255,0,6,4,1,0,1,1,1,1,36
109138490,109138048,1200.0,0.36675593,0.020776054,0.9675705,0.0,255,0,6,4,1,0,1,1,1,1,36
110148187,109138048,1200.0,0.36675593,0.0416684,1.250052,0.0,255,0,6,4,1,0,1,1,1,1,36
111155472,109138048,1200.0,0.36675593,0.020823767,0.8864975,0.0,255,0,6,4,1,0,1,1,1,1,36
112112889,112104167,1200.0,0.36675593,0.02086063,1.1066067,0.0,255,0,6,4,1,0,1,1,1,1,36
113048149,113040299,1200.0,0.36675593,0.04195779,1.0379558,0.0,255,0,6,4,1,0,1,1,1,1,36
114057171,114050590,1200.0,0.36675593,0.06754166,0.93763715,0.0,255,0,6,4,1,0,1,1,1,1,36
115058364,114050590,1200.0,0.36675593,0.12697996,1.5406241,0.0,255,0,6,4,1,0,1,1,1,1,36
116066792,114050590,1200.0,0.36675593,0.020851806,1.0445762,0.0,255,0,6,4,1,0,1,1,1,1,36
117059548,117056041,1200.0,0.36675593,0.02096999,1.1443623,0.0,255,0,6,4,1,0,1,1,1,1,36
118065385,117056041,1200.0,0.36675593,0.041728597,1.1972133,0.0,255,0,6,4,1,0,1,1,1,1,36
119073661,117056041,1200.0,0.36675593,0.020812891,0.8563018,0.0,255,0,6,4,1,0,1,1,1,1,36
120080256,117056041,1200.0,0.36675593,0.02089552,1.1820894,0.0,255,0,6,4,1,0,1,1,1,1,36
121080812,117056041,1200.0,0.25786987,0.020989966,0.96653795,0.0,255,0,6,4,1,0,1,1,1,1,36
122089981,117056041,1200.0,0.25786987,0.020888995,0.8096973,0.0,255,0,6,4,1,0,1,1,1,1,36
123090758,117056041,1200.0,0.25786987,0.020989778,0.49875706,0.0,255,0,6,4,1,0,1,1,1,1,36
124095911,117056041,1200.0,0.25786987,0.020851247,0.89263195,0.0,255,0,6,4,1,0,1,1,1,1,36
126107432,117056041,1200.0,0.25786987,0.020812685,0.6511397,0.0,255,0,6,4,1,0,1,1,1,1,36
127116457,117056041,1200.0,0.25786987,0.020854166,0.45581248,0.0,255,0,6,4,1,0,1,1,1,1,36
129130523,117056041,1200.0,0.25786987,0.020934077,0.7835326,0.0,255,0,6,4,1,0,1,1,1,1,36
130132094,117056041,1200.0,0.25786987,0.02085692,0.7260195,0.0,255,0,6,4,1,0,1,1,1,1,36
131140044,117056041,1200.0,0.25786987,0.020907816,0.6979228,0.0,255,0,6,4,1,0,1,1,1,1,36
132140447,117056041,1200.0,0.25786987,0.020909254,0.7766294,0.0,255,0,6,4,1,0,1,1,1,1,36
133142412,117056041,1200.0,0.25786987,0.020969007,0.7738562,0.0,255,0,6,4,1,0,1,1,1,1,36
134146790,117056041,1200.0,0.25786987,0.020858848,0.7131739,0.0,255,0,6,4,1,0,1,1,1,1,36
135154434,117056041,1200.0,0.25786987,0.020895584,0.85373384,0.0,255,0,6,4,1,0,1,1,1,1,36
136161825,117056041,1200.0,0.25786987,0.020958083,0.69660676,0.0,255,0,6,4,1,0,1,1,1,1,36
137169394,117056041,1200.0,0.25786987,0.020999117,0.7869669,0.0,255,0,6,4,1,0,1,1,1,1,36
138177484,117056041,1200.0,0.25786987,0.020885546,0.7280105,0.0,255,0,6,4,1,0,1,1,1,1,36
139179409,117056041,1200.0,0.25786987,0.020915292,0.81071657,0.0,255,0,6,4,1,0,1,1,1,1,36
140179433,117056041,1200.0,0.25786987,0.020878693,1.0469173,0.0,255,0,6,4,1,0,1,1,1,1,36
141183223,117056041,1200.0,0.25786987,0.020997416,0.45894352,0.0,255,0,6,4,1,0,1,1,1,1,36
142186396,117056041,1200.0,0.25786987,0.020840527,0.7343805,0.0,255,0,6,4,1,0,1,1,1,1,36
143195385,117056041,1200.0,0.25786987,0.02093126,0.7724632,0.0,255,0,6,4,1,0,1,1,1,1,36
144205142,117056041,1200.0,0.25786987,0.020860795,1.0817813,0.0,255,0,6,4,1,0,1,1,1,1,36
145209198,117056041,1200.0,0.25786987,0.020815037,0.5332614,0.0,255,0,6,4,1,0,1,1,1,1,36
146211254,117056041,1200.0,0.25786987,0.020874709,0.77037615,0.0,255,0,6,4,1,0,1,1,1,1,36
147215368,117056041,1200.0,0.25786987,0.02091577,0.8346389,0.0,255,0,6,4,1,0,1,1,1,1,36
148224929,117056041,1200.0,0.25786987,0.020967498,0.8746443,0.0,255,0,6,4,1,0,1,1,1,1,36
149230571,117056041,1200.0,0.25786987,0.020901449,0.73652726,0.0,255,0,6,4,1,0,1,1,1,1,36
150239435,117056041,1200.0,0.25786987,0.020922419,0.4573043,0.0,255,0,6,4,1,0,1,1,1,1,36
151245223,117056041,1200.0,0.25786987,0.020883344,0.9467116,0.0,255,0,6,4,1,0,1,1,1,1,36
152253395,117056041,1200.0,0.25786987,0.02081085,0.96126306,0.0,255,0,6,4,1,0,1,1,1,1,36
153259236,117056041,1200.0,0.25786987,0.02078543,0.72353095,0.0,255,0,6,4,1,0,1,1,1,1,36
154265819,117056041,1200.0,0.25786987,0.02090434,0.4778135,0.0,255,0,6,4,1,0,1,1,1,1,36
155267471,117056041,1200.0,0.25786987,0.020977218,0.9379813,0.0,255,0,6,4,1,0,1,1,1,1,36
156274189,117056041,1200.0,0.25786987,0.020951016,0.8959053,0.0,255,0,6,4,1,0,1,1,1,1,36
157276379,117056041,1200.0,0.25786987,0.020812685,0.6511397,0.0,255,0,6,4,1,0,1,1,1,1,36
158277148,117056041,1200.0,0.25786987,0.02097527,0.7740873,0.0,255,0,6,4,1,0,1,1,1,1,36
159280725,117056041,1200.0,0.25786987,0.020899244,0.77625763,0.0,255,0,6,4,1,0,1,1,1,1,36
160289737,117056041,1200.0,0.25786987,0.020979019,0.7852147,0.0,255,0,6,4,1,0,1,1,1,1,36
161295253,117056041,1200.0,0.25786987,0.02089552,0.72736317,0.0,255,0,6,4,1,0,1,1,1,1,36
162298236,117056041,1200.0,0.25786987,0.020827444,0.8172292,0.0,255,0,6,4,1,0,1,1,1,1,36
163300970,117056041,1200.0,0.25786987,0.020838603,0.6916432,0.0,255,0,6,4,1,0,1,1,1,1,36
164310579,117056041,1200.0,0.25786987,0.020833332,0.7896825,0.0,255,0,6,4,1,0,1,1,1,1,36
165027761,165021056,1200.0,0.25786987,0.020836474,0.651884,0.0,255,0,6,4,1,0,1,1,1,1,36
166031273,165021056,1200.0,0.36675593,0.04163482,1.0398792,0.0,255,0,6,4,1,0,1,1,1,1,36
167035566,165021056,1200.0,0.36675593,0.020867469,1.3285623,0.0,255,0,6,4,1,0,1,1,1,1,36
168040347,165021056,1200.0,0.36675593,0.020950327,0.93578124,0.0,255,0,6,4,1,0,1,1,1,1,36
169046482,165021056,1200.0,0.36675593,0.020769069,1.0364754,0.0,255,0,6,4,1,0,1,1,1,1,36
170051311,165021056,1200.0,0.36675593,0.0209469,0.975527,0.0,255,0,6,4,1,0,1,1,1,1,36
171051944,165021056,1200.0,0.36675593,0.02081869,1.069684,0.0,255,0,6,4,1,0,1,1,1,1,36
172054564,172054290,1200.0,0.36675593,0.020889701,1.3936416,0.0,255,0,6,4,1,0,1,1,1,1,36
172993690,172987095,1200.0,0.36675593,0.04174153,0.91831374,0.0,255,0,6,4,1,0,1,1,1,1,36
174003495,172987095,1200.0,0.36675593,0.06767556,0.9822908,0.0,255,0,6,4,1,0,1,1,1,1,36
174036417,174035224,1200.0,0.36675593,0.06767556,0.9822908,0.0,255,0,6,4,1,0,1,1,1,1,36
175040813,174035224,1200.0,0.36675593,0.041710902,1.0993801,0.0,255,0,6,4,1,0,1,1,1,1,36
175075684,175065037,1200.0,0.36675593,0.041710902,1.0993801,0.0,255,0,6,4,1,0,1,1,1,1,36
175993977,175991517,1200.0,0.36675593,0.04170332,0.89960015,0.0,255,0,6,4,1,0,1,1,1,1,36
176997873,175991517,1200.0,0.36675593,0.041834377,1.0647845,0.0,255,0,6,4,1,0,1,1,1,1,36
177088341,177088047,1200.0,0.36675593,0.041834377,1.0647845,0.0,255,0,6,4,1,0,1,1,1,1,36
178100266,177088047,1200.0,0.36675593,0.041916333,1.0838367,0.0,255,0,6,4,1,0,1,1,1,1,36
179105647,177088047,1200.0,0.36675593,0.020847356,1.0602369,0.0,255,0,6,4,1,0,1,1,1,1,36
180105696,177088047,1200.0,0.36675593,0.02083999,1.0340605,0.0,255,0,6,4,1,0,1,1,1,1,36
181112236,177088047,1200.0,0.36675593,0.020945018,1.206832,0.0,255,0,6,4,1,0,1,1,1,1,36
183124844,177088047,1200.0,0.36675593,0.020936562,1.1106348,0.0,255,0,6,4,1,0,1,1,1,1,36
184130861,177088047,1200.0,0.36675593,0.020883739,1.0123641,0.0,255,0,6,4,1,0,1,1,1,1,36
185134970,177088047,1200.0,0.36675593,0.020870082,0.9878506,0.0,255,0,6,4,1,0,1,1,1,1,36
186139513,177088047,1200.0,0.25786987,0.020921627,1.1546745,0.0,255,0,6,4,1,0,1,1,1,1,36
187150381,177088047,1200.0,0.25786987,0.02094905,0.6963065,0.0,255,0,6,4,1,0,1,1,1,1,36
188152343,177088047,1200.0,0.25786987,0.02087475,0.45725644,0.0,255,0,6,4,1,0,1,1,1,1,36
189152536,177088047,1200.0,0.25786987,0.02089552,0.95621884,0.0,255,0,6,4,1,0,1,1,1,1,36
190160767,177088047,1200.0,0.25786987,0.020936979,0.959113,0.0,255,0,6,4,1,0,1,1,1,1,36
191162637,177088047,1200.0,0.25786987,0.020935183,0.72874373,0.0,255,0,6,4,1,0,1,1,1,1,36
192163379,177088047,1200.0,0.25786987,0.02075158,0.69270754,0.0,255,0,6,4,1,0,1,1,1,1,36
193168252,177088047,1200.0,0.25786987,0.020828001,0.7547671,0.0,255,0,6,4,1,0,1,1,1,1,36
194175441,177088047,1200.0,0.25786987,0.020789402,0.8068268,0.0,255,0,6,4,1,0,1,1,1,1,36
195176142,177088047,1200.0,0.25786987,0.020817451,0.719689,0.0,255,0,6,4,1,0,1,1,1,1,36
196181142,177088047,1200.0,0.25786987,0.020879483,0.913726,0.0,255,0,6,4,1,0,1,1,1,1,36
197189112,177088047,1200.0,0.25786987,0.041581355,0.7138133,0.0,255,0,6,4,1,0,1,1,1,1,36
198192304,177088047,1200.0,0.25786987,0.0,0.69880223,0.0,255,0,6,4,1,0,1,1,1,1,36
199198651,177088047,1200.0,0.25786987,0.020837218,0.80769026,0.0,255,0,6,4,1,0,1,1,1,1,36
200199838,177088047,1200.0,0.25786987,0.041729175,0.75708646,0.0,255,0,6,4,1,0,1,1,1,1,36
201210429,177088047,1200.0,0.25786987,0.0,1.0279031,0.0,255,0,6,4,1,0,1,1,1,1,36
202214521,177088047,1200.0,0.25786987,0.0208415,0.41186774,0.0,255,0,6,4,1,0,1,1,1,1,36
203223466,177088047,1200.0,0.25786987,0.04169384,0.799132,0.0,255,0,6,4,1,0,1,1,1,1,36
204232434,177088047,1200.0,0.25786987,0.020771513,0.7833827,0.0,255,0,6,4,1,0,1,1,1,1,36
205241414,177088047,1200.0,0.25786987,0.0,0.9987374,0.0,255,0,6,4,1,0,1,1,1,1,36
206243404,177088047,1200.0,0.25786987,0.04160702,0.5329661,0.0,255,0,6,4,1,0,1,1,1,1,36
207245240,177088047,1200.0,0.25786987,0.0,0.7704252,0.0,255,0,6,4,1,0,1,1,1,1,36
208010184,208009790,1200.0,0.25786987,0.04162545,0.711597,0.0,255,0,6,4,1,0,1,1,1,1,36
209016339,208009790,1200.0,0.36675593,0.041958038,1.2807192,0.0,255,0,6,4,1,0,1,1,1,1,36
211116719,210097041,1200.0,0.36675593,0.04163573,1.2104101,0.0,255,0,6,4,1,0,1,1,1,1,36
212124074,210097041,1200.0,0.36675593,0.02098294,0.85130787,0.0,255,0,6,4,1,0,1,1,1,1,36
213132159,210097041,1200.0,0.36675593,0.0,1.0522066,0.0,255,0,6,4,1,0,1,1,1,1,36
214133088,210097041,1200.0,0.36675593,0.04186569,1.0685719,0.0,255,0,6,4,1,0,1,1,1,1,36
215135610,210097041,1200.0,0.36675593,0.02090944,1.2605405,0.0,255,0,6,4,1,0,1,1,1,1,36
216137182,210097041,1200.0,0.36675593,0.0,1.069181,0.0,255,0,6,4,1,0,1,1,1,1,36
217139970,210097041,1200.0,0.36675593,0.020824883,1.0769439,0.0,255,0,6,4,1,0,1,1,1,1,36
218148261,210097041,1200.0,0.36675593,0.020967938,0.9235878,0.0,255,0,6,4,1,0,1,1,1,1,36
219150329,210097041,1200.0,0.36675593,0.020886812,0.87824076,0.0,255,0,6,4,1,0,1,1,1,1,36
220155621,210097041,1200.0,0.25786987,0.020960782,1.1578337,0.0,255,0,6,4,1,0,1,1,1,1,36
221164429,210097041,1200.0,0.25786987,0.02099918,0.81096834,0.0,255,0,6,4,1,0,1,1,1,1,36
222169370,210097041,1200.0,0.25786987,0.02078107,0.4552044,0.0,255,0,6,4,1,0,1,1,1,1,36
223048377,223041034,1200.0,0.25786987,0.020865956,1.0731063,0.0,255,0,6,4,1,0,1,1,1,1,36
224057376,223041034,1200.0,0.36675593,0.067812964,1.2744849,0.0,255,0,6,4,1,0,1,1,1,1,36
224068063,224062040,1200.0,0.36675593,0.067812964,1.2744849,0.0,255,0,6,4,1,0,1,1,1,1,36
225073552,224062040,1200.0,0.36675593,0.020865645,0.98764056,0.0,255,0,6,4,1,0,1,1,1,1,36
226080146,224062040,1200.0,0.36675593,0.020824015,1.1492873,0.0,255,0,6,4,1,0,1,1,1,1,36
227087116,224062040,1200.0,0.36675593,0.020969467,0.89170164,0.0,255,0,6,4,1,0,1,1,1,1,36
228090361,224062040,1200.0,0.36675593,0.020960258,0.993117,0.0,255,0,6,4,1,0,1,1,1,1,36
229098682,224062040,1200.0,0.36675593,0.020928403,1.1660111,0.0,255,0,6,4,1,0,1,1,1,1,36
230067559,230064073,1200.0,0.36675593,0.020838335,0.8771947,0.0,255,0,6,4,1,0,1,1,1,1,36
231076434,230064073,1200.0,0.36675593,0.11975498,1.4121108,0.0,255,0,6,4,1,0,1,1,1,1,36
231173139,231172752,1200.0,0.36675593,0.11975498,1.4121108,0.0,255,0,6,4,1,0,1,1,1,1,36
232077405,232072839,1200.0,0.36675593,0.041612584,1.3732153,0.0,255,0,6,4,1,0,1,1,1,1,36
233048366,233047299,1200.0,0.36675593,0.06788453,0.99730355,0.0,255,0,6,4,1,0,1,1,1,1,36
234001141,233996087,1200.0,0.25786987,0.04181072,1.271245,0.0,255,0,6,4,1,0,1,1,1,1,36
235005404,233996087,1200.0,0.36675593,0.041959297,0.98104835,0.0,255,0,6,4,1,0,1,1,1,1,36
235072872,235062034,1200.0,0.36675593,0.041959297,0.98104835,0.0,255,0,6,4,1,0,1,1,1,1,36
236081099,235062034,1200.0,0.36675593,0.04159495,0.9022142,0.0,255,0,6,4,1,0,1,1,1,1,36
237089177,235062034,1200.0,0.36675593,0.0,1.1514819,0.0,255,0,6,4,1,0,1,1,1,1,36
238092554,235062034,1200.0,0.36675593,0.041957747,0.89210165,0.0,255,0,6,4,1,0,1,1,1,1,36
239100766,235062034,1200.0,0.36675593,0.020979166,0.9940129,0.0,255,0,6,4,1,0,1,1,1,1,36
242018295,240009973,1200.0,0.36675593,0.020866558,1.3255233,0.0,255,0,6,4,1,0,1,1,1,1,36
243024346,240009973,1200.0,0.36675593,0.020924523,0.95156765,0.0,255,0,6,4,1,0,1,1,1,1,36
244032177,240009973,1200.0,0.36675593,0.02089284,1.0625502,0.0,255,0,6,4,1,0,1,1,1,1,36
245034214,240009973,1200.0,0.36675593,0.020784978,1.1580203,0.0,255,0,6,4,1,0,1,1,1,1,36
246037890,240009973,1200.0,0.36675593,0.020791193,0.95738494,0.0,255,0,6,4,1,0,1,1,1,1,36
247043295,240009973,1200.0,0.36675593,0.020965135,0.9194709,0.0,255,0,6,4,1,0,1,1,1,1,36
248047278,240009973,1200.0,0.36675593,0.020911084,1.1540927,0.0,255,0,6,4,1,0,1,1,1,1,36
249054270,240009973,1200.0,0.36675593,0.020863013,0.8047162,0.0,255,0,6,4,1,0,1,1,1,1,36
250055241,240009973,1200.0,0.25786987,0.020938795,1.1207241,0.0,255,0,6,4,1,0,1,1,1,1,36
251059868,240009973,1200.0,0.25786987,0.020918667,0.69430053,0.0,255,0,6,4,1,0,1,1,1,1,36
252068377,240009973,1200.0,0.25786987,0.02091073,1.0345833,0.0,255,0,6,4,1,0,1,1,1,1,36
253077342,240009973,1200.0,0.25786987,0.020830069,0.43247187,0.0,255,0,6,4,1,0,1,1,1,1,36
254082501,240009973,1200.0,0.25786987,0.020814171,0.7949031,0.0,255,0,6,4,1,0,1,1,1,1,36
255087222,240009973,1200.0,0.25786987,0.02090917,0.8104792,0.0,255,0,6,4,1,0,1,1,1,1,36
256094436,240009973,1200.0,0.25786987,0.02085659,0.9157036,0.0,255,0,6,4,1,0,1,1,1,1,36
257102817,240009973,1200.0,0.25786987,0.020841066,0.76516485,0.0,255,0,6,4,1,0,1,1,1,1,36
258107955,240009973,1200.0,0.25786987,0.02083358,0.60020554,0.0,255,0,6,4,1,0,1,1,1,1,36
259113206,240009973,1200.0,0.25786987,0.020862743,0.9457777,0.0,255,0,6,4,1,0,1,1,1,1,36
260117601,240009973,1200.0,0.25786987,0.020886773,0.77181596,0.0,255,0,6,4,1,0,1,1,1,1,36
261125626,240009973,1200.0,0.25786987,0.020970829,0.75794566,0.0,255,0,6,4,1,0,1,1,1,1,36
262127901,240009973,1200.0,0.25786987,0.020881953,0.57972276,0.0,255,0,6,4,1,0,1,1,1,1,36
263129013,240009973,1200.0,0.25786987,0.020792264,0.9247607,0.0,255,0,6,4,1,0,1,1,1,1,36
264130247,240009973,1200.0,0.25786987,0.020976024,0.7001996,0.0,255,0,6,4,1,0,1,1,1,1,36
265138430,240009973,1200.0,0.25786987,0.02097946,0.83118623,0.0,255,0,6,4,1,0,1,1,1,1,36
266143261,240009973,1200.0,0.25786987,0.02081349,0.861282,0.0,255,0,6,4,1,0,1,1,1,1,36
267153679,240009973,1200.0,0.25786987,0.020894876,0.63281626,0.0,255,0,6,4,1,0,1,1,1,1,36
268155338,240009973,1200.0,0.25786987,0.020785965,0.7671011,0.0,255,0,6,4,1,0,1,1,1,1,36
269163685,240009973,1200.0,0.25786987,0.02083755,0.8344943,0.0,255,0,6,4,1,0,1,1,1,1,36
270169521,240009973,1200.0,0.25786987,0.020879773,0.77056307,0.0,255,0,6,4,1,0,1,1,1,1,36
271173154,240009973,1200.0,0.25786987,0.020907464,0.5933737,0.0,255,0,6,4,1,0,1,1,1,1,36
272176142,240009973,1200.0,0.25786987,0.02090765,0.82037634,0.0,255,0,6,4,1,0,1,1,1,1,36
274066202,273057049,1200.0,0.25786987,0.041787382,0.96011484,0.0,255,0,6,4,1,0,1,1,1,1,36
275068295,273057049,1200.0,0.36675593,0.02098963,0.9415349,0.0,255,0,6,4,1,0,1,1,1,1,36
276078773,273057049,1200.0,0.36675593,0.020985896,1.1951967,0.0,255,0,6,4,1,0,1,1,1,1,36
277081784,273057049,1200.0,0.36675593,0.020794075,1.2387327,0.0,255,0,6,4,1,0,1,1,1,1,36
278089944,273057049,1200.0,0.25786987,0.020937188,0.9601196,0.0,255,0,6,4,1,0,1,1,1,1,36
279096286,273057049,1200.0,0.25786987,0.020816335,0.96944654,0.0,255,0,6,4,1,0,1,1,1,1,36
280001564,279992000,1200.0,0.25786987,0.0208493,0.6522853,0.0,255,0,6,4,1,0,1,1,1,1,36
281008339,279992000,1200.0,0.36675593,0.041876506,0.99705964,0.0,255,0,6,4,1,0,1,1,1,1,36
282018494,279992000,1200.0,0.36675593,0.020928007,1.2805947,0.0,255,0,6,4,1,0,1,1,1,1,36
283022609,279992000,1200.0,0.36675593,0.020876141,0.99310786,0.0,255,0,6,4,1,0,1,1,1,1,36
284027422,279992000,1200.0,0.25786987,0.02088536,1.0452625,0.0,255,0,6,4,1,0,1,1,1,1,36
285031361,279992000,1200.0,0.25786987,0.020976128,0.7002031,0.0,255,0,6,4,1,0,1,1,1,1,36
286040215,279992000,1200.0,0.25786987,0.020975541,0.6112872,0.0,255,0,6,4,1,0,1,1,1,1,36
287041142,279992000,1200.0,0.25786987,0.020839121,0.79585594,0.0,255,0,6,4,1,0,1,1,1,1,36
288049726,279992000,1200.0,0.25786987,0.020934807,0.9939049,0.0,255,0,6,4,1,0,1,1,1,1,36
289059193,279992000,1200.0,0.25786987,0.020812685,0.6947472,0.0,255,0,6,4,1,0,1,1,1,1,36
290061231,279992000,1200.0,0.25786987,0.020922022,0.7771037,0.0,255,0,6,4,1,0,1,1,1,1,36
291063395,279992000,1200.0,0.25786987,0.020901905,0.5912253,0.0,255,0,6,4,1,0,1,1,1,1,36
291083968,291079591,1200.0,0.25786987,0.020901905,0.5912253,0.0,255,0,6,4,1,0,1,1,1,1,36
292092547,291079591,1200.0,0.36675593,0.041786887,0.9312506,0.0,255,0,6,4,1,0,1,1,1,1,36
294101348,291079591,1200.0,0.36675593,0.020951644,1.1952413,0.0,255,0,6,4,1,0,1,1,1,1,36
295017132,295009363,1200.0,0.36675593,0.02079284,0.9257764,0.0,255,0,6,4,1,0,1,1,1,1,36
296023321,295009363,1200.0,0.36675593,0.041702244,0.9492225,0.0,255,0,6,4,1,0,1,1,1,1,36
297027517,295009363,1200.0,0.36675593,0.020993365,1.0766597,0.0,255,0,6,4,1,0,1,1,1,1,36
298021219,298018069,1200.0,0.36675593,0.020798668,1.2499009,0.0,255,0,6,4,1,0,1,1,1,1,36
299026347,298018069,1200.0,0.36675593,0.04195062,0.994829,0.0,255,0,6,4,1,0,1,1,1,1,36
300026523,298018069,1200.0,0.36675593,0.02086009,1.1423383,0.0,255,0,6,4,1,0,1,1,1,1,36
301031312,298018069,1200.0,0.36675593,0.020924233,0.90173477,0.0,255,0,6,4,1,0,1,1,1,1,36
302038379,298018069,1200.0,0.36675593,0.020802334,1.0302109,0.0,255,0,6,4,1,0,1,1,1,1,36
303045854,298018069,1200.0,0.36675593,0.020940507,1.068963,0.0,255,0,6,4,1,0,1,1,1,1,36
304054186,298018069,1200.0,0.36675593,0.020949699,0.9596957,0.0,255,0,6,4,1,0,1,1,1,1,36
305061038,298018069,1200.0,0.36675593,0.020839037,1.1679784,0.0,255,0,6,4,1,0,1,1,1,1,36
306066189,298018069,1200.0,0.25786987,0.020931594,0.9319543,0.0,255,0,6,4,1,0,1,1,1,1,36
307072349,298018069,1200.0,0.25786987,0.02085862,0.69727385,0.0,255,0,6,4,1,0,1,1,1,1,36
308079228,298018069,1200.0,0.25786987,0.020826286,0.78644025,0.0,255,0,6,4,1,0,1,1,1,1,36
311093978,298018069,1200.0,0.25786987,0.020950764,0.81408685,0.0,255,0,6,4,1,0,1,1,1,1,36
312104371,298018069,1200.0,0.25786987,0.020861272,0.880147,0.0,255,0,6,4,1,0,1,1,1,1,36
313105196,298018069,1200.0,0.25786987,0.020955553,0.8801332,0.0,255,0,6,4,1,0,1,1,1,1,36
314105226,298018069,1200.0,0.25786987,0.020897102,0.54730505,0.0,255,0,6,4,1,0,1,1,1,1,36
315111285,298018069,1200.0,0.25786987,0.020837612,0.77793753,0.0,255,0,6,4,1,0,1,1,1,1,36
316119506,298018069,1200.0,0.25786987,0.020914396,0.78877157,0.0,255,0,6,4,1,0,1,1,1,1,36
317121401,298018069,1200.0,0.25786987,0.020988267,0.95046866,0.0,255,0,6,4,1,0,1,1,1,1,36
318127478,298018069,1200.0,0.25786987,0.020778233,0.45019504,0.0,255,0,6,4,1,0,1,1,1,1,36
319135950,298018069,1200.0,0.25786987,0.020878134,0.9375276,0.0,255,0,6,4,1,0,1,1,1,1,36
320137412,298018069,1200.0,0.25786987,0.020912314,0.71500194,0.0,255,0,6,4,1,0,1,1,1,1,36
321141777,298018069,1200.0,0.25786987,0.020983065,0.9951968,0.0,255,0,6,4,1,0,1,1,1,1,36
322145960,298018069,1200.0,0.25786987,0.020792078,0.81683165,0.0,255,0,6,4,1,0,1,1,1,1,36
323148124,298018069,1200.0,0.25786987,0.020958083,0.41516963,0.0,255,0,6,4,1,0,1,1,1,1,36
324148191,298018069,1200.0,0.25786987,0.020979019,0.8571428,0.0,255,0,6,4,1,0,1,1,1,1,36
325158725,298018069,1200.0,0.25786987,0.020916333,0.95816725,0.0,255,0,6,4,1,0,1,1,1,1,36
326167618,298018069,1200.0,0.25786987,0.020821022,0.7693863,0.0,255,0,6,4,1,0,1,1,1,1,36
327177540,298018069,1200.0,0.25786987,0.020988392,0.50072306,0.0,255,0,6,4,1,0,1,1,1,1,36
328183193,298018069,1200.0,0.25786987,0.020918438,0.9791821,0.0,255,0,6,4,1,0,1,1,1,1,36
329183258,298018069,1200.0,0.25786987,0.020784609,0.8462305,0.0,255,0,6,4,1,0,1,1,1,1,36
330187648,298018069,1200.0,0.25786987,0.020990029,0.70166665,0.0,255,0,6,4,1,0,1,1,1,1,36
331190308,298018069,1200.0,0.25786987,0.02085166,0.65235907,0.0,255,0,6,4,1,0,1,1,1,1,36
332197375,298018069,1200.0,0.25786987,0.020833332,0.85119045,0.0,255,0,6,4,1,0,1,1,1,1,36
333201146,298018069,1200.0,0.25786987,0.020884965,0.7329628,0.0,255,0,6,4,1,0,1,1,1,1,36
334204095,298018069,1200.0,0.25786987,0.020864485,0.7918568,0.0,255,0,6,4,1,0,1,1,1,1,36
335205051,298018069,1200.0,0.25786987,0.020913355,0.8006827,0.0,255,0,6,4,1,0,1,1,1,1,36
336212180,298018069,1200.0,0.25786987,0.02082127,0.71783805,0.0,255,0,6,4,1,0,1,1,1,1,36
337220154,298018069,1200.0,0.25786987,0.020989316,0.7716072,0.0,255,0,6,4,1,0,1,1,1,1,36
338225845,298018069,1200.0,0.25786987,0.020786397,0.7344527,0.0,255,0,6,4,1,0,1,1,1,1,36
339235225,298018069,1200.0,0.25786987,0.020864692,0.8703557,0.0,255,0,6,4,1,0,1,1,1,1,36
340243341,298018069,1200.0,0.25786987,0.020945456,0.8807066,0.0,255,0,6,4,1,0,1,1,1,1,36
341244148,298018069,1200.0,0.25786987,0.020863863,0.45304388,0.0,255,0,6,4,1,0,1,1,1,1,36
342248811,298018069,1200.0,0.25786987,0.020897537,0.93939406,0.0,255,0,6,4,1,0,1,1,1,1,36
344261514,298018069,1200.0,0.25786987,0.02097441,1.0167595,0.0,255,0,6,4,1,0,1,1,1,1,36
345272866,298018069,1200.0,0.25786987,0.02084926,0.48251143,0.0,255,0,6,4,1,0,1,1,1,1,36
347278384,298018069,1200.0,0.25786987,0.02084154,0.7870163,0.0,255,0,6,4,1,0,1,1,1,1,36
348284007,298018069,1200.0,0.25786987,0.02091248,0.9191533,0.0,255,0,6,4,1,0,1,1,1,1,36
349288928,298018069,1200.0,0.25786987,0.020848906,0.8190642,0.0,255,0,6,4,1,0,1,1,1,1,36
350289851,298018069,1200.0,0.25786987,0.020834077,0.57045686,0.0,255,0,6,4,1,0,1,1,1,1,36
351113226,351110035,1200.0,0.25786987,0.020958083,0.761477,0.0,255,0,6,4,1,0,1,1,1,1,36
352009844,352004160,1200.0,0.25786987,0.04170158,1.1597011,0.0,255,0,6,4,1,0,1,1,1,1,36
353014655,352004160,1200.0,0.36675593,0.041673113,0.9108552,0.0,255,0,6,4,1,0,1,1,1,1,36
353024323,353020040,1200.0,0.36675593,0.041673113,0.9108552,0.0,255,0,6,4,1,0,1,1,1,1,36
354027803,353020040,1200.0,0.36675593,0.06757871,1.2233734,0.0,255,0,6,4,1,0,1,1,1,1,36
355032737,353020040,1200.0,0.36675593,0.020986086,0.903401,0.0,255,0,6,4,1,0,1,1,1,1,36
356041528,353020040,1200.0,0.36675593,0.020912085,1.3453441,0.0,255,0,6,4,1,0,1,1,1,1,36
357048169,353020040,1200.0,0.36675593,0.02084026,1.037051,0.0,255,0,6,4,1,0,1,1,1,1,36
358049414,353020040,1200.0,0.36675593,0.020966474,1.0053923,0.0,255,0,6,4,1,0,1,1,1,1,36
358113342,358106975,1200.0,0.36675593,0.020966474,1.0053923,0.0,255,0,6,4,1,0,1,1,1,1,36
359032722,359032385,1200.0,0.36675593,0.04159412,0.9031867,0.0,255,0,6,4,1,0,1,1,1,1,36
360038423,359032385,1200.0,0.36675593,0.04169202,1.1058311,0.0,255,0,6,4,1,0,1,1,1,1,36
360167197,360159189,1200.0,0.36675593,0.04169202,1.1058311,0.0,255,0,6,4,1,0,1,1,1,1,36
361171278,360159189,1200.0,0.36675593,0.041712806,1.0557312,0.0,255,0,6,4,1,0,1,1,1,1,36
362173199,360159189,1200.0,0.36675593,0.020852117,1.1270072,0.0,255,0,6,4,1,0,1,1,1,1,36
363180324,360159189,1200.0,0.36675593,0.020819433,0.92596906,0.0,255,0,6,4,1,0,1,1,1,1,36
364020377,364019193,1200.0,0.36675593,0.02086069,1.0082668,0.0,255,0,6,4,1,0,1,1,1,1,36
365027803,364019193,1200.0,0.36675593,0.041861687,1.115315,0.0,255,0,6,4,1,0,1,1,1,1,36
365037175,365033644,1200.0,0.36675593,0.041861687,1.115315,0.0,255,0,6,4,1,0,1,1,1,1,36
366046346,365033644,1200.0,0.36675593,0.020835359,1.1677722,0.0,255,0,6,4,1,0,1,1,1,1,36
367049594,365033644,1200.0,0.36675593,0.020896437,0.99009305,0.0,255,0,6,4,1,0,1,1,1,1,36
368055578,365033644,1200.0,0.36675593,0.020872489,1.1410294,0.0,255,0,6,4,1,0,1,1,1,1,36
369059910,365033644,1200.0,0.36675593,0.020918604,1.0429418,0.0,255,0,6,4,1,0,1,1,1,1,36
369101142,369097047,1200.0,0.36675593,0.020918604,1.0429418,0.0,255,0,6,4,1,0,1,1,1,1,36
370102354,369097047,1200.0,0.36675593,0.0416231,0.9900352,0.0,255,0,6,4,1,0,1,1,1,1,36
371050349,371048038,1200.0,0.36675593,0.020928195,1.0663414,0.0,255,0,6,4,1,0,1,1,1,1,36
372055526,371048038,1200.0,0.36675593,0.04189622,0.97757846,0.0,255,0,6,4,1,0,1,1,1,1,36
372107510,372102810,1200.0,0.36675593,0.04189622,0.97757846,0.0,255,0,6,4,1,0,1,1,1,1,36
373020828,373018254,1200.0,0.36675593,0.041747965,1.1490631,0.0,255,0,6,4,1,0,1,1,1,1,36
374023227,373018254,1200.0,0.36675593,0.06749815,0.9717748,0.0,255,0,6,4,1,0,1,1,1,1,36
374054731,374054334,1200.0,0.36675593,0.06749815,0.9717748,0.0,255,0,6,4,1,0,1,1,1,1,36
376039430,376037813,1200.0,0.36675593,0.0,1.1168014,0.0,255,0,6,4,1,0,1,1,1,1,36
377040778,376037813,1200.0,0.36675593,0.06776627,1.5536414,0.0,255,0,6,4,1,0,1,1,1,1,36
377061019,377058036,1200.0,0.36675593,0.06776627,1.5536414,0.0,255,0,6,4,1,0,1,1,1,1,36
378070382,377058036,1200.0,0.36675593,0.06255244,0.79332376,0.0,255,0,6,4,1,0,1,1,1,1,36
378110432,378103151,1200.0,0.36675593,0.06255244,0.79332376,0.0,255,0,6,4,1,0,1,1,1,1,36
379038628,379032083,1200.0,0.36675593,0.020824883,1.179085,0.0,255,0,6,4,1,0,1,1,1,1,36
380044327,379032083,1200.0,0.36675593,0.041619636,0.8958131,0.0,255,0,6,4,1,0,1,1,1,1,36
380065997,380065223,1200.0,0.36675593,0.041619636,0.8958131,0.0,255,0,6,4,1,0,1,1,1,1,36
381071410,380065223,1200.0,0.36675593,0.041833334,1.2042024,0.0,255,0,6,4,1,0,1,1,1,1,36
382036946,382031163,1200.0,0.36675593,0.020961283,0.8584145,0.0,255,0,6,4,1,0,1,1,1,1,36
383037499,382031163,1200.0,0.36675593,0.06287425,1.1716566,0.0,255,0,6,4,1,0,1,1,1,1,36
383071921,383067399,1200.0,0.36675593,0.06287425,1.1716566,0.0,255,0,6,4,1,0,1,1,1,1,36
384074310,383067399,1200.0,0.36675593,0.06781276,1.2834563,0.0,255,0,6,4,1,0,1,1,1,1,36
385078587,383067399,1200.0,0.36675593,0.0,0.9532794,0.0,255,0,6,4,1,0,1,1,1,1,36
386079283,383067399,1200.0,0.36675593,0.020854166,0.8748819,0.0,255,0,6,4,1,0,1,1,1,1,36
387082378,383067399,1200.0,0.36675593,0.041621782,1.137662,0.0,255,0,6,4,1,0,1,1,1,1,36
388086656,383067399,1200.0,0.36675593,0.0,1.0997963,0.0,255,0,6,4,1,0,1,1,1,1,36
389094428,383067399,1200.0,0.36675593,0.020958083,0.95209575,0.0,255,0,6,4,1,0,1,1,1,1,36
390096290,383067399,1200.0,0.36675593,0.041832667,1.1105577,0.0,255,0,6,4,1,0,1,1,1,1,36
391100754,383067399,1200.0,0.36675593,0.0,0.8731947,0.0,255,0,6,4,1,0,1,1,1,1,36
391110275,391102038,1200.0,0.36675593,0.0,0.8731947,0.0,255,0,6,4,1,0,1,1,1,1,36
392112257,391102038,1200.0,0.36675593,0.041865233,1.1443164,0.0,255,0,6,4,1,0,1,1,1,1,36
393009385,393006655,1200.0,0.36675593,0.04193923,0.9636037,0.0,255,0,6,4,1,0,1,1,1,1,36
394012323,393006655,1200.0,0.36675593,0.06770602,1.3053322,0.0,255,0,6,4,1,0,1,1,1,1,36
394064611,394057698,1200.0,0.36675593,0.06770602,1.3053322,0.0,255,0,6,4,1,0,1,1,1,1,36
395071198,394057698,1200.0,0.36675593,0.041640103,1.0360454,0.0,255,0,6,4,1,0,1,1,1,1,36
396010528,396010059,1200.0,0.36675593,0.020866351,1.0403366,0.0,255,0,6,4,1,0,1,1,1,1,36
397012189,396010059,1200.0,0.36675593,0.020962015,0.9532726,0.0,255,0,6,4,1,0,1,1,1,1,36
398017738,396010059,1200.0,0.36675593,0.04161444,1.0215354,0.0,255,0,6,4,1,0,1,1,1,1,36
398100157,398090039,1200.0,0.36675593,0.04161444,1.0215354,0.0,255,0,6,4,1,0,1,1,1,1,36
400013236,399010173,1200.0,0.36675593,0.020763112,1.1212081,0.0,255,0,6,4,1,0,1,1,1,1,36
401020713,399010173,1200.0,0.36675593,0.041810844,0.9706089,0.0,255,0,6,4,1,0,1,1,1,1,36
402026204,399010173,1200.0,0.36675593,0.02081939,0.947778,0.0,255,0,6,4,1,0,1,1,1,1,36
404035236,399010173,1200.0,0.36675593,0.04162376,0.96824795,0.0,255,0,6,4,1,0,1,1,1,1,36
405036528,399010173,1200.0,0.36675593,0.0,0.951543,0.0,255,0,6,4,1,0,1,1,1,1,36
406038730,399010173,1200.0,0.36675593,0.04159091,1.2170292,0.0,255,0,6,4,1,0,1,1,1,1,36
407030958,407029141,1200.0,0.36675593,0.0,0.85592175,0.0,255,0,6,4,1,0,1,1,1,1,36
408035365,407029141,1200.0,0.36675593,0.062726885,1.0235435,0.0,255,0,6,4,1,0,1,1,1,1,36
409039223,407029141,1200.0,0.36675593,0.0,1.0767136,0.0,255,0,6,4,1,0,1,1,1,1,36
410040203,407029141,1200.0,0.36675593,0.041972086,1.1122603,0.0,255,0,6,4,1,0,1,1,1,1,36
410110544,410108205,1200.0,0.36675593,0.041972086,1.1122603,0.0,255,0,6,4,1,0,1,1,1,1,36
411044591,411036043,1200.0,0.36675593,0.04178568,0.95709103,0.0,255,0,6,4,1,0,1,1,1,1,36
412046326,411036043,1200.0,0.36675593,0.041798946,1.2539684,0.0,255,0,6,4,1,0,1,1,1,1,36
412089659,412089025,1200.0,0.36675593,0.041798946,1.2539684,0.0,255,0,6,4,1,0,1,1,1,1,36
413089970,412089025,1200.0,0.36675593,0.020882847,0.92779505,0.0,255,0,6,4,1,0,1,1,1,1,36
414095211,412089025,1200.0,0.36675593,0.041601207,1.1489857,0.0,255,0,6,4,1,0,1,1,1,1,36
415095537,412089025,1200.0,0.36675593,0.02091223,1.0894276,0.0,255,0,6,4,1,0,1,1,1,1,36
417110469,412089025,1200.0,0.36675593,0.0208342,1.0923073,0.0,255,0,6,4,1,0,1,1,1,1,36
418111727,412089025,1200.0,0.36675593,0.020853607,0.857977,0.0,255,0,6,4,1,0,1,1,1,1,36
419116419,412089025,1200.0,0.36675593,0.020795105,1.2368137,0.0,255,0,6,4,1,0,1,1,1,1,36
420123494,412089025,1200.0,0.36675593,0.020838253,0.8533761,0.0,255,0,6,4,1,0,1,1,1,1,36
421125141,412089025,1200.0,0.36675593,0.020865873,1.1058912,0.0,255,0,6,4,1,0,1,1,1,1,36
422133147,412089025,1200.0,0.25786987,0.020978391,1.3256346,0.0,255,0,6,4,1,0,1,1,1,1,36
423138402,412089025,1200.0,0.25786987,0.02097724,0.5094472,0.0,255,0,6,4,1,0,1,1,1,1,36
424142351,412089025,1200.0,0.25786987,0.02095551,0.7394301,0.0,255,0,6,4,1,0,1,1,1,1,36
425148308,412089025,1200.0,0.25786987,0.020817926,0.7851332,0.0,255,0,6,4,1,0,1,1,1,1,36
426148727,412089025,1200.0,0.25786987,0.020923149,1.0013222,0.0,255,0,6,4,1,0,1,1,1,1,36
427149355,412089025,1200.0,0.25786987,0.020927735,0.41357192,0.0,255,0,6,4,1,0,1,1,1,1,36
428153158,412089025,1200.0,0.25786987,0.020948675,0.8978003,0.0,255,0,6,4,1,0,1,1,1,1,36
429156026,412089025,1200.0,0.25786987,0.020825543,0.7943457,0.0,255,0,6,4,1,0,1,1,1,1,36
430160908,412089025,1200.0,0.25786987,0.020944769,0.9534856,0.0,255,0,6,4,1,0,1,1,1,1,36
431170162,412089025,1200.0,0.25786987,0.020825833,0.69121933,0.0,255,0,6,4,1,0,1,1,1,1,36
433177212,412089025,1200.0,0.25786987,0.020867905,0.85160923,0.0,255,0,6,4,1,0,1,1,1,1,36
434185549,412089025,1200.0,0.25786987,0.02094857,0.8359477,0.0,255,0,6,4,1,0,1,1,1,1,36
435185603,412089025,1200.0,0.25786987,0.020826535,0.73487914,0.0,255,0,6,4,1,0,1,1,1,1,36
436197165,412089025,1200.0,0.25786987,0.020888932,0.7221602,0.0,255,0,6,4,1,0,1,1,1,1,36
437198268,412089025,1200.0,0.25786987,0.020946188,0.76004744,0.0,255,0,6,4,1,0,1,1,1,1,36
438198433,412089025,1200.0,0.25786987,0.020895438,0.907459,0.0,255,0,6,4,1,0,1,1,1,1,36
440208940,412089025,1200.0,0.25786987,0.020772232,0.6498741,0.0,255,0,6,4,1,0,1,1,1,1,36
441219077,412089025,1200.0,0.25786987,0.020889431,0.7709195,0.0,255,0,6,4,1,0,1,1,1,1,36
442227651,412089025,1200.0,0.25786987,0.020942511,0.7778647,0.0,255,0,6,4,1,0,1,1,1,1,36
443228014,412089025,1200.0,0.25786987,0.020965531,0.8346278,0.0,255,0,6,4,1,0,1,1,1,1,36
444236743,412089025,1200.0,0.25786987,0.020825297,0.79631966,0.0,255,0,6,4,1,0,1,1,1,1,36
445236897,412089025,1200.0,0.25786987,0.020896208,0.6368368,0.0,255,0,6,4,1,0,1,1,1,1,36
446241146,412089025,1200.0,0.25786987,0.020875394,0.80917,0.0,255,0,6,4,1,0,1,1,1,1,36
447249224,412089025,1200.0,0.25786987,0.020937083,0.77866006,0.0,255,0,6,4,1,0,1,1,1,1,36
448257967,412089025,1200.0,0.25786987,0.02081283,0.784941,0.0,255,0,6,4,1,0,1,1,1,1,36
449266017,412089025,1200.0,0.25786987,0.020976547,0.9639223,0.0,255,0,6,4,1,0,1,1,1,1,36
450266602,412089025,1200.0,0.25786987,0.020909358,0.41320872,0.0,255,0,6,4,1,0,1,1,1,1,36
451274250,412089025,1200.0,0.25786987,0.020801408,0.8072927,0.0,255,0,6,4,1,0,1,1,1,1,36
452275256,412089025,1200.0,0.25786987,0.020886295,0.7986521,0.0,255,0,6,4,1,0,1,1,1,1,36
453275588,412089025,1200.0,0.25786987,0.02099219,1.0256184,0.0,255,0,6,4,1,0,1,1,1,1,36
454275994,412089025,1200.0,0.25786987,0.02096616,0.488212,0.0,255,0,6,4,1,0,1,1,1,1,36
455283432,412089025,1200.0,0.25786987,0.020890553,0.7371381,0.0,255,0,6,4,1,0,1,1,1,1,36
456286498,412089025,1200.0,0.25786987,0.020981012,0.8742088,0.0,255,0,6,4,1,0,1,1,1,1,36
457294597,412089025,1200.0,0.25786987,0.020927673,0.8789623,0.0,255,0,6,4,1,0,1,1,1,1,36
458294657,412089025,1200.0,0.25786987,0.020946732,0.65533346,0.0,255,0,6,4,1,0,1,1,1,1,36
459301530,412089025,1200.0,0.25786987,0.020844335,0.77521074,0.0,255,0,6,4,1,0,1,1,1,1,36
460307329,412089025,1200.0,0.25786987,0.020998886,0.7619596,0.0,255,0,6,4,1,0,1,1,1,1,36
461312539,412089025,1200.0,0.25786987,0.0208767,0.9066453,0.0,255,0,6,4,1,0,1,1,1,1,36
462314327,412089025,1200.0,0.25786987,0.02089552,0.6975124,0.0,255,0,6,4,1,0,1,1,1,1,36
463320317,412089025,1200.0,0.25786987,0.020916333,0.58565736,0.0,255,0,6,4,1,0,1,1,1,1,36
464327790,412089025,1200.0,0.25786987,0.020771513,0.8664688,0.0,255,0,6,4,1,0,1,1,1,1,36
465328546,412089025,1200.0,0.25786987,0.020863386,0.83254844,0.0,255,0,6,4,1,0,1,1,1,1,36
466338811,412089025,1200.0,0.25786987,0.020799698,0.8894347,0.0,255,0,6,4,1,0,1,1,1,1,36
467346616,412089025,1200.0,0.25786987,0.020899223,0.7384392,0.0,255,0,6,4,1,0,1,1,1,1,36
468351993,412089025,1200.0,0.25786987,0.020908024,0.6979298,0.0,255,0,6,4,1,0,1,1,1,1,36
469353238,412089025,1200.0,0.25786987,0.020951161,0.8520139,0.0,255,0,6,4,1,0,1,1,1,1,36
470360190,412089025,1200.0,0.25786987,0.020779425,0.7332169,0.0,255,0,6,4,1,0,1,1,1,1,36
472363423,412089025,1200.0,0.25786987,0.02089552,0.7104477,0.0,255,0,6,4,1,0,1,1,1,1,36
473367244,412089025,1200.0,0.25786987,0.02094053,0.75884485,0.0,255,0,6,4,1,0,1,1,1,1,36
474370571,412089025,1200.0,0.25786987,0.020996576,0.81486714,0.0,255,0,6,4,1,0,1,1,1,1,36
475375491,412089025,1200.0,0.25786987,0.020833394,0.83631194,0.0,255,0,6,4,1,0,1,1,1,1,36
476378521,412089025,1200.0,0.25786987,0.020989148,0.9645013,0.0,255,0,6,4,1,0,1,1,1,1,36
477382321,412089025,1200.0,0.25786987,0.020864567,0.48584637,0.0,255,0,6,4,1,0,1,1,1,1,36
478385215,412089025,1200.0,0.25786987,0.020946333,0.73910636,0.0,255,0,6,4,1,0,1,1,1,1,36
479392947,412089025,1200.0,0.25786987,0.020990973,0.79165953,0.0,255,0,6,4,1,0,1,1,1,1,36
480399314,412089025,1200.0,0.25786987,0.020914292,1.0008982,0.0,255,0,6,4,1,0,1,1,1,1,36
481403432,412089025,1200.0,0.25786987,0.020826101,0.41156343,0.0,255,0,6,4,1,0,1,1,1,1,36
482407342,412089025,1200.0,0.25786987,0.020904612,0.89591193,0.0,255,0,6,4,1,0,1,1,1,1,36
483412383,412089025,1200.0,0.25786987,0.020809736,0.8145525,0.0,255,0,6,4,1,0,1,1,1,1,36
484417672,412089025,1200.0,0.25786987,0.020857086,0.949494,0.0,255,0,6,4,1,0,1,1,1,1,36
485427897,412089025,1200.0,0.25786987,0.02081281,0.6907871,0.0,255,0,6,4,1,0,1,1,1,1,36
486431805,412089025,1200.0,0.25786987,0.020979019,0.5814186,0.0,255,0,6,4,1,0,1,1,1,1,36
487440584,412089025,1200.0,0.25786987,0.020809798,0.8284281,0.0,255,0,6,4,1,0,1,1,1,1,36
488442336,412089025,1200.0,0.25786987,0.020897435,0.8339072,0.0,255,0,6,4,1,0,1,1,1,1,36
489452403,412089025,1200.0,0.25786987,0.020913772,0.73795736,0.0,255,0,6,4,1,0,1,1,1,1,36
490457545,412089025,1200.0,0.25786987,0.0208783,0.6820245,0.0,255,0,6,4,1,0,1,1,1,1,36
491465584,412089025,1200.0,0.25786987,0.020954214,0.8002514,0.0,255,0,6,4,1,0,1,1,1,1,36
492473644,412089025,1200.0,0.25786987,0.020935934,0.9092177,0.0,255,0,6,4,1,0,1,1,1,1,36
493484060,412089025,1200.0,0.25786987,0.020921439,0.84183884,0.0,255,0,6,4,1,0,1,1,1,1,36
494489186,412089025,1200.0,0.25786987,0.020824099,0.65149677,0.0,255,0,6,4,1,0,1,1,1,1,36
495490511,412089025,1200.0,0.25786987,0.020987762,0.7745484,0.0,255,0,6,4,1,0,1,1,1,1,36
497499928,412089025,1200.0,0.25786987,0.020979019,0.93706286,0.0,255,0,6,4,1,0,1,1,1,1,36
498501339,412089025,1200.0,0.25786987,0.020853916,0.79741406,0.0,255,0,6,4,1,0,1,1,1,1,36
499508169,412089025,1200.0,0.25786987,0.020852054,0.6354912,0.0,255,0,6,4,1,0,1,1,1,1,36
500516614,412089025,1200.0,0.25786987,0.0,0.8112021,0.0,255,0,6,4,1,0,1,1,1,1,36
501518457,412089025,1200.0,0.25786987,0.020969614,0.7399278,0.0,255,0,6,4,1,0,1,1,1,1,36
502525621,412089025,1200.0,0.25786987,0.020999894,0.8319958,0.0,255,0,6,4,1,0,1,1,1,1,36
503529142,412089025,1200.0,0.25786987,0.020916395,0.98207456,0.0,255,0,6,4,1,0,1,1,1,1,36
504530213,412089025,1200.0,0.25786987,0.020859262,0.41221872,0.0,255,0,6,4,1,0,1,1,1,1,36
505533146,412089025,1200.0,0.25786987,0.020797288,0.80713284,0.0,255,0,6,4,1,0,1,1,1,1,36
506534532,412089025,1200.0,0.25786987,0.02081844,0.7960575,0.0,255,0,6,4,1,0,1,1,1,1,36
507542193,412089025,1200.0,0.25786987,0.020954905,0.96292776,0.0,255,0,6,4,1,0,1,1,1,1,36
508550211,412089025,1200.0,0.25786987,0.020902427,0.52654207,0.0,255,0,6,4,1,0,1,1,1,1,36
509559227,412089025,1200.0,0.25786987,0.020832548,0.7350913,0.0,255,0,6,4,1,0,1,1,1,1,36
510568471,412089025,1200.0,0.25786987,0.020855533,0.8689805,0.0,255,0,6,4,1,0,1,1,1,1,36
511568546,412089025,1200.0,0.25786987,0.02095779,0.8802272,0.0,255,0,6,4,1,0,1,1,1,1,36
512570007,412089025,1200.0,0.25786987,0.020997794,0.656931,0.0,255,0,6,4,1,0,1,1,1,1,36
513574518,412089025,1200.0,0.25786987,0.02084483,0.796074,0.0,255,0,6,4,1,0,1,1,1,1,36
514584324,412089025,1200.0,0.25786987,0.020885255,0.7140769,0.0,255,0,6,4,1,0,1,1,1,1,36
515588220,412089025,1200.0,0.25786987,0.020778604,0.9459212,0.0,255,0,6,4,1,0,1,1,1,1,36
516591191,412089025,1200.0,0.25786987,0.020827383,0.6952379,0.0,255,0,6,4,1,0,1,1,1,1,36
517592142,412089025,1200.0,0.25786987,0.02099605,0.53789884,0.0,255,0,6,4,1,0,1,1,1,1,36
518596898,412089025,1200.0,0.25786987,0.020909939,0.9011188,0.0,255,0,6,4,1,0,1,1,1,1,36
519598346,412089025,1200.0,0.25786987,0.02092665,0.835073,0.0,255,0,6,4,1,0,1,1,1,1,36
520606149,412089025,1200.0,0.25786987,0.020979019,0.89710283,0.0,255,0,6,4,1,0,1,1,1,1,36
521608218,412089025,1200.0,0.25786987,0.020820959,0.7356739,0.0,255,0,6,4,1,0,1,1,1,1,36
522616363,412089025,1200.0,0.25786987,0.020910418,0.69800967,0.0,255,0,6,4,1,0,1,1,1,1,36
523626689,412089025,1200.0,0.25786987,0.020933013,0.74960124,0.0,255,0,6,4,1,0,1,1,1,1,36
524631532,412089025,1200.0,0.25786987,0.020859864,0.85823435,0.0,255,0,6,4,1,0,1,1,1,1,36
525639809,412089025,1200.0,0.25786987,0.020953922,0.7164246,0.0,255,0,6,4,1,0,1,1,1,1,36
526644391,412089025,1200.0,0.25786987,0.020831328,0.7082651,0.0,255,0,6,4,1,0,1,1,1,1,36
527649585,412089025,1200.0,0.25786987,0.02081999,0.73365676,0.0,255,0,6,4,1,0,1,1,1,1,36
528652234,412089025,1200.0,0.25786987,0.020880833,0.81037515,0.0,255,0,6,4,1,0,1,1,1,1,36
529653686,412089025,1200.0,0.25786987,0.020946585,0.8408558,0.0,255,0,6,4,1,0,1,1,1,1,36
531664284,412089025,1200.0,0.25786987,0.020996766,0.48892468,0.0,255,0,6,4,1,0,1,1,1,1,36
532664393,412089025,1200.0,0.25786987,0.020895543,0.73731416,0.0,255,0,6,4,1,0,1,1,1,1,36
533673385,412089025,1200.0,0.25786987,0.020814171,0.80580574,0.0,255,0,6,4,1,0,1,1,1,1,36
535687529,412089025,1200.0,0.25263152,0.020812685,0.53419226,0.0,255,0,6,4,1,0,1,1,1,1,36
536687930,412089025,1200.0,0.25263152,0.020958083,0.85329336,0.0,255,0,6,4,1,0,1,1,1,1,36
537690394,412089025,1200.0,0.25263152,0.020876743,0.9215591,0.0,255,0,6,4,1,0,1,1,1,1,36
