timestamp,magnetometer_ga[0],magnetometer_ga[1],magnetometer_ga[2]
3289207,-0.009988094,-0.13329674,0.3927475
3311427,-0.0068639587,-0.12152191,0.40460488
3322459,-0.0021777577,-0.14507158,0.39571184
3333568,-0.00061569066,-0.12446563,0.39867622
3356143,-0.0053018914,-0.12593748,0.40164053
3367295,-0.009988094,-0.13329674,0.40164053
3378729,-0.009988094,-0.12888117,0.4149801
3390316,-0.00061569066,-0.1318249,0.39867622
3401877,-0.009988094,-0.11710635,0.39422968
3412766,-0.0053018914,-0.13329674,0.40015835
3423240,-0.0037398248,-0.12740932,0.38830096
3435246,-0.0037398248,-0.13771231,0.40164053
3457896,-0.0053018914,-0.14212787,0.37792572
3468743,-0.009988094,-0.14212787,0.40460488
3479270,-0.013112227,-0.14212787,0.3853366
3502305,-0.019360496,-0.12740932,0.38830096
3513151,-0.016236361,-0.13329674,0.40015835
3524318,-0.0053018914,-0.14507158,0.3927475
3536746,-0.009988094,-0.13329674,0.3927475
3547297,-0.0068639587,-0.12740932,0.40164053
3558403,-0.0053018914,-0.12888117,0.3927475
3569598,-0.0037398248,-0.13771231,0.40460488
3581846,-0.009988094,-0.14212787,0.39422968
3603328,0.0009463764,-0.13918416,0.3927475
3614321,-0.009988094,-0.12740932,0.40164053
3625221,-0.0068639587,-0.13771231,0.39867622
3648215,-0.0053018914,-0.13329674,0.40164053
3659480,-0.0037398248,-0.12152191,0.40460488
3670161,-0.0037398248,-0.14359972,0.39867622
3682284,-0.00061569066,-0.1318249,0.39867622
3704363,-0.00061569066,-0.12740932,0.40460488
3715524,-0.013112227,-0.1318249,0.39867622
3727549,-0.0037398248,-0.13771231,0.40164053
3749159,-0.00061569066,-0.1318249,0.39422968
3760355,-0.01779843,-0.12740932,0.40460488
3771586,-0.0053018914,-0.12593748,0.39571184
3783491,0.008756712,-0.13329674,0.40015835
3794272,0.0009463764,-0.13624045,0.38385445
3805165,-0.016236361,-0.12888117,0.3912653
3817149,0.008756712,-0.1185782,0.40905142
3829177,-0.009988094,-0.14359972,0.3927475
3841658,-0.0037398248,-0.12152191,0.3927475
3852437,-0.0037398248,-0.13329674,0.39867622
3864394,-0.0037398248,-0.1318249,0.39422968
3875519,-0.01155016,-0.13624045,0.3927475
3897234,-0.009988094,-0.13329674,0.40460488
3909153,0.0056325775,-0.13771231,0.3927475
3920187,-0.016236361,-0.12299376,0.40015835
3943273,-0.009988094,-0.13329674,0.3927475
3954821,-0.0053018914,-0.12888117,0.40015835
3965231,-0.009988094,-0.13624045,0.40164053
3976302,-0.0053018914,-0.12888117,0.39571184
3999271,0.0056325775,-0.14212787,0.40164053
4011312,-0.016236361,-0.12888117,0.39571184
4023311,-0.0053018914,-0.13624045,0.40164053
4047741,-0.0021777577,-0.13918416,0.39571184
4058159,-0.0068639587,-0.1318249,0.40164053
4069205,0.0025084435,-0.13771231,0.38830096
4092262,-0.0037398248,-0.13329674,0.39867622
4103477,-0.009988094,-0.12888117,0.3927475
4114750,-0.0037398248,-0.14359972,0.39867622
4125246,-0.0021777577,-0.12888117,0.40015835
4137190,0.00407051,-0.13918416,0.40164053
4149209,-0.00061569066,-0.13329674,0.3927475
4161167,-0.0053018914,-0.12299376,0.40164053
4173267,-0.0021777577,-0.13329674,0.39571184
4185190,0.00407051,-0.12593748,0.3912653
4196303,0.0056325775,-0.1318249,0.40164053
4207272,-0.0021777577,-0.13624045,0.40015835
4219820,-0.0053018914,-0.13329674,0.38681877
4243218,0.00407051,-0.12888117,0.38681877
4255181,-0.00061569066,-0.13329674,0.40460488
4266370,-0.013112227,-0.12740932,0.40756923
4289207,-0.009988094,-0.13771231,0.39422968
4300275,0.00407051,-0.13329674,0.40164053
4311524,0.0009463764,-0.13329674,0.40015835
4334467,-0.009988094,-0.13624045,0.40015835
4345153,-0.009988094,-0.13771231,0.38830096
4356315,-0.0021777577,-0.13329674,0.40015835
4368257,-0.0037398248,-0.1318249,0.39867622
4390836,-0.00061569066,-0.12446563,0.40164053
4401180,-0.0021777577,-0.14507158,0.3912653
4412183,-0.0021777577,-0.13329674,0.38681877
4435252,-0.0068639587,-0.12740932,0.40460488
4448007,-0.013112227,-0.14212787,0.39867622
4460299,-0.01155016,-0.13918416,0.40164053
4482582,-0.00061569066,-0.12446563,0.39867622
4493143,-0.00061569066,-0.13771231,0.40756923
4504332,-0.0037398248,-0.12446563,0.39422968
4515537,0.0009463764,-0.13329674,0.39571184
4538165,-0.009988094,-0.13329674,0.3927475
4549816,0.0056325775,-0.13771231,0.40460488
4560201,0.0056325775,-0.14212787,0.40756923
4583293,0.0009463764,-0.13329674,0.40015835
4595227,-0.01155016,-0.14212787,0.41201577
4606359,-0.013112227,-0.13329674,0.39422968
4628317,0.015004979,-0.13624045,0.40905142
4639218,-0.0037398248,-0.12740932,0.38830096
4651609,0.0009463764,-0.12888117,0.3912653
4662437,-0.0068639587,-0.1318249,0.39867622
4685144,-0.0053018914,-0.13918416,0.39571184
4697786,-0.009988094,-0.12593748,0.3912653
4708225,-0.0037398248,-0.1318249,0.39422968
4731339,-0.0021777577,-0.13918416,0.3912653
4742415,-0.009988094,-0.13624045,0.3912653
4754013,-0.0068639587,-0.14212787,0.39867622
4778017,-0.0021777577,-0.13329674,0.3927475
4789231,0.0025084435,-0.14212787,0.40460488
4801624,-0.01155016,-0.13624045,0.40164053
4812281,-0.0053018914,-0.13329674,0.40608707
4824237,-0.009988094,-0.13624045,0.3927475
4835218,0.0009463764,-0.13329674,0.40015835
4846446,-0.009988094,-0.13329674,0.40608707
4857627,0.00407051,-0.12593748,0.40015835
4880204,-0.0053018914,-0.13329674,0.40905142
4891426,-0.013112227,-0.1318249,0.38830096
4902199,-0.009988094,-0.12888117,0.3927475
4926182,-0.019360496,-0.1318249,0.40756923
4937618,-0.0021777577,-0.13918416,0.38681877
4948747,-0.00061569066,-0.1318249,0.40164053
4959218,-0.00061569066,-0.13329674,0.41794446
4971225,0.008756712,-0.12888117,0.40015835
4982797,0.0009463764,-0.13329674,0.39571184
4993640,0.0009463764,-0.14507158,0.3912653
5005696,-0.0037398248,-0.13329674,0.3927475
5027326,-0.009988094,-0.12740932,0.39422968
5039251,-0.013112227,-0.13771231,0.3927475
5050159,0.010318778,-0.13624045,0.3927475
5073538,-0.0021777577,-0.13329674,0.39571184
5085004,-0.016236361,-0.13918416,0.40015835
5097649,-0.0037398248,-0.13771231,0.3927475
5119228,-0.009988094,-0.14212787,0.39422968
5131544,-0.0053018914,-0.13624045,0.40608707
5142287,-0.0021777577,-0.12888117,0.39571184
5153827,-0.0021777577,-0.14212787,0.40905142
5176232,0.008756712,-0.14507158,0.3912653
5187299,-0.01779843,-0.13329674,0.40756923
5198397,0.0009463764,-0.13329674,0.3927475
5221207,-0.0021777577,-0.13918416,0.3927475
5233169,0.0025084435,-0.1318249,0.40460488
5244170,0.008756712,-0.1318249,0.40460488
5268164,-0.0037398248,-0.12740932,0.40164053
5280201,0.0009463764,-0.13624045,0.38681877
5291581,0.00407051,-0.13624045,0.40905142
5302162,-0.0068639587,-0.14212787,0.40460488
5314161,0.0025084435,-0.12446563,0.39422968
5325181,-0.009988094,-0.12740932,0.3927475
5337518,-0.01155016,-0.12888117,0.3912653
5348155,-0.0021777577,-0.13329674,0.3927475
5370188,-0.009988094,-0.13329674,0.40015835
5382162,0.0025084435,-0.1318249,0.40164053
5393623,-0.0053018914,-0.13624045,0.39571184
5416541,-0.00061569066,-0.1318249,0.38237226
5428404,-0.00061569066,-0.12740932,0.39422968
5440411,-0.009988094,-0.14359972,0.40608707
5451312,-0.009988094,-0.14507158,0.40608707
5462167,-0.013112227,-0.1318249,0.3927475
5473185,-0.0053018914,-0.12888117,0.41201577
5485151,-0.0053018914,-0.12888117,0.40164053
5496289,-0.00061569066,-0.13771231,0.39867622
5519339,-0.0068639587,-0.14212787,0.40164053
5530211,-0.0053018914,-0.13624045,0.40164053
5542395,0.0056325775,-0.12446563,0.40460488
5565143,0.0009463764,-0.14212787,0.38681877
5577227,-0.009988094,-0.1318249,0.3853366
5589170,0.0025084435,-0.1318249,0.40756923
5612336,-0.0037398248,-0.14212787,0.4105336
5624147,-0.013112227,-0.13771231,0.39422968
5636305,-0.01155016,-0.13624045,0.40015835
5659315,-0.00061569066,-0.13771231,0.40164053
5670956,0.0009463764,-0.12888117,0.40164053
5681270,-0.0021777577,-0.12299376,0.39571184
5693154,0.0009463764,-0.13624045,0.3927475
5705256,0.0025084435,-0.1318249,0.40164053
5717228,-0.0021777577,-0.13918416,0.39571184
5728265,-0.00061569066,-0.13771231,0.40756923
5739259,-0.00061569066,-0.13329674,0.39422968
5763153,-0.0037398248,-0.14212787,0.3927475
5775227,-0.009988094,-0.13624045,0.40164053
5786505,-0.0068639587,-0.13771231,0.39422968
5808312,0.0009463764,-0.13624045,0.40164053
5820066,0.010318778,-0.13624045,0.39571184
5832177,0.00407051,-0.12888117,0.40015835
5855235,-0.01779843,-0.14801529,0.40164053
5866481,-0.0053018914,-0.13329674,0.39571184
5878163,-0.0037398248,-0.1318249,0.40460488
5889186,-0.009988094,-0.13329674,0.40460488
5911255,-0.009988094,-0.12888117,0.40015835
5922969,0.0009463764,-0.13329674,0.3927475
5934428,-0.00061569066,-0.12740932,0.39422968
5958169,-0.019360496,-0.13918416,0.40015835
5970416,0.008756712,-0.13624045,0.3912653
5982335,0.008756712,-0.14212787,0.39422968
6005144,0.0009463764,-0.13624045,0.40164053
6017380,-0.00061569066,-0.12740932,0.39422968
6028235,-0.0053018914,-0.12888117,0.39571184
6050398,-0.009988094,-0.13329674,0.40164053
6062342,-0.0053018914,-0.14507158,0.3927475
6073865,-0.0053018914,-0.13918416,0.39571184
6084240,-0.0021777577,-0.12888117,0.40164053
6107273,0.0025084435,-0.1318249,0.39867622
6118308,-0.0053018914,-0.13329674,0.40905142
6130011,0.0025084435,-0.13329674,0.4105336
6154469,-0.00061569066,-0.13771231,0.3927475
6166485,-0.009988094,-0.13918416,0.40015835
6177611,-0.009988094,-0.14212787,0.39422968
6199256,0.0009463764,-0.12888117,0.40164053
6211267,-0.0021777577,-0.14212787,0.40164053
6222464,0.008756712,-0.13329674,0.3927475
6234962,-0.0021777577,-0.13624045,0.40015835
6246473,-0.00061569066,-0.12446563,0.3927475
6257862,-0.0021777577,-0.12593748,0.40608707
6269185,-0.0053018914,-0.13918416,0.38681877
6280149,-0.0053018914,-0.13624045,0.39571184
6302441,-0.0037398248,-0.13329674,0.39422968
6315469,-0.0068639587,-0.13329674,0.39422968
6326453,0.0025084435,-0.13329674,0.38830096
6350426,-0.009988094,-0.1318249,0.40460488
6361570,-0.0068639587,-0.12446563,0.38830096
6373197,-0.0053018914,-0.13624045,0.40015835
6397186,-0.0068639587,-0.14359972,0.39867622
6409958,-0.0021777577,-0.13329674,0.40015835
6420342,-0.009988094,-0.13329674,0.40015835
6443220,-0.0068639587,-0.13329674,0.40164053
6455263,0.0009463764,-0.13918416,0.3927475
6466753,0.0009463764,-0.13624045,0.40015835
6477618,-0.01779843,-0.12740932,0.39867622
6500435,-0.0037398248,-0.14212787,0.39867622
6512820,0.008756712,-0.13329674,0.3912653
6523258,-0.0068639587,-0.13329674,0.39867622
6546488,-0.013112227,-0.14212787,0.39422968
6557629,0.0056325775,-0.12740932,0.39867622
6569178,-0.00061569066,-0.13329674,0.39867622
6593225,0.0025084435,-0.12446563,0.39422968
6605618,-0.009988094,-0.13771231,0.38830096
6618311,-0.0021777577,-0.12888117,0.39571184
6642011,0.0025084435,-0.12740932,0.39867622
6653512,-0.009988094,-0.12888117,0.39571184
6664773,-0.0053018914,-0.12299376,0.40015835
6675491,-0.009988094,-0.13918416,0.39571184
6687353,-0.0021777577,-0.13918416,0.39571184
6698159,-0.013112227,-0.1318249,0.40164053
6709196,0.0009463764,-0.14212787,0.38681877
6743943,-0.0037398248,-0.1318249,0.39867622
6754287,-0.0037398248,-0.1318249,0.40460488
6790228,-0.009988094,-0.13329674,0.3912653
6802312,-0.0053018914,-0.15831827,0.40015835
6813185,-0.0053018914,-0.12888117,0.40015835
6837431,0.0009463764,-0.13624045,0.3912653
6849150,-0.0068639587,-0.13329674,0.39422968
6861169,0.0009463764,-0.13918416,0.3927475
6885185,-0.0053018914,-0.13918416,0.3927475
6896380,-0.0037398248,-0.14212787,0.39867622
6908181,-0.0053018914,-0.14212787,0.40164053
6932843,-0.0021777577,-0.14507158,0.40608707
6944172,-0.0053018914,-0.13329674,0.3927475
6956175,-0.0053018914,-0.13329674,0.39571184
6980200,-0.0068639587,-0.12446563,0.39422968
6992087,-0.01155016,-0.14212787,0.40015835
7004397,-0.0021777577,-0.13329674,0.3927475
7027777,-0.009988094,-0.13771231,0.3927475
7039297,0.0009463764,-0.13329674,0.40905142
7051215,-0.009988094,-0.14359972,0.38830096
7073155,-0.0037398248,-0.13771231,0.40756923
7084903,-0.013112227,-0.13329674,0.39867622
7096301,-0.0053018914,-0.13329674,0.3927475
7107670,0.0025084435,-0.1318249,0.39867622
7118159,-0.0021777577,-0.13624045,0.38385445
7129150,-0.0068639587,-0.12446563,0.39867622
7141143,-0.009988094,-0.13771231,0.40460488
7152425,-0.009988094,-0.14212787,0.39571184
7175287,-0.019360496,-0.12888117,0.39571184
7186162,-0.016236361,-0.13624045,0.40015835
7197225,-0.0021777577,-0.13918416,0.40164053
7220882,-0.009988094,-0.13624045,0.3927475
7231260,-0.0053018914,-0.14212787,0.40608707
7243657,0.00407051,-0.13329674,0.40015835
7254809,-0.0037398248,-0.1318249,0.40164053
7265143,0.00407051,-0.12888117,0.3927475
7276705,-0.0053018914,-0.13918416,0.39571184
7287322,-0.0037398248,-0.12446563,0.39422968
7299545,-0.0021777577,-0.13624045,0.3912653
7321210,-0.009988094,-0.1318249,0.39867622
7332191,-0.01779843,-0.12446563,0.39422968
7344232,-0.009988094,-0.14948715,0.39571184
7368228,-0.009988094,-0.14507158,0.41201577
7380303,-0.0068639587,-0.14359972,0.39867622
7391244,0.0025084435,-0.14212787,0.3927475
7415232,-0.0068639587,-0.14801529,0.40164053
7427597,-0.016236361,-0.13918416,0.39571184
7438308,-0.009988094,-0.14212787,0.3912653
7450343,0.0009463764,-0.13918416,0.40015835
7461149,-0.00061569066,-0.14359972,0.40460488
7473152,-0.0021777577,-0.13918416,0.3927475
7484267,0.008756712,-0.12299376,0.38681877
7495225,-0.01155016,-0.12593748,0.3912653
7517199,-0.0037398248,-0.13329674,0.40460488
7529185,-0.0021777577,-0.12299376,0.39571184
7540308,-0.0053018914,-0.12888117,0.40164053
7563197,0.0009463764,-0.12888117,0.39571184
7574304,-0.0037398248,-0.13771231,0.39422968
7585185,-0.0021777577,-0.13329674,0.40015835
7597216,-0.009988094,-0.12888117,0.40015835
7608276,-0.013112227,-0.13771231,0.40460488
7619888,0.0025084435,-0.14212787,0.38830096
7631287,-0.0068639587,-0.14212787,0.40460488
7643218,0.008756712,-0.13624045,0.40015835
7665858,-0.0068639587,-0.13771231,0.39867622
7677229,-0.013112227,-0.14212787,0.39867622
7688145,0.0025084435,-0.13771231,0.3927475
7711982,-0.0068639587,-0.13329674,0.40164053
7723595,-0.0037398248,-0.14359972,0.40756923
7734322,-0.0068639587,-0.12740932,0.39422968
7758451,-0.0021777577,-0.13329674,0.40015835
7769554,-0.0053018914,-0.12888117,0.40164053
7780244,-0.0037398248,-0.14359972,0.38830096
7792189,0.0009463764,-0.13329674,0.39571184
7804358,-0.00061569066,-0.13329674,0.40460488
7816305,0.0009463764,-0.12888117,0.3927475
7828143,0.00407051,-0.13329674,0.40164053
7840267,0.0009463764,-0.13624045,0.39571184
7852178,-0.00061569066,-0.14212787,0.39422968
7864302,-0.009988094,-0.13329674,0.40164053
7876152,0.0025084435,-0.1318249,0.39422968
7888348,-0.009988094,-0.14212787,0.39422968
7912212,-0.0068639587,-0.14212787,0.40460488
7924443,-0.009988094,-0.12299376,0.40015835
7937375,0.0025084435,-0.13329674,0.39422968
7962311,-0.0037398248,-0.14212787,0.39422968
7974209,-0.016236361,-0.13624045,0.40164053
7986165,-0.009988094,-0.13624045,0.40608707
8010312,0.00407051,-0.13918416,0.3912653
8022160,0.008756712,-0.12888117,0.40015835
8034667,0.0056325775,-0.12152191,0.40460488
8058159,-0.0021777577,-0.12888117,0.3927475
8069888,0.010318778,-0.11563449,0.39571184
8080793,-0.0037398248,-0.13771231,0.39867622
8102322,-0.0021777577,-0.13918416,0.3927475
8114311,-0.0053018914,-0.13329674,0.40015835
8125520,-0.009988094,-0.13624045,0.38681877
8136839,-0.0037398248,-0.1318249,0.39867622
8148321,0.0056325775,-0.13771231,0.40460488
8159188,-0.0068639587,-0.14359972,0.40164053
8171225,0.008756712,-0.14212787,0.3927475
8182382,0.0009463764,-0.12888117,0.40015835
8205174,0.0009463764,-0.13918416,0.3912653
8217189,-0.009988094,-0.12888117,0.40015835
8228344,-0.0037398248,-0.13329674,0.39867622
8252174,-0.0021777577,-0.13918416,0.40015835
8264410,-0.0021777577,-0.13329674,0.3912653
8275983,-0.009988094,-0.13329674,0.39867622
8298201,-0.0037398248,-0.1318249,0.40460488
8310374,-0.009988094,-0.13329674,0.3912653
8322160,-0.013112227,-0.13624045,0.39422968
8334315,-0.013112227,-0.13771231,0.39422968
8346347,-0.01779843,-0.13771231,0.39422968
8358387,-0.00061569066,-0.14212787,0.39867622
8369162,-0.0068639587,-0.13329674,0.3927475
8381618,-0.0068639587,-0.13771231,0.39422968
8392709,-0.019360496,-0.14212787,0.40164053
8404943,0.0056325775,-0.13329674,0.39422968
8416089,-0.009988094,-0.13771231,0.39422968
8429592,-0.0037398248,-0.1318249,0.3927475
8440409,-0.0068639587,-0.1318249,0.39422968
8452860,0.0025084435,-0.13329674,0.41349792
8464122,-0.0021777577,-0.12888117,0.39571184
8476857,-0.0068639587,-0.13329674,0.3927475
8501948,0.0009463764,-0.12593748,0.39571184
8513251,-0.0021777577,-0.12593748,0.39571184
8524875,-0.0068639587,-0.14212787,0.39867622
8548015,-0.0037398248,-0.12446563,0.3927475
8560446,0.0025084435,-0.1318249,0.40460488
8572017,-0.0068639587,-0.13771231,0.3927475
8595899,-0.01155016,-0.1185782,0.39571184
8606162,0.00407051,-0.12888117,0.39571184
8617230,-0.0068639587,-0.1318249,0.40164053
8641146,-0.0021777577,-0.12593748,0.3927475
8653172,0.0025084435,-0.12152191,0.38830096
8665483,-0.009988094,-0.13771231,0.39867622
8677219,-0.009988094,-0.13329674,0.39867622
8688452,-0.00061569066,-0.1318249,0.39867622
8699541,-0.0068639587,-0.12446563,0.3853366
8711253,-0.0037398248,-0.13329674,0.40164053
8723548,0.0009463764,-0.13918416,0.40015835
8735286,-0.00061569066,-0.13771231,0.40164053
8746171,-0.0053018914,-0.13624045,0.40015835
8758170,-0.009988094,-0.14212787,0.40015835
8770429,-0.0068639587,-0.13329674,0.40756923
8794160,-0.019360496,-0.13624045,0.40015835
8806179,-0.0053018914,-0.13624045,0.39571184
8818161,-0.0068639587,-0.1318249,0.40164053
8842169,-0.0068639587,-0.13329674,0.40015835
8854475,-0.0037398248,-0.14359972,0.38830096
8865158,-0.0053018914,-0.13329674,0.3927475
8888183,-0.009988094,-0.13329674,0.3927475
8899918,-0.00061569066,-0.13771231,0.39867622
8910460,-0.0021777577,-0.13329674,0.39571184
8922778,-0.0021777577,-0.14507158,0.3927475
8933224,-0.009988094,-0.12740932,0.40460488
8944275,-0.00061569066,-0.13329674,0.3927475
8956040,-0.0037398248,-0.13771231,0.3853366
8967628,0.0025084435,-0.12740932,0.39867622
8989149,-0.009988094,-0.1318249,0.40608707
9001153,0.0025084435,-0.14359972,0.39422968
9012558,-0.009988094,-0.13329674,0.40015835
9035338,-0.00061569066,-0.13771231,0.39422968
9047649,0.0009463764,-0.13329674,0.39571184
9059325,-0.0037398248,-0.1318249,0.39422968
9083357,0.0056325775,-0.1318249,0.40164053
9095575,0.00407051,-0.13329674,0.39571184
9106832,-0.0021777577,-0.13624045,0.3927475
9117203,0.0025084435,-0.14212787,0.40460488
9129927,0.0009463764,-0.13918416,0.40905142
9140171,0.008756712,-0.12888117,0.40905142
9153122,-0.009988094,-0.13918416,0.3927475
9187399,0.00407051,-0.12299376,0.3927475
9198853,-0.00061569066,-0.13771231,0.3927475
9209960,-0.0053018914,-0.13624045,0.39571184
9232245,-0.0037398248,-0.1318249,0.40460488
9244270,-0.00061569066,-0.13771231,0.40164053
9256144,-0.01155016,-0.13329674,0.40015835
9279251,-0.0021777577,-0.12593748,0.40905142
9291276,-0.00061569066,-0.13771231,0.40756923
9302860,-0.00061569066,-0.1318249,0.39867622
9315202,-0.00061569066,-0.13329674,0.39867622
9327011,-0.0021777577,-0.13329674,0.39571184
9339487,-0.00061569066,-0.13329674,0.39867622
9352011,0.0025084435,-0.1185782,0.38830096
9364281,0.0025084435,-0.1318249,0.38830096
9375291,-0.0068639587,-0.14212787,0.3927475
9387826,-0.0053018914,-0.13624045,0.39571184
9398806,0.0025084435,-0.13329674,0.3927475
9410751,0.00407051,-0.13624045,0.39571184
9421663,-0.013112227,-0.12446563,0.40164053
9433258,-0.0053018914,-0.13624045,0.3912653
9444397,-0.009988094,-0.13624045,0.40015835
9456409,-0.0021777577,-0.14948715,0.38385445
9479645,-0.0037398248,-0.12888117,0.39867622
9491572,-0.009988094,-0.12593748,0.40015835
9503792,-0.0037398248,-0.13329674,0.39867622
9527949,-0.0037398248,-0.13329674,0.38237226
9539219,0.00407051,-0.13624045,0.3927475
9551230,0.008756712,-0.13918416,0.3927475
9575329,-0.01155016,-0.13918416,0.40015835
9587289,-0.009988094,-0.12593748,0.39867622
9599514,-0.0021777577,-0.13624045,0.40015835
9624076,-0.009988094,-0.13918416,0.39571184
9636283,-0.009988094,-0.12888117,0.39422968
9647372,-0.0068639587,-0.12740932,0.40164053
9669989,0.0009463764,-0.13329674,0.40015835
9681980,0.0025084435,-0.1318249,0.40756923
9694645,-0.0053018914,-0.14212787,0.38681877
9706141,-0.00061569066,-0.13329674,0.40460488
9718506,0.0009463764,-0.13624045,0.3927475
9730048,0.00407051,-0.13329674,0.40015835
9742419,-0.016236361,-0.13918416,0.40164053
9753175,0.00407051,-0.12888117,0.40015835
9764742,-0.016236361,-0.12888117,0.40164053
9776414,0.008756712,-0.12888117,0.40164053
9788832,-0.0021777577,-0.13624045,0.40015835
9800052,-0.0068639587,-0.12740932,0.40164053
9813592,-0.01155016,-0.12593748,0.3808901
9824425,0.0009463764,-0.1185782,0.40015835
9836790,-0.009988094,-0.12740932,0.40460488
9848067,0.0025084435,-0.12152191,0.40460488
9872175,0.00407051,-0.14212787,0.39571184
9884452,-0.01155016,-0.12888117,0.40164053
9896046,0.0009463764,-0.12593748,0.39571184
9920041,-0.00061569066,-0.1318249,0.39422968
9933597,-0.0068639587,-0.13771231,0.3927475
9944410,-0.0053018914,-0.13918416,0.39571184
9967985,-0.019360496,-0.12593748,0.3927475
9980389,0.0009463764,-0.12888117,0.40164053
9992187,-0.0068639587,-0.1318249,0.38830096
10016433,0.00407051,-0.12888117,0.40608707
10028422,-0.009988094,-0.14212787,0.38830096
10040383,-0.0021777577,-0.12888117,0.39571184
10065143,-0.0037398248,-0.14801529,0.39867622
10077956,-0.0068639587,-0.13771231,0.40756923
10088480,-0.009988094,-0.1318249,0.3927475
10112426,-0.019360496,-0.12740932,0.3927475
10124116,-0.0068639587,-0.13771231,0.40460488
10135291,-0.0068639587,-0.13329674,0.3853366
10168438,-0.0021777577,-0.14507158,0.40015835
10179623,-0.0053018914,-0.13624045,0.40164053
10190175,-0.0037398248,-0.12740932,0.3927475
10224387,-0.0037398248,-0.13329674,0.40756923
10236183,0.0009463764,-0.13329674,0.3927475
10271227,-0.00061569066,-0.13329674,0.40164053
10284204,-0.0037398248,-0.14359972,0.40460488
10295312,-0.0053018914,-0.12888117,0.38681877
10319221,-0.0053018914,-0.13918416,0.3912653
10331569,-0.009988094,-0.13329674,0.39422968
10342163,-0.016236361,-0.14212787,0.40015835
10365615,-0.01779843,-0.13329674,0.40164053
10377202,-0.00061569066,-0.12740932,0.3927475
10411976,-0.0053018914,-0.12740932,0.38681877
10422159,0.0025084435,-0.12740932,0.40756923
10434162,-0.0037398248,-0.13329674,0.39867622
10469152,0.008756712,-0.13624045,0.3927475
10480684,-0.0037398248,-0.14212787,0.39867622
10515574,-0.00061569066,-0.12740932,0.3927475
10527777,-0.0037398248,-0.14212787,0.40164053
10539632,-0.009988094,-0.14212787,0.39422968
10563535,0.011880846,-0.14212787,0.40756923
10576536,0.0025084435,-0.12740932,0.40164053
10588270,-0.00061569066,-0.1318249,0.3927475
10610478,-0.00061569066,-0.13329674,0.38830096
10622841,-0.009988094,-0.13329674,0.39422968
10633216,-0.01155016,-0.13918416,0.40164053
10657201,-0.0053018914,-0.12593748,0.40164053
10670025,0.0056325775,-0.11710635,0.39867622
10682791,-0.0021777577,-0.12299376,0.40015835
10716300,-0.009988094,-0.13918416,0.40608707
10728155,-0.009988094,-0.1318249,0.38830096
10764181,-0.016236361,-0.13624045,0.40608707
10776151,-0.0037398248,-0.12740932,0.39867622
10812171,-0.0021777577,-0.13624045,0.3927475
10824344,-0.0021777577,-0.13918416,0.39571184
10860264,0.0056325775,-0.13771231,0.4105336
10872163,0.0056325775,-0.1318249,0.40460488
10908216,-0.009988094,-0.13918416,0.40164053
10920230,-0.009988094,-0.13329674,0.3927475
10932195,-0.013112227,-0.12740932,0.3927475
10956377,-0.0068639587,-0.12740932,0.4105336
10969696,0.0009463764,-0.13624045,0.3927475
10982154,-0.0053018914,-0.12888117,0.38385445
11006447,-0.00061569066,-0.12446563,0.40164053
11018311,-0.0037398248,-0.12740932,0.40164053
11030765,-0.009988094,-0.13918416,0.40015835
11054418,-0.00061569066,-0.14212787,0.40164053
11066163,-0.00061569066,-0.13771231,0.39867622
11078437,-0.0037398248,-0.13771231,0.40164053
11102448,-0.0068639587,-0.14359972,0.39867622
11114155,-0.0021777577,-0.12593748,0.40164053
11126483,0.0025084435,-0.13771231,0.39422968
11150407,-0.013112227,-0.13329674,0.3927475
11162430,-0.00061569066,-0.14801529,0.39422968
11174568,-0.0053018914,-0.13624045,0.40015835
11198509,-0.0053018914,-0.13918416,0.3927475
11210177,-0.009988094,-0.13329674,0.39571184
11222408,-0.0068639587,-0.14212787,0.38830096
11246434,-0.00061569066,-0.12446563,0.40460488
11258221,-0.0037398248,-0.13771231,0.39422968
11270351,-0.0068639587,-0.14359972,0.40164053
11294819,0.0025084435,-0.13329674,0.39422968
11306010,-0.0037398248,-0.1318249,0.40460488
11318510,-0.0068639587,-0.12446563,0.38830096
11354276,-0.01155016,-0.13329674,0.3927475
11366477,-0.009988094,-0.13771231,0.39422968
11400209,-0.0037398248,-0.13771231,0.39422968
11412435,-0.0053018914,-0.12299376,0.39571184
11448136,-0.00061569066,-0.1318249,0.39867622
11460442,-0.009988094,-0.13624045,0.40015835
11496428,-0.0037398248,-0.13771231,0.39867622
11509940,-0.01155016,-0.12888117,0.40905142
11544054,-0.00061569066,-0.1318249,0.3927475
11556548,0.0025084435,-0.13329674,0.40164053
11568254,0.0009463764,-0.12593748,0.3927475
11592363,-0.00061569066,-0.13329674,0.38830096
11603636,-0.0053018914,-0.13624045,0.3912653
11614164,-0.0053018914,-0.13624045,0.40905142
11637203,0.010318778,-0.13329674,0.40015835
11648724,-0.0053018914,-0.14212787,0.40015835
11659549,-0.0021777577,-0.13624045,0.3927475
11693663,-0.0037398248,-0.13329674,0.39422968
11705213,-0.01155016,-0.13329674,0.39571184
11717360,-0.01155016,-0.13918416,0.39571184
11740340,-0.0068639587,-0.13771231,0.39867622
11751335,-0.009988094,-0.14801529,0.40460488
11762165,-0.019360496,-0.14212787,0.39867622
11787802,-0.01779843,-0.14359972,0.40164053
11799199,-0.0021777577,-0.12593748,0.40608707
11811937,-0.0037398248,-0.12740932,0.40164053
11833225,0.008756712,-0.13329674,0.3927475
11845228,-0.016236361,-0.13329674,0.40608707
11856450,0.008756712,-0.13918416,0.40015835
11890832,-0.00061569066,-0.13329674,0.40164053
11901143,0.008756712,-0.12888117,0.39867622
11912590,-0.0068639587,-0.12740932,0.39867622
11937240,-0.00061569066,-0.1318249,0.3927475
11949148,-0.00061569066,-0.14212787,0.39867622
11960151,-0.01155016,-0.13329674,0.39571184
11984165,0.0009463764,-0.12593748,0.39571184
11996148,-0.01155016,-0.13624045,0.40905142
12008356,0.0009463764,-0.13918416,0.40015835
12031665,-0.0037398248,-0.12446563,0.40460488
12043133,-0.0053018914,-0.13624045,0.40164053
12054973,-0.01155016,-0.13624045,0.39571184
12078538,0.0056325775,-0.13624045,0.3927475
12091250,-0.0037398248,-0.13771231,0.38830096
12102416,0.010318778,-0.13918416,0.40015835
12126500,-0.0037398248,-0.12740932,0.39867622
12139202,-0.0021777577,-0.13918416,0.40608707
12150427,-0.00061569066,-0.12152191,0.4105336
12174466,0.00407051,-0.13624045,0.39571184
12187217,0.0025084435,-0.13329674,0.3927475
12198162,-0.0053018914,-0.12888117,0.40905142
12220823,-0.0037398248,-0.13329674,0.39422968
12232387,-0.009988094,-0.13918416,0.40015835
12244408,-0.0068639587,-0.12740932,0.40460488
12256432,-0.009988094,-0.13329674,0.39867622
12268803,-0.00061569066,-0.1318249,0.39867622
12280581,0.0009463764,-0.13329674,0.40164053
12292743,-0.009988094,-0.13918416,0.3912653
12304357,0.00407051,-0.13329674,0.40164053
12316744,-0.0068639587,-0.13329674,0.40756923
12327307,0.0009463764,-0.13918416,0.40905142
12339592,-0.00061569066,-0.1318249,0.39422968
12350481,-0.00061569066,-0.12740932,0.4105336
12374476,-0.0021777577,-0.13329674,0.40608707
12386782,0.0056325775,-0.13329674,0.39422968
12398773,-0.0068639587,-0.13329674,0.39867622
12422968,0.0009463764,-0.13624045,0.3927475
12434599,-0.0037398248,-0.12740932,0.4105336
12445640,-0.0037398248,-0.13329674,0.39422968
12468165,0.0056325775,-0.14359972,0.4105336
12479223,-0.0037398248,-0.14212787,0.40460488
12491631,-0.0068639587,-0.13771231,0.39422968
12513992,-0.0053018914,-0.13329674,0.40015835
12525632,0.00407051,-0.12593748,0.3912653
12537965,-0.0053018914,-0.12888117,0.40905142
12550154,-0.0021777577,-0.13624045,0.3927475
12562422,-0.00061569066,-0.13771231,0.40164053
12574010,-0.009988094,-0.1318249,0.40756923
12586365,0.0056325775,-0.13771231,0.39422968
12598030,0.0009463764,-0.13624045,0.40164053
12610707,0.0025084435,-0.14212787,0.39867622
12622322,-0.0021777577,-0.13624045,0.3927475
12634429,-0.01779843,-0.13771231,0.40164053
12646026,0.0025084435,-0.13771231,0.3927475
12658509,-0.00061569066,-0.12740932,0.39867622
12670079,0.0009463764,-0.13329674,0.38385445
12682419,-0.0021777577,-0.13624045,0.39571184
12694039,-0.009988094,-0.1318249,0.40460488
12706376,-0.0037398248,-0.13329674,0.40164053
12718038,0.00407051,-0.13918416,0.3912653
12730433,-0.009988094,-0.14801529,0.40164053
12741975,0.0009463764,-0.12888117,0.40015835
12766010,-0.009988094,-0.13329674,0.40015835
12778434,0.0056325775,-0.14212787,0.3927475
12790162,-0.0068639587,-0.13329674,0.40164053
12814050,-0.00061569066,-0.12740932,0.40460488
12825631,0.0025084435,-0.14212787,0.39867622
12837222,-0.016236361,-0.13918416,0.39571184
12873700,-0.0021777577,-0.13624045,0.3927475
12884182,0.00407051,-0.1185782,0.40164053
12920344,0.010318778,-0.13329674,0.3927475
12932086,0.0056325775,-0.13771231,0.3927475
12968955,-0.0053018914,-0.13918416,0.3927475
12980074,0.008756712,-0.14507158,0.3912653
12994018,-0.0037398248,-0.13771231,0.39867622
13016792,-0.0053018914,-0.12888117,0.39571184
13028113,-0.00061569066,-0.14212787,0.39867622
13040560,-0.01155016,-0.13918416,0.39571184
13053110,-0.009988094,-0.12593748,0.39571184
13064580,-0.009988094,-0.12888117,0.40015835
13077215,-0.0037398248,-0.14212787,0.40164053
13089117,-0.0037398248,-0.12740932,0.40756923
13101223,-0.0021777577,-0.12299376,0.40164053
13112607,-0.0037398248,-0.12740932,0.3927475
13123984,0.0025084435,-0.13771231,0.39867622
13135651,-0.0053018914,-0.13329674,0.40164053
13157151,-0.009988094,-0.12740932,0.38830096
13169163,-0.009988094,-0.14212787,0.40164053
13181190,-0.01155016,-0.12593748,0.3927475
13205186,-0.0053018914,-0.14212787,0.39571184
13216824,-0.019360496,-0.13918416,0.40015835
13228420,-0.0053018914,-0.13624045,0.3912653
13250178,-0.0053018914,-0.13624045,0.3927475
13261483,-0.01155016,-0.13918416,0.3927475
13273590,-0.0021777577,-0.12888117,0.39571184
13285257,-0.013112227,-0.12740932,0.40460488
13297397,-0.0037398248,-0.14359972,0.39867622
13309143,-0.009988094,-0.12299376,0.40164053
13321195,-0.016236361,-0.14507158,0.40164053
13332431,-0.01155016,-0.13329674,0.40015835
13343584,-0.0037398248,-0.13329674,0.40164053
13355349,-0.0068639587,-0.13329674,0.39422968
13367643,-0.009988094,-0.12888117,0.39571184
13379263,-0.00061569066,-0.13771231,0.40460488
13402169,-0.0068639587,-0.13329674,0.39422968
13414155,-0.0053018914,-0.12888117,0.39571184
13425145,-0.0037398248,-0.13329674,0.39867622
13447775,0.0056325775,-0.1318249,0.40460488
13460811,-0.0068639587,-0.13329674,0.40460488
13472366,-0.009988094,-0.12888117,0.39571184
13496301,-0.0068639587,-0.14212787,0.39422968
13508912,0.0009463764,-0.13918416,0.40015835
13520250,-0.0037398248,-0.1318249,0.39422968
13544263,-0.0068639587,-0.14212787,0.3927475
13556832,0.00407051,-0.12888117,0.40164053
13568150,-0.0068639587,-0.14212787,0.39867622
13580276,-0.00061569066,-0.1318249,0.39867622
13603915,-0.0053018914,-0.12299376,0.39571184
13615611,-0.0021777577,-0.13918416,0.3927475
13627267,0.00407051,-0.13329674,0.3927475
13638498,0.0025084435,-0.14212787,0.39422968
13651209,-0.0037398248,-0.13329674,0.3853366
13663590,-0.0053018914,-0.13329674,0.3927475
13675240,-0.009988094,-0.12299376,0.40015835
13687905,-0.0053018914,-0.12888117,0.40164053
13699172,0.0009463764,-0.14212787,0.40164053
13711616,-0.0037398248,-0.1318249,0.40164053
13724160,-0.009988094,-0.13624045,0.40015835
13746977,-0.00061569066,-0.13771231,0.3927475
13758444,-0.009988094,-0.13329674,0.39867622
13771094,0.0009463764,-0.12888117,0.40015835
13795680,-0.00061569066,-0.13771231,0.3927475
13807368,0.0056325775,-0.12740932,0.40460488
13819590,-0.0068639587,-0.13329674,0.40460488
13844003,-0.016236361,-0.12593748,0.3927475
13856290,-0.0053018914,-0.12593748,0.40164053
13867364,0.00407051,-0.12888117,0.40164053
13891883,-0.0021777577,-0.13918416,0.3912653
13902962,-0.013112227,-0.13329674,0.40460488
13915248,-0.009988094,-0.13771231,0.40164053
13939225,0.0009463764,-0.12888117,0.3912653
13951243,-0.0053018914,-0.14212787,0.40015835
13963223,-0.00061569066,-0.13771231,0.39867622
13985979,-0.009988094,-0.14507158,0.40015835
13996213,-0.009988094,-0.13771231,0.40164053
14007273,-0.0021777577,-0.12593748,0.40015835
14019329,-0.0068639587,-0.1318249,0.39422968
14031345,-0.01155016,-0.13624045,0.40905142
14043272,-0.00061569066,-0.12740932,0.40460488
14054305,-0.0037398248,-0.13771231,0.40460488
14068008,-0.0053018914,-0.13329674,0.40164053
14079266,0.008756712,-0.12888117,0.3927475
14091348,-0.0021777577,-0.1185782,0.40015835
14103242,0.0025084435,-0.13329674,0.39867622
14115218,-0.0068639587,-0.12740932,0.40460488
14139241,-0.016236361,-0.12299376,0.3912653
14150197,-0.0068639587,-0.13329674,0.3927475
14163759,-0.0068639587,-0.1318249,0.39422968
14187320,0.00407051,-0.13624045,0.40164053
14199257,-0.00061569066,-0.12152191,0.39422968
14211219,0.0009463764,-0.13918416,0.3927475
14235315,-0.0068639587,-0.13329674,0.38830096
14247310,0.0025084435,-0.14212787,0.40460488
14259218,0.0009463764,-0.14507158,0.3912653
14283218,-0.0068639587,-0.13771231,0.40164053
14295232,-0.0068639587,-0.13329674,0.3853366
14307305,-0.01155016,-0.13624045,0.40608707
14330857,-0.0053018914,-0.13624045,0.40015835
14342287,-0.00061569066,-0.13771231,0.38830096
14354995,-0.0037398248,-0.13329674,0.40756923
14378978,-0.0037398248,-0.14212787,0.40164053
14390027,0.00407051,-0.14507158,0.40015835
14402952,-0.0037398248,-0.13771231,0.39422968
14426969,0.0025084435,-0.1318249,0.40756923
14438175,0.0056325775,-0.1318249,0.39422968
14451000,0.0009463764,-0.12888117,0.39571184
14464843,0.0009463764,-0.13624045,0.39571184
14476066,-0.0037398248,-0.13771231,0.40460488
14488882,0.0009463764,-0.14212787,0.40164053
14500061,-0.009988094,-0.13329674,0.3927475
14512915,-0.019360496,-0.13918416,0.3927475
14524060,-0.0053018914,-0.13918416,0.3912653
14536839,0.010318778,-0.13918416,0.39571184
14548176,-0.009988094,-0.13918416,0.40015835
14561921,-0.009988094,-0.13329674,0.3912653
14574394,0.00407051,-0.12593748,0.38681877
14586400,-0.0053018914,-0.13329674,0.39571184
14598272,-0.0037398248,-0.13771231,0.39422968
14622166,0.0025084435,-0.13329674,0.39867622
14634162,-0.0068639587,-0.1318249,0.39422968
14646361,0.0009463764,-0.13918416,0.38385445
14658036,-0.009988094,-0.14212787,0.40164053
14669265,0.0025084435,-0.14212787,0.40164053
14681099,0.0025084435,-0.14801529,0.39422968
14692552,-0.0021777577,-0.13329674,0.40015835
14703996,-0.0037398248,-0.14212787,0.40164053
14716566,-0.01155016,-0.14507158,0.39571184
14728073,0.0009463764,-0.14212787,0.3912653
14740369,0.0009463764,-0.13329674,0.39571184
14752063,-0.0037398248,-0.13329674,0.39422968
14775926,-0.016236361,-0.13624045,0.40608707
14787241,0.011880846,-0.13329674,0.40756923
14800016,-0.0053018914,-0.13624045,0.40164053
14824011,-0.0021777577,-0.13624045,0.40164053
14836328,0.0056325775,-0.13771231,0.40756923
14848010,-0.0068639587,-0.1318249,0.39422968
14872110,0.0025084435,-0.13771231,0.40164053
14884414,-0.0037398248,-0.13329674,0.39422968
14895905,-0.0053018914,-0.12888117,0.40015835
14917202,-0.009988094,-0.13771231,0.39422968
14929159,-0.00061569066,-0.13329674,0.40164053
14940381,-0.0021777577,-0.12888117,0.40015835
14951572,-0.009988094,-0.13918416,0.40608707
14964819,-0.01155016,-0.13329674,0.40164053
14976240,-0.0037398248,-0.14212787,0.40756923
14988818,-0.01155016,-0.13329674,0.40164053
15000266,-0.0068639587,-0.14212787,0.39422968
15012818,-0.01155016,-0.13624045,0.40015835
15024329,0.00407051,-0.13329674,0.39571184
15036868,0.00407051,-0.12593748,0.40015835
15048293,-0.01155016,-0.13329674,0.3808901
15060909,-0.009988094,-0.13624045,0.40015835
15072257,-0.016236361,-0.13624045,0.39571184
15084278,-0.0037398248,-0.150959,0.39867622
15095207,-0.01155016,-0.14212787,0.40608707
15117191,0.00407051,-0.12593748,0.39571184
15129232,-0.0037398248,-0.1318249,0.40460488
15141195,-0.01155016,-0.12888117,0.40015835
15164255,-0.013112227,-0.12740932,0.40460488
15175567,0.0025084435,-0.1318249,0.39422968
15428205,0.008756712,-0.12152191,0.3927475
15964451,-0.00061569066,-0.13329674,0.3927475
15976194,-0.024046697,-0.1318249,0.40164053
16000198,-0.0021777577,-0.13918416,0.3927475
16012752,-0.0053018914,-0.13918416,0.40015835
16024032,0.00407051,-0.14212787,0.39571184
16048185,-0.00061569066,-0.13329674,0.39422968
16061020,-0.01155016,-0.13918416,0.40608707
16073363,0.00407051,-0.12299376,0.40608707
16096530,-0.01155016,-0.13329674,0.40608707
16108954,-0.01779843,-0.13329674,0.39867622
16119999,-0.0068639587,-0.1318249,0.40756923
16146189,-0.009988094,-0.12740932,0.39867622
16158460,-0.01779843,-0.12740932,0.40756923
16169156,-0.0053018914,-0.13918416,0.3927475
16193194,0.0025084435,-0.12446563,0.40164053
16206508,-0.009988094,-0.13624045,0.40015835
16217197,0.00407051,-0.13624045,0.40015835
16241211,-0.0053018914,-0.13624045,0.38681877
16253734,-0.016236361,-0.12593748,0.40164053
16265187,-0.0037398248,-0.14801529,0.3927475
16289165,-0.0037398248,-0.12740932,0.3927475
16301876,-0.0037398248,-0.12446563,0.40460488
16313169,-0.00061569066,-0.12740932,0.40164053
16325527,-0.0021777577,-0.13329674,0.39571184
16337189,-0.009988094,-0.13918416,0.3808901
16350230,-0.0037398248,-0.12740932,0.39422968
16361181,-0.009988094,-0.13329674,0.3927475
16374023,-0.0053018914,-0.14507158,0.3927475
16385180,0.0025084435,-0.1318249,0.40756923
16397758,-0.0053018914,-0.12888117,0.39571184
16409210,-0.0021777577,-0.13624045,0.40015835
16421692,-0.0068639587,-0.13771231,0.39422968
16433265,-0.0068639587,-0.13329674,0.40164053
16445861,-0.0021777577,-0.13329674,0.40015835
16457359,-0.01155016,-0.12888117,0.40608707
16468156,0.011880846,-0.13771231,0.40756923
16493645,0.00407051,-0.13918416,0.3927475
16504192,-0.0021777577,-0.13918416,0.3927475
16517057,0.008756712,-0.13624045,0.40608707
16540779,-0.01779843,-0.13329674,0.39422968
16551748,-0.0021777577,-0.13624045,0.39571184
16564824,-0.0037398248,-0.13329674,0.39867622
16587992,-0.00061569066,-0.13329674,0.39867622
16599568,-0.00061569066,-0.13771231,0.40164053
16612833,-0.0068639587,-0.1318249,0.40756923
16636669,0.0025084435,-0.12740932,0.40460488
16647643,-0.019360496,-0.1318249,0.39422968
16659593,-0.009988094,-0.13329674,0.3927475
16683414,-0.01155016,-0.13918416,0.3912653
16695630,-0.016236361,-0.12593748,0.39571184
16707429,-0.0068639587,-0.12152191,0.40460488
16719578,-0.0068639587,-0.1318249,0.40460488
16731609,-0.0021777577,-0.13624045,0.3927475
16743588,-0.0021777577,-0.14212787,0.3927475
16755386,-0.01155016,-0.13624045,0.40015835
16766576,-0.00061569066,-0.12740932,0.40164053
16778525,-0.024046697,-0.13771231,0.40164053
16789653,-0.0053018914,-0.14507158,0.3912653
16802792,0.0009463764,-0.13624045,0.40608707
16813646,0.00407051,-0.13329674,0.3912653
16826656,0.0009463764,-0.1185782,0.3927475
16838808,-0.009988094,-0.13918416,0.40015835
16850544,-0.0037398248,-0.1318249,0.40164053
16861744,-0.009988094,-0.1318249,0.40164053
16886861,0.0025084435,-0.12740932,0.39422968
16899756,-0.0068639587,-0.13329674,0.40460488
16910816,-0.020922562,-0.13624045,0.40015835
16923764,-0.0053018914,-0.12299376,0.39571184
16934841,-0.009988094,-0.13918416,0.40015835
16948135,0.0025084435,-0.13771231,0.40164053
16959309,-0.01155016,-0.12593748,0.3927475
16971927,-0.0068639587,-0.14359972,0.40756923
16982824,-0.013112227,-0.14212787,0.38830096
16994593,-0.0037398248,-0.12740932,0.40460488
17005674,0.0009463764,-0.1185782,0.40015835
17029575,-0.01155016,-0.13329674,0.3927475
17042589,-0.00061569066,-0.14359972,0.39867622
17053676,-0.0068639587,-0.13329674,0.40460488
17075450,0.010318778,-0.13918416,0.39571184
17087323,-0.009988094,-0.14212787,0.40460488
17099256,-0.009988094,-0.13329674,0.40460488
17123237,-0.01155016,-0.13918416,0.40015835
17135333,-0.009988094,-0.13329674,0.3927475
17147604,0.0025084435,-0.14212787,0.40164053
17159615,-0.0068639587,-0.1318249,0.40164053
17170795,-0.01155016,-0.12593748,0.40905142
17182812,-0.0053018914,-0.13624045,0.40015835
17194049,-0.009988094,-0.13329674,0.39867622
17206161,-0.0053018914,-0.13329674,0.39571184
17218462,-0.00061569066,-0.14212787,0.39422968
17230050,0.0056325775,-0.1318249,0.39867622
17242418,0.0025084435,-0.1318249,0.40460488
17254129,-0.00061569066,-0.13329674,0.39867622
17266398,-0.0037398248,-0.13771231,0.40756923
17278000,-0.01155016,-0.12593748,0.38681877
17290422,-0.0037398248,-0.14212787,0.40164053
17302010,-0.0068639587,-0.13329674,0.4105336
17314432,-0.0068639587,-0.13329674,0.40015835
17325946,-0.009988094,-0.14359972,0.3927475
17337230,0.008756712,-0.13329674,0.40164053
17373984,0.0025084435,-0.12152191,0.38830096
17386477,0.00407051,-0.13329674,0.39571184
17421177,-0.00061569066,-0.12740932,0.40460488
17433661,0.0009463764,-0.12888117,0.40164053
17468070,-0.009988094,-0.12888117,0.39571184
17480408,-0.009988094,-0.14507158,0.41201577
17492046,0.008756712,-0.12446563,0.38830096
17516403,0.010318778,-0.14212787,0.40015835
17528822,-0.0068639587,-0.11710635,0.40460488
17540042,-0.009988094,-0.14212787,0.3927475
17564414,0.008756712,-0.12740932,0.40756923
17576433,-0.00061569066,-0.13771231,0.40460488
17588410,0.00407051,-0.13624045,0.40015835
17612193,-0.01155016,-0.13624045,0.39571184
17624438,-0.0021777577,-0.12593748,0.39571184
17636161,0.0009463764,-0.13329674,0.40164053
17660025,-0.0053018914,-0.12593748,0.3927475
17673888,-0.0021777577,-0.13918416,0.3912653
17684403,-0.019360496,-0.12888117,0.40164053
17707354,-0.009988094,-0.13329674,0.39422968
17718184,-0.0037398248,-0.13329674,0.40756923
17730165,-0.0053018914,-0.13918416,0.40164053
17764418,-0.009988094,-0.13329674,0.3912653
17775620,-0.0053018914,-0.12888117,0.40015835
17786181,-0.0053018914,-0.13329674,0.40015835
17809483,-0.01779843,-0.14212787,0.40164053
17821145,-0.009988094,-0.12593748,0.40015835
17833362,-0.0068639587,-0.12740932,0.40164053
17857369,-0.0068639587,-0.14212787,0.39867622
17868408,-0.0053018914,-0.12888117,0.3927475
17879900,-0.0021777577,-0.13624045,0.3912653
17915293,-0.0037398248,-0.1318249,0.40756923
17927624,-0.0037398248,-0.1318249,0.39867622
17949195,-0.0053018914,-0.13918416,0.40164053
17961158,-0.0021777577,-0.13624045,0.40015835
17973185,-0.00061569066,-0.13771231,0.40164053
17997359,-0.0053018914,-0.12593748,0.3912653
18008830,0.0025084435,-0.12446563,0.40756923
18020405,0.00407051,-0.13771231,0.3927475
18031649,0.00407051,-0.13329674,0.3927475
18043588,-0.0053018914,-0.13624045,0.40015835
18054844,-0.0037398248,-0.13329674,0.40164053
18065144,-0.0037398248,-0.1318249,0.39422968
18076304,0.0025084435,-0.12446563,0.39422968
18100276,0.008756712,-0.14212787,0.3927475
18111998,0.0009463764,-0.12888117,0.40015835
18123657,-0.0053018914,-0.13624045,0.40015835
18146547,0.0025084435,-0.12152191,0.39422968
18158820,-0.01155016,-0.14212787,0.40608707
18170490,-0.0068639587,-0.12152191,0.39867622
18193145,-0.0037398248,-0.12740932,0.39422968
18205180,-0.0053018914,-0.12888117,0.40015835
18216308,-0.01155016,-0.13624045,0.39867622
18227619,0.0025084435,-0.14212787,0.39867622
18238815,-0.009988094,-0.13771231,0.3927475
18250451,-0.009988094,-0.13624045,0.40164053
18262772,-0.01155016,-0.13329674,0.3927475
18274571,0.0009463764,-0.12593748,0.40608707
18286823,0.0056325775,-0.13329674,0.40756923
18297202,-0.016236361,-0.13329674,0.40905142
18309151,-0.0021777577,-0.14212787,0.3927475
18321193,-0.00061569066,-0.14212787,0.39867622
18345179,0.008756712,-0.12593748,0.3927475
18357662,-0.009988094,-0.12152191,0.39422968
18370032,-0.0037398248,-0.11710635,0.39867622
18394199,-0.00061569066,-0.13329674,0.40015835
18406957,-0.013112227,-0.13771231,0.40460488
18418341,-0.0068639587,-0.14212787,0.3927475
18442027,-0.0021777577,-0.12299376,0.39571184
18454828,-0.0053018914,-0.13918416,0.3927475
18466480,0.0009463764,-0.13624045,0.39571184
18490032,0.0009463764,-0.13918416,0.3927475
18502808,-0.0037398248,-0.12740932,0.39867622
18515112,-0.009988094,-0.14212787,0.40164053
18539231,-0.00061569066,-0.13771231,0.39867622
18550808,-0.0021777577,-0.13624045,0.3927475
18563310,-0.0021777577,-0.13329674,0.41201577
18587288,-0.0068639587,-0.13329674,0.40460488
18599257,0.011880846,-0.14801529,0.3927475
18611261,-0.0053018914,-0.12593748,0.3912653
18634473,-0.0037398248,-0.12446563,0.40164053
18645908,-0.00061569066,-0.14212787,0.40164053
18657260,0.008756712,-0.14212787,0.40015835
18670012,-0.00061569066,-0.13771231,0.39422968
18682419,-0.009988094,-0.12446563,0.3927475
18694041,-0.0037398248,-0.13329674,0.39422968
18706474,-0.0068639587,-0.13771231,0.40164053
18718048,0.0009463764,-0.12888117,0.40015835
18730312,-0.0053018914,-0.13329674,0.40015835
18742307,0.0056325775,-0.13329674,0.3927475
18754529,-0.0068639587,-0.14212787,0.40756923
18766015,0.0056325775,-0.13329674,0.39867622
18778513,-0.0037398248,-0.13771231,0.40164053
18790049,-0.0037398248,-0.13329674,0.39422968
18802442,-0.0068639587,-0.1318249,0.40460488
18813976,-0.0053018914,-0.13918416,0.40164053
18838045,0.0056325775,-0.1318249,0.40756923
18850959,-0.009988094,-0.13329674,0.40460488
18862162,-0.009988094,-0.12740932,0.39422968
18874401,-0.0021777577,-0.12299376,0.40608707
18885953,-0.0068639587,-0.14212787,0.3927475
18898319,0.0009463764,-0.12888117,0.40164053
18933618,0.0009463764,-0.12888117,0.39571184
18945195,-0.0053018914,-0.13624045,0.40608707
18980394,-0.0037398248,-0.12446563,0.39867622
18992446,-0.009988094,-0.13329674,0.3853366
19028556,-0.009988094,-0.13624045,0.40015835
19040033,-0.009988094,-0.1318249,0.3927475
19053624,-0.013112227,-0.12740932,0.3927475
19076571,-0.0021777577,-0.13624045,0.39571184
19088040,-0.00061569066,-0.12740932,0.39422968
19101628,-0.00061569066,-0.1318249,0.40164053
19112252,-0.019360496,-0.12888117,0.40015835
19124984,-0.0068639587,-0.12740932,0.40460488
19136101,-0.0021777577,-0.12888117,0.38681877
19148972,0.0025084435,-0.13329674,0.39422968
19160098,-0.009988094,-0.12888117,0.39571184
19173190,-0.01155016,-0.12593748,0.40164053
19185178,-0.0053018914,-0.14212787,0.40608707
19198436,-0.0068639587,-0.12446563,0.39867622
19210160,0.0009463764,-0.14212787,0.3927475
19222064,0.0009463764,-0.12593748,0.3927475
19233253,0.0009463764,-0.13918416,0.40164053
19245512,-0.009988094,-0.13329674,0.3927475
19257143,-0.0053018914,-0.13918416,0.40015835
19269377,-0.0068639587,-0.14801529,0.40164053
19281932,-0.0053018914,-0.14212787,0.40015835
19293393,0.0009463764,-0.14507158,0.40015835
19317674,-0.0053018914,-0.13918416,0.40608707
19329177,-0.00061569066,-0.1318249,0.40756923
19341483,0.0025084435,-0.13771231,0.40164053
19365356,0.0009463764,-0.12593748,0.40905142
19376559,-0.009988094,-0.14948715,0.39571184
19388419,-0.0053018914,-0.13329674,0.39571184
19412194,-0.009988094,-0.1318249,0.39422968
19424374,-0.0021777577,-0.13918416,0.39571184
19436321,-0.0021777577,-0.12593748,0.40015835
19460396,0.0056325775,-0.11710635,0.39867622
19473048,-0.0021777577,-0.12888117,0.40905142
19485495,-0.0037398248,-0.1318249,0.39867622
19508640,-0.0021777577,-0.13918416,0.40608707
19519529,-0.0021777577,-0.13624045,0.40015835
19532801,-0.0037398248,-0.13771231,0.39867622
19556671,-0.01155016,-0.14507158,0.39571184
19568113,-0.0021777577,-0.13624045,0.39571184
19580353,-0.0021777577,-0.15243085,0.3927475
19604462,-0.0053018914,-0.13329674,0.3927475
19617221,-0.0021777577,-0.13329674,0.40164053
19628412,-0.01779843,-0.12152191,0.39422968
19639907,-0.0053018914,-0.12593748,0.39571184
19651267,0.0056325775,-0.12740932,0.40460488
19662159,-0.0021777577,-0.12888117,0.39571184
19675404,-0.0068639587,-0.12152191,0.40164053
19686169,-0.0021777577,-0.13329674,0.40015835
19698399,-0.00061569066,-0.1318249,0.38830096
19709250,-0.00061569066,-0.1318249,0.38237226
19721165,-0.0053018914,-0.13918416,0.40015835
19733195,0.0025084435,-0.12152191,0.39422968
19756291,0.008756712,-0.12888117,0.40015835
19768040,-0.0037398248,-0.13329674,0.39867622
19780148,-0.0068639587,-0.12740932,0.39867622
19803546,0.00407051,-0.12888117,0.40015835
19815605,-0.0021777577,-0.13329674,0.40905142
19826770,0.0056325775,-0.1318249,0.40164053
19848776,-0.0053018914,-0.12593748,0.40015835
19860236,-0.0037398248,-0.13329674,0.39422968
19872271,-0.00061569066,-0.14212787,0.39867622
19883248,0.0056325775,-0.13771231,0.39867622
19895236,0.0025084435,-0.13329674,0.38830096
19906862,-0.0037398248,-0.13771231,0.40460488
19917932,-0.013112227,-0.14212787,0.39867622
19928143,0.0009463764,-0.12299376,0.3927475
19952154,-0.0037398248,-0.13329674,0.40164053
19963252,0.00407051,-0.13918416,0.40608707
19975264,-0.01155016,-0.13918416,0.40608707
19997999,-0.0053018914,-0.13329674,0.40015835
20010783,-0.0068639587,-0.12740932,0.40460488
20022020,-0.016236361,-0.13624045,0.40015835
20045986,0.0056325775,-0.13329674,0.39867622
20056320,-0.0037398248,-0.13771231,0.40460488
20068277,0.0025084435,-0.12740932,0.40164053
20080273,-0.01155016,-0.14212787,0.40164053
20091244,0.008756712,-0.1318249,0.40164053
20103721,0.0056325775,-0.13771231,0.40460488
20114807,-0.00061569066,-0.14801529,0.40164053
20125995,-0.0037398248,-0.14212787,0.39867622
20149977,0.0009463764,-0.13918416,0.3912653
20161556,-0.0037398248,-0.13771231,0.40756923
20174012,0.0025084435,-0.1318249,0.39867622
20198030,-0.00061569066,-0.13771231,0.40756923
20211042,-0.0037398248,-0.1318249,0.39867622
20222181,0.0025084435,-0.14801529,0.39867622
20245987,-0.009988094,-0.13329674,0.3927475
20258455,-0.0068639587,-0.14801529,0.39867622
20270208,0.0025084435,-0.12740932,0.40756923
20293913,-0.009988094,-0.1318249,0.39422968
20305509,0.0009463764,-0.13329674,0.40608707
20318034,0.0009463764,-0.12888117,0.39571184
20343354,-0.0068639587,-0.12740932,0.3927475
20355370,-0.020922562,-0.13624045,0.39571184
20367307,-0.01155016,-0.14507158,0.39571184
20391269,0.00407051,-0.15243085,0.3927475
20403312,0.0056325775,-0.13329674,0.39867622
20414312,-0.00061569066,-0.14359972,0.3927475
20438283,0.0056325775,-0.13329674,0.38830096
20452077,-0.0021777577,-0.13918416,0.40164053
20464567,0.008756712,-0.13624045,0.40015835
20487652,-0.013112227,-0.13771231,0.40756923
20500059,-0.0037398248,-0.1318249,0.3927475
20512338,0.0025084435,-0.13771231,0.39867622
20536748,0.011880846,-0.12740932,0.40164053
20548071,0.00407051,-0.13918416,0.3927475
20560437,0.0009463764,-0.12888117,0.40164053
20584602,0.00407051,-0.14212787,0.3927475
20596097,0.0025084435,-0.13329674,0.3853366
20609606,-0.009988094,-0.14212787,0.39867622
20633631,0.00407051,-0.13624045,0.3927475
20645240,0.0025084435,-0.13329674,0.3927475
20656722,-0.0037398248,-0.13329674,0.40164053
20680383,0.0056325775,-0.14212787,0.39867622
20693211,0.0009463764,-0.13329674,0.38681877
20704551,-0.0021777577,-0.13918416,0.39571184
20728797,0.0025084435,-0.13329674,0.40164053
20739639,-0.0037398248,-0.14212787,0.40164053
20751316,-0.0068639587,-0.13771231,0.40164053
20775260,-0.00061569066,-0.14212787,0.38830096
20786166,0.0056325775,-0.12740932,0.39867622
20799232,0.024377383,-0.13624045,0.39571184
20821746,0.0009463764,-0.13329674,0.3912653
20833178,0.0025084435,-0.1318249,0.3853366
20845645,0.0025084435,-0.1318249,0.40756923
20869720,0.0025084435,-0.13329674,0.40460488
20881178,0.00407051,-0.14212787,0.40015835
20893864,0.008756712,-0.12593748,0.38830096
20905208,0.008756712,-0.13771231,0.38830096
20916810,0.0025084435,-0.12740932,0.3927475
20928455,0.0025084435,-0.13771231,0.38830096
20939544,-0.0021777577,-0.14948715,0.39571184
20951257,0.008756712,-0.13624045,0.40164053
20963758,0.008756712,-0.150959,0.39422968
20974164,0.00407051,-0.14212787,0.39571184
20985172,0.0009463764,-0.13624045,0.39571184
20997260,-0.0053018914,-0.13918416,0.39571184
21020729,-0.00061569066,-0.13771231,0.38830096
21032525,0.010318778,-0.12888117,0.40164053
21043560,-0.00061569066,-0.14801529,0.39422968
21066165,-0.0021777577,-0.13918416,0.39571184
21078489,0.008756712,-0.13624045,0.40608707
21089174,-0.0053018914,-0.14948715,0.40164053
21101145,-0.009988094,-0.12888117,0.39571184
21113191,0.0025084435,-0.14212787,0.38830096
21125221,-0.0053018914,-0.13918416,0.3927475
21136313,0.011880846,-0.12740932,0.40460488
21148034,0.010318778,-0.13624045,0.40164053
21160153,0.0009463764,-0.12593748,0.3912653
21172390,0.0056325775,-0.14801529,0.3927475
21183639,-0.009988094,-0.13329674,0.40015835
21194803,-0.0037398248,-0.13329674,0.40164053
21219123,-0.0068639587,-0.14212787,0.40460488
21231630,-0.0053018914,-0.14507158,0.38681877
21243130,-0.00061569066,-0.13329674,0.39422968
21267205,-0.00061569066,-0.12740932,0.40164053
21278496,-0.0053018914,-0.13624045,0.3927475
21291232,-0.00061569066,-0.12740932,0.3927475
21315182,0.0009463764,-0.12888117,0.3927475
21327752,0.0009463764,-0.13624045,0.40164053
21339164,0.0025084435,-0.14212787,0.39867622
21362418,-0.01155016,-0.13624045,0.38681877
21374787,0.0025084435,-0.14359972,0.39867622
21387302,-0.00061569066,-0.11710635,0.40164053
21411252,-0.0021777577,-0.14212787,0.40015835
21422851,-0.0037398248,-0.1318249,0.3927475
21435114,-0.0037398248,-0.12446563,0.40164053
21459264,0.008756712,-0.12888117,0.40015835
21470768,-0.0053018914,-0.1185782,0.39571184
21483125,0.0025084435,-0.150959,0.39867622
21507282,0.008756712,-0.14212787,0.40164053
21518962,-0.00061569066,-0.14212787,0.40164053
21530026,-0.0021777577,-0.14212787,0.3927475
21542923,-0.00061569066,-0.13771231,0.38830096
21553973,0.00407051,-0.12888117,0.3927475
21565730,0.0009463764,-0.15537457,0.39571184
21578023,-0.00061569066,-0.12446563,0.3927475
21590928,-0.00061569066,-0.13329674,0.39422968
21603112,-0.009988094,-0.13624045,0.40164053
21615246,-0.00061569066,-0.13329674,0.40164053
21627281,-0.0068639587,-0.1318249,0.40164053
21639218,-0.0037398248,-0.14212787,0.40164053
21650312,0.008756712,-0.13329674,0.40756923
21662475,0.008756712,-0.13329674,0.40608707
21674342,0.008756712,-0.13771231,0.39422968
21686447,-0.0037398248,-0.1318249,0.38830096
21710397,-0.0037398248,-0.13329674,0.40460488
21722332,-0.0053018914,-0.13329674,0.3927475
21734419,-0.0037398248,-0.14359972,0.3927475
21757222,0.0009463764,-0.13329674,0.40164053
21769995,-0.0068639587,-0.1318249,0.39422968
21782433,-0.009988094,-0.13329674,0.38830096
21807324,0.008756712,-0.12446563,0.3927475
21819323,0.008756712,-0.13329674,0.39571184
21831309,0.010318778,-0.13329674,0.38681877
21854939,0.0056325775,-0.12740932,0.3927475
21866363,0.0009463764,-0.13624045,0.38681877
21879546,-0.009988094,-0.12593748,0.40164053
21903277,0.0056325775,-0.13771231,0.39867622
21914171,-0.009988094,-0.14359972,0.39867622
21926847,-0.0053018914,-0.13624045,0.40015835
21950964,-0.009988094,-0.14212787,0.40015835
21962375,0.0025084435,-0.1318249,0.40164053
21974166,-0.009988094,-0.12888117,0.3927475
21997039,0.00407051,-0.13329674,0.40608707
22009148,0.0009463764,-0.14948715,0.40164053
22022322,-0.013112227,-0.12740932,0.40164053
22046435,0.00407051,-0.13624045,0.39571184
22058333,0.0056325775,-0.12740932,0.3927475
22070312,-0.00061569066,-0.13771231,0.39867622
22081231,0.0025084435,-0.14212787,0.39867622
22094312,0.0025084435,-0.13771231,0.3927475
22106443,0.00407051,-0.13918416,0.39571184
22118312,0.0056325775,-0.1318249,0.40164053
22130169,0.010318778,-0.13918416,0.38681877
22142041,0.008756712,-0.12740932,0.39867622
22153334,0.011880846,-0.13329674,0.3927475
22165097,-0.0021777577,-0.14212787,0.40164053
22177241,-0.0053018914,-0.12593748,0.38681877
22190272,0.008756712,-0.13918416,0.3912653
22202313,0.0009463764,-0.12593748,0.3912653
22214288,0.0009463764,-0.12593748,0.3927475
22238304,-0.00061569066,-0.12446563,0.40460488
22250381,0.0025084435,-0.13771231,0.39867622
22262884,0.0025084435,-0.14212787,0.3853366
22297521,0.0009463764,-0.13624045,0.39571184
22309157,0.008756712,-0.14212787,0.3927475
22344874,-0.0053018914,-0.13329674,0.3927475
22355361,-0.0037398248,-0.14212787,0.39422968
22391574,-0.013112227,-0.14359972,0.39422968
22403270,0.0056325775,-0.14359972,0.39867622
22415566,0.0009463764,-0.13624045,0.40164053
22426159,0.008756712,-0.13771231,0.39867622
22439527,0.0056325775,-0.13329674,0.39422968
22450192,-0.0037398248,-0.14212787,0.39867622
22463581,0.0009463764,-0.13624045,0.3808901
22474183,0.0025084435,-0.13771231,0.39867622
22487595,0.0009463764,-0.13624045,0.3912653
22499232,-0.0053018914,-0.14507158,0.39571184
22511989,-0.0053018914,-0.14212787,0.40015835
22522162,-0.0053018914,-0.14212787,0.3853366
22533148,0.0056325775,-0.14359972,0.39867622
22545504,0.008756712,-0.14212787,0.39571184
22557202,0.0009463764,-0.13624045,0.38681877
22580281,-0.013112227,-0.14359972,0.3927475
22592815,0.0009463764,-0.13624045,0.38681877
22604305,-0.0053018914,-0.13624045,0.40608707
22628284,0.008756712,-0.13329674,0.3927475
22640858,-0.0021777577,-0.14212787,0.3927475
22652283,-0.0021777577,-0.13624045,0.40015835
22675544,0.0009463764,-0.14507158,0.3912653
22687987,0.011880846,-0.12740932,0.40164053
22698535,0.0009463764,-0.13771231,0.3927475
22709230,0.0009463764,-0.13624045,0.3927475
22721148,0.010318778,-0.13918416,0.3912653
22733153,0.0009463764,-0.13918416,0.38681877
22745208,-0.0037398248,-0.13771231,0.40460488
22756154,-0.0068639587,-0.12740932,0.39867622
22768157,0.0056325775,-0.14212787,0.39422968
22779790,0.010318778,-0.12593748,0.40015835
22790761,-0.0021777577,-0.14212787,0.40015835
22801194,0.00407051,-0.13918416,0.3927475
22825193,-0.016236361,-0.13624045,0.38681877
22837199,-0.0068639587,-0.1318249,0.40164053
22849194,-0.00061569066,-0.14359972,0.39422968
22873969,-0.00061569066,-0.13329674,0.4105336
22885992,0.0025084435,-0.13329674,0.40164053
22897679,-0.0053018914,-0.12593748,0.3927475
22921653,-0.0068639587,-0.13771231,0.3927475
22933997,0.0056325775,-0.14212787,0.39422968
22946968,0.00407051,-0.13624045,0.40015835
22970727,-0.009988094,-0.14212787,0.39422968
22981988,0.00407051,-0.14507158,0.40164053
22993737,-0.0037398248,-0.12446563,0.39867622
23018795,0.010318778,-0.14212787,0.39571184
23030308,0.008756712,-0.13624045,0.40015835
23041668,-0.0021777577,-0.14507158,0.3912653
23054200,0.008756712,-0.14948715,0.39571184
23066720,0.008756712,-0.14212787,0.3927475
23079337,-0.0053018914,-0.13624045,0.39571184
23090792,-0.00061569066,-0.13329674,0.40460488
23115241,-0.009988094,-0.150959,0.38830096
23127514,0.0009463764,-0.13918416,0.40015835
23138848,0.008756712,-0.13624045,0.3927475
23150426,0.0025084435,-0.13771231,0.39867622
23162056,-0.0021777577,-0.14212787,0.38385445
23174652,0.0025084435,-0.13771231,0.38237226
23186038,-0.00061569066,-0.13329674,0.3853366
23198713,-0.009988094,-0.14212787,0.38681877
23209983,-0.00061569066,-0.13329674,0.39867622
23221640,-0.0037398248,-0.14359972,0.3927475
23233978,-0.0021777577,-0.14212787,0.40015835
23246708,0.008756712,-0.14359972,0.40164053
23258156,-0.00061569066,-0.13771231,0.39422968
23270674,0.0025084435,-0.1318249,0.40460488
23282019,-0.0021777577,-0.13624045,0.3927475
23294754,-0.009988094,-0.13329674,0.40460488
23317580,0.00407051,-0.13918416,0.39422968
23330007,0.0009463764,-0.14212787,0.3912653
23342778,0.00407051,-0.13329674,0.3927475
23366855,0.00407051,-0.13329674,0.39571184
23378192,0.00407051,-0.14948715,0.3927475
23390952,0.0009463764,-0.13624045,0.40164053
23414803,0.00407051,-0.13918416,0.3912653
23426387,0.00407051,-0.14212787,0.40164053
23438861,0.00407051,-0.13329674,0.40608707
23461320,0.0056325775,-0.13771231,0.40164053
23473354,-0.0037398248,-0.14359972,0.3927475
23485339,0.0025084435,-0.13329674,0.40460488
23507609,-0.0053018914,-0.13918416,0.40608707
23518159,0.008756712,-0.1318249,0.3853366
23530385,-0.009988094,-0.13918416,0.40905142
23542283,-0.0037398248,-0.13329674,0.3927475
23554310,-0.009988094,-0.13918416,0.3912653
23566172,-0.01155016,-0.13329674,0.40164053
23577215,-0.0068639587,-0.14359972,0.3927475
23588552,0.0009463764,-0.13329674,0.3927475
23612434,-0.009988094,-0.13918416,0.40015835
23624071,0.0009463764,-0.14212787,0.3927475
23636560,-0.0053018914,-0.13918416,0.3927475
23660700,0.00407051,-0.14212787,0.39571184
23672182,0.0056325775,-0.13771231,0.3927475
23709238,0.0025084435,-0.14359972,0.3927475
23720185,0.0025084435,-0.13329674,0.39867622
23757031,0.0056325775,-0.14801529,0.40164053
23769283,-0.00061569066,-0.13329674,0.39422968
23805483,-0.009988094,-0.14507158,0.3927475
