timestamp,baro_alt_meter,baro_temp_celcius,baro_pressure_pa,rho
3300332,152.63887,22.81,99505.0,1.182284
3322468,152.38785,22.81,99507.99,1.1823195
3333577,152.80798,22.81,99503.0,1.1822603
3345601,152.55432,22.81,99506.0,1.1822959
3367304,152.38785,22.81,99507.99,1.1823195
3378739,152.63887,22.81,99505.0,1.182284
3390325,152.2161,22.81,99510.0,1.1823434
3412775,152.63887,22.81,99505.0,1.182284
3423249,152.72343,22.81,99504.0,1.1822721
3435296,152.72343,22.81,99504.0,1.1822721
3457905,152.55432,22.82,99506.0,1.1822959
3468752,152.38785,22.82,99507.99,1.1823195
3479279,151.96243,22.82,99513.0,1.182379
3502314,152.55432,22.82,99506.0,1.1822959
3513160,152.80798,22.82,99503.0,1.1822603
3524328,152.2161,22.82,99510.0,1.1823434
3547307,152.2161,22.82,99510.0,1.1823434
3558412,152.30066,22.82,99509.0,1.1823316
3569607,152.63887,22.82,99505.0,1.182284
3592229,152.30066,22.83,99509.0,1.1823316
3603337,152.72343,22.83,99504.0,1.1822721
3614330,152.30066,22.83,99509.0,1.1823316
3637222,152.13155,22.82,99511.0,1.1823553
3648224,152.55432,22.82,99506.0,1.1822959
3659489,152.2161,22.82,99510.0,1.1823434
3682294,152.55432,22.83,99506.0,1.1822959
3693157,152.30066,22.83,99509.0,1.1823316
3704372,152.55432,22.83,99506.0,1.1822959
3727558,152.55432,22.83,99506.0,1.1822959
3738195,152.38785,22.83,99507.99,1.1823195
3749168,152.30066,22.83,99509.0,1.1823316
3771595,152.55432,22.83,99506.0,1.1822959
3783500,152.72343,22.83,99504.0,1.1822721
3794282,152.2161,22.83,99510.0,1.1823434
3817188,152.55432,22.83,99506.0,1.1822959
3829186,152.55432,22.83,99506.0,1.1822959
3841667,152.89253,22.83,99501.99,1.1822482
3864403,152.30066,22.83,99509.0,1.1823316
3875528,152.13155,22.83,99511.0,1.1823553
3886164,152.30066,22.83,99509.0,1.1823316
3909162,152.63887,22.83,99505.0,1.182284
3920197,152.13155,22.83,99511.0,1.1823553
3931292,152.80798,22.83,99503.0,1.1822603
3954830,152.46976,22.83,99507.0,1.1823077
3965240,152.63887,22.83,99505.0,1.182284
3976312,152.63887,22.83,99505.0,1.182284
3999280,152.13155,22.83,99511.0,1.1823553
4011321,152.55432,22.83,99506.0,1.1822959
4023320,152.30066,22.83,99509.0,1.1823316
4047786,152.72343,22.83,99504.0,1.1822721
4058168,152.2161,22.83,99510.0,1.1823434
4069214,152.55432,22.83,99506.0,1.1822959
4092271,152.38785,22.83,99507.99,1.1823195
4103487,152.63887,22.83,99505.0,1.182284
4114759,152.46976,22.83,99507.0,1.1823077
4137199,152.38785,22.83,99507.99,1.1823195
4149218,152.46976,22.83,99507.0,1.1823077
4161175,152.46976,22.83,99507.0,1.1823077
4185201,152.30066,22.84,99509.0,1.1823316
4196312,152.30066,22.84,99509.0,1.1823316
4207281,152.38785,22.84,99507.99,1.1823195
4231279,152.13155,22.83,99511.0,1.1823553
4243227,152.72343,22.83,99504.0,1.1822721
4255226,152.38785,22.83,99507.99,1.1823195
4277218,152.30066,22.84,99509.0,1.1823316
4289216,152.30066,22.84,99509.0,1.1823316
4300284,152.38785,22.84,99507.99,1.1823195
4323228,152.63887,22.83,99505.0,1.182284
4334476,152.55432,22.83,99506.0,1.1822959
4345162,152.30066,22.83,99509.0,1.1823316
4368266,152.2161,22.84,99510.0,1.1823434
4379325,152.46976,22.84,99507.0,1.1823077
4390845,152.46976,22.84,99507.0,1.1823077
4412192,152.46976,22.84,99507.0,1.1823077
4424174,152.46976,22.84,99507.0,1.1823077
4435261,152.13155,22.84,99511.0,1.1823553
4460308,152.30066,22.84,99509.0,1.1823316
4471781,152.80798,22.84,99503.0,1.1822603
4482591,152.80798,22.84,99503.0,1.1822603
4504341,152.72343,22.84,99504.0,1.1822721
4515547,152.63887,22.84,99505.0,1.182284
4527315,152.55432,22.84,99506.0,1.1822959
4549825,152.63887,22.84,99505.0,1.182284
4560211,152.63887,22.84,99505.0,1.182284
4572248,152.38785,22.84,99507.99,1.1823195
4595236,152.55432,22.84,99506.0,1.1822959
4606404,152.80798,22.84,99503.0,1.1822603
4617664,152.2161,22.84,99510.0,1.1823434
4639227,152.63887,22.84,99505.0,1.182284
4651618,152.04964,22.84,99512.0,1.1823672
4662447,152.2161,22.84,99510.0,1.1823434
4685154,152.46976,22.85,99507.0,1.1823077
4697795,152.30066,22.85,99509.0,1.1823316
4708235,152.63887,22.85,99505.0,1.182284
4731383,152.2161,22.85,99510.0,1.1823434
4742424,151.96243,22.85,99513.0,1.182379
4754022,152.2161,22.85,99510.0,1.1823434
4778026,152.55432,22.85,99506.0,1.1822959
4789240,152.38785,22.85,99507.99,1.1823195
4801633,152.13155,22.85,99511.0,1.1823553
4824246,152.63887,22.85,99505.0,1.182284
4835263,152.30066,22.85,99509.0,1.1823316
4846499,152.55432,22.85,99506.0,1.1822959
4868253,152.04964,22.85,99512.0,1.1823672
4880213,152.13155,22.85,99511.0,1.1823553
4891435,152.55432,22.85,99506.0,1.1822959
4913595,152.9771,22.85,99500.99,1.1822364
4926191,152.63887,22.85,99505.0,1.182284
4937627,152.72343,22.85,99504.0,1.1822721
4959227,152.13155,22.85,99511.0,1.1823553
4971234,152.38785,22.85,99507.99,1.1823195
4982842,152.46976,22.85,99507.0,1.1823077
5005705,152.72343,22.85,99504.0,1.1822721
5016976,152.80798,22.85,99503.0,1.1822603
5027335,152.2161,22.85,99510.0,1.1823434
5050168,152.46976,22.85,99507.0,1.1823077
5062166,152.30066,22.85,99509.0,1.1823316
5073547,152.30066,22.85,99509.0,1.1823316
5097658,152.2161,22.85,99510.0,1.1823434
5108951,152.30066,22.85,99509.0,1.1823316
5119237,152.13155,22.85,99511.0,1.1823553
5142296,152.55432,22.85,99506.0,1.1822959
5153836,152.13155,22.85,99511.0,1.1823553
5164268,152.2161,22.85,99510.0,1.1823434
5187344,152.04964,22.859999,99512.0,1.1823672
5198406,152.04964,22.859999,99512.0,1.1823672
5209182,152.46976,22.859999,99507.0,1.1823077
5233178,152.30066,22.85,99509.0,1.1823316
5244179,152.2161,22.85,99510.0,1.1823434
5257229,152.04964,22.85,99512.0,1.1823672
5280210,152.13155,22.859999,99511.0,1.1823553
5291590,152.38785,22.859999,99507.99,1.1823195
5302171,152.46976,22.859999,99507.0,1.1823077
5325190,152.2161,22.85,99510.0,1.1823434
5337527,152.46976,22.85,99507.0,1.1823077
5348164,152.55432,22.85,99506.0,1.1822959
5370197,152.04964,22.859999,99512.0,1.1823672
5382171,152.30066,22.859999,99509.0,1.1823316
5393668,152.30066,22.859999,99509.0,1.1823316
5416550,152.80798,22.859999,99503.0,1.1822603
5428413,152.2161,22.859999,99510.0,1.1823434
5440420,152.80798,22.859999,99503.0,1.1822603
5462176,152.13155,22.85,99511.0,1.1823553
5473194,152.30066,22.85,99509.0,1.1823316
5485161,152.63887,22.85,99505.0,1.182284
5507744,152.55432,22.859999,99506.0,1.1822959
5519348,152.30066,22.859999,99509.0,1.1823316
5530220,152.55432,22.859999,99506.0,1.1822959
5553213,152.38785,22.859999,99507.99,1.1823195
5565152,152.13155,22.859999,99511.0,1.1823553
5577237,151.96243,22.859999,99513.0,1.182379
5601246,152.30066,22.859999,99509.0,1.1823316
5612345,152.04964,22.859999,99512.0,1.1823672
5624156,152.63887,22.859999,99505.0,1.182284
5648262,152.13155,22.859999,99511.0,1.1823553
5659324,152.46976,22.859999,99507.0,1.1823077
5670965,152.38785,22.859999,99507.99,1.1823195
5693163,152.13155,22.859999,99511.0,1.1823553
5705338,152.38785,22.859999,99507.99,1.1823195
5717237,152.63887,22.859999,99505.0,1.182284
5739268,151.96243,22.859999,99513.0,1.182379
5751301,152.13155,22.859999,99511.0,1.1823553
5763162,152.2161,22.859999,99510.0,1.1823434
5786550,152.2161,22.859999,99510.0,1.1823434
5797193,152.55432,22.859999,99506.0,1.1822959
5808321,152.55432,22.859999,99506.0,1.1822959
5832185,152.04964,22.859999,99512.0,1.1823672
5844152,152.30066,22.859999,99509.0,1.1823316
5855244,152.30066,22.859999,99509.0,1.1823316
5878173,152.30066,22.859999,99509.0,1.1823316
5889261,152.38785,22.859999,99507.99,1.1823195
5900151,152.38785,22.859999,99507.99,1.1823195
5922979,152.30066,22.869999,99509.0,1.1823316
5934439,152.38785,22.869999,99507.99,1.1823195
5946684,152.55432,22.869999,99506.0,1.1822959
5970425,152.13155,22.869999,99511.0,1.1823553
5982345,152.72343,22.869999,99504.0,1.1822721
5994443,152.72343,22.869999,99504.0,1.1822721
6017389,152.46976,22.859999,99507.0,1.1823077
6028248,152.63887,22.859999,99505.0,1.182284
6039296,152.55432,22.859999,99506.0,1.1822959
6062355,151.96243,22.869999,99513.0,1.182379
6073874,152.55432,22.869999,99506.0,1.1822959
6084249,152.72343,22.869999,99504.0,1.1822721
6107282,152.2161,22.869999,99510.0,1.1823434
6118353,153.06165,22.869999,99500.0,1.1822246
6130026,151.88052,22.869999,99513.99,1.1823908
6154558,152.38785,22.869999,99507.99,1.1823195
6166494,152.38785,22.869999,99507.99,1.1823195
6177620,152.72343,22.869999,99504.0,1.1822721
6199266,152.04964,22.869999,99512.0,1.1823672
6211276,152.63887,22.869999,99505.0,1.182284
6222509,152.55432,22.869999,99506.0,1.1822959
6246482,152.13155,22.869999,99511.0,1.1823553
6257872,152.38785,22.869999,99507.99,1.1823195
6269194,152.55432,22.869999,99506.0,1.1822959
6291621,152.38785,22.869999,99507.99,1.1823195
6302450,152.55432,22.869999,99506.0,1.1822959
6315478,152.46976,22.869999,99507.0,1.1823077
6339512,151.88052,22.869999,99513.99,1.1823908
6350437,152.80798,22.869999,99503.0,1.1822603
6361579,152.63887,22.869999,99505.0,1.182284
6385660,152.2161,22.869999,99510.0,1.1823434
6397195,152.46976,22.869999,99507.0,1.1823077
6409967,152.13155,22.869999,99511.0,1.1823553
6432853,152.72343,22.88,99504.0,1.1822721
6443229,152.46976,22.88,99507.0,1.1823077
6455272,152.2161,22.88,99510.0,1.1823434
6477627,152.38785,22.869999,99507.99,1.1823195
6488832,152.30066,22.869999,99509.0,1.1823316
6500444,152.38785,22.869999,99507.99,1.1823195
6523268,151.88052,22.88,99513.99,1.1823908
6535301,152.13155,22.88,99511.0,1.1823553
6546498,152.46976,22.88,99507.0,1.1823077
6569187,152.30066,22.88,99509.0,1.1823316
6581550,152.72343,22.88,99504.0,1.1822721
6593397,152.30066,22.88,99509.0,1.1823316
6618320,152.30066,22.88,99509.0,1.1823316
6629534,152.55432,22.88,99506.0,1.1822959
6642020,152.38785,22.88,99507.99,1.1823195
6664782,152.38785,22.88,99507.99,1.1823195
6675500,152.2161,22.88,99510.0,1.1823434
6687362,151.71143,22.88,99516.0,1.1824147
6709206,152.46976,22.88,99507.0,1.1823077
6720357,152.38785,22.88,99507.99,1.1823195
6732833,152.46976,22.88,99507.0,1.1823077
6754296,152.2161,22.88,99510.0,1.1823434
6766181,152.72343,22.88,99504.0,1.1822721
6778297,152.46976,22.88,99507.0,1.1823077
6802366,152.46976,22.88,99507.0,1.1823077
6813194,152.30066,22.88,99509.0,1.1823316
6825953,152.72343,22.88,99504.0,1.1822721
6849160,152.38785,22.88,99507.99,1.1823195
6861178,152.63887,22.88,99505.0,1.182284
6873157,152.80798,22.88,99503.0,1.1822603
6896390,152.04964,22.88,99512.0,1.1823672
6908190,152.13155,22.88,99511.0,1.1823553
6920354,152.04964,22.88,99512.0,1.1823672
6944181,152.2161,22.88,99510.0,1.1823434
6956184,151.88052,22.88,99513.99,1.1823908
6968119,152.30066,22.88,99509.0,1.1823316
6992096,152.38785,22.869999,99507.99,1.1823195
7004406,152.2161,22.869999,99510.0,1.1823434
7016292,152.13155,22.869999,99511.0,1.1823553
7039306,152.38785,22.88,99507.99,1.1823195
7051224,152.63887,22.88,99505.0,1.182284
7062722,152.89253,22.88,99501.99,1.1822482
7084913,152.13155,22.88,99511.0,1.1823553
7096310,152.80798,22.88,99503.0,1.1822603
7107752,152.2161,22.88,99510.0,1.1823434
7129159,152.2161,22.88,99510.0,1.1823434
7141152,152.2161,22.88,99510.0,1.1823434
7152434,152.30066,22.88,99509.0,1.1823316
7175296,152.55432,22.89,99506.0,1.1822959
7186171,152.89253,22.89,99501.99,1.1822482
7197234,152.72343,22.89,99504.0,1.1822721
7220891,152.30066,22.89,99509.0,1.1823316
7231269,152.13155,22.89,99511.0,1.1823553
7243666,152.63887,22.89,99505.0,1.182284
7265153,152.55432,22.89,99506.0,1.1822959
7276714,152.30066,22.89,99509.0,1.1823316
7287331,152.55432,22.89,99506.0,1.1822959
7310316,152.30066,22.89,99509.0,1.1823316
7321219,152.30066,22.89,99509.0,1.1823316
7332201,152.38785,22.89,99507.99,1.1823195
7356380,152.38785,22.89,99507.99,1.1823195
7368238,152.30066,22.89,99509.0,1.1823316
7380322,152.72343,22.89,99504.0,1.1822721
7404413,152.38785,22.89,99507.99,1.1823195
7415242,152.2161,22.89,99510.0,1.1823434
7427606,152.46976,22.89,99507.0,1.1823077
7450352,152.72343,22.89,99504.0,1.1822721
7461158,152.38785,22.89,99507.99,1.1823195
7473161,152.04964,22.89,99512.0,1.1823672
7495234,152.38785,22.89,99507.99,1.1823195
7506470,152.80798,22.89,99503.0,1.1822603
7517209,152.38785,22.89,99507.99,1.1823195
7540317,152.2161,22.9,99510.0,1.1823434
7551312,152.72343,22.9,99504.0,1.1822721
7563206,152.38785,22.9,99507.99,1.1823195
7585194,152.55432,22.9,99506.0,1.1822959
7597225,151.88052,22.9,99513.99,1.1823908
7608285,152.2161,22.9,99510.0,1.1823434
7631296,152.38785,22.9,99507.99,1.1823195
7643227,152.46976,22.9,99507.0,1.1823077
7654402,152.72343,22.9,99504.0,1.1822721
7677238,152.46976,22.89,99507.0,1.1823077
7688154,152.72343,22.89,99504.0,1.1822721
7700454,152.46976,22.89,99507.0,1.1823077
7723604,152.2161,22.89,99510.0,1.1823434
7734331,152.2161,22.89,99510.0,1.1823434
7747582,152.89253,22.89,99501.99,1.1822482
7769563,152.46976,22.9,99507.0,1.1823077
7780289,152.72343,22.9,99504.0,1.1822721
7792199,152.80798,22.9,99503.0,1.1822603
7816314,151.88052,22.9,99513.99,1.1823908
7828152,152.2161,22.9,99510.0,1.1823434
7840282,152.55432,22.9,99506.0,1.1822959
7864311,152.13155,22.9,99511.0,1.1823553
7876161,152.2161,22.9,99510.0,1.1823434
7888357,152.2161,22.9,99510.0,1.1823434
7912221,152.72343,22.89,99504.0,1.1822721
7924452,152.63887,22.89,99505.0,1.182284
7937384,152.80798,22.89,99503.0,1.1822603
7962321,152.38785,22.9,99507.99,1.1823195
7974218,152.04964,22.9,99512.0,1.1823672
7986174,152.30066,22.9,99509.0,1.1823316
8010321,152.46976,22.89,99507.0,1.1823077
8022169,152.80798,22.89,99503.0,1.1822603
8034676,152.38785,22.89,99507.99,1.1823195
8058168,152.30066,22.89,99509.0,1.1823316
8069897,152.9771,22.89,99500.99,1.1822364
8080802,152.38785,22.89,99507.99,1.1823195
8102331,152.55432,22.9,99506.0,1.1822959
8114320,152.55432,22.9,99506.0,1.1822959
8125529,152.38785,22.9,99507.99,1.1823195
8148330,151.88052,22.9,99513.99,1.1823908
8159197,152.80798,22.9,99503.0,1.1822603
8171235,152.2161,22.9,99510.0,1.1823434
8194728,152.72343,22.9,99504.0,1.1822721
8205183,152.72343,22.9,99504.0,1.1822721
8217198,152.63887,22.9,99505.0,1.182284
8240382,152.30066,22.9,99509.0,1.1823316
8252183,152.30066,22.9,99509.0,1.1823316
8264419,152.46976,22.9,99507.0,1.1823077
8286385,152.30066,22.9,99509.0,1.1823316
8298210,152.55432,22.9,99506.0,1.1822959
8310385,152.72343,22.9,99504.0,1.1822721
8334324,152.13155,22.9,99511.0,1.1823553
8346356,152.13155,22.9,99511.0,1.1823553
8358397,152.30066,22.9,99509.0,1.1823316
8381627,152.80798,22.9,99503.0,1.1822603
8392718,152.38785,22.9,99507.99,1.1823195
8404952,152.38785,22.9,99507.99,1.1823195
8429606,152.30066,22.9,99509.0,1.1823316
8440418,152.63887,22.9,99505.0,1.182284
8452869,152.63887,22.9,99505.0,1.182284
8476866,152.2161,22.9,99510.0,1.1823434
8488049,152.46976,22.9,99507.0,1.1823077
8501957,152.30066,22.9,99509.0,1.1823316
8524884,152.38785,22.9,99507.99,1.1823195
8535742,152.63887,22.9,99505.0,1.182284
8548024,152.55432,22.9,99506.0,1.1822959
8572027,152.04964,22.9,99512.0,1.1823672
8584719,152.55432,22.9,99506.0,1.1822959
8595908,152.04964,22.9,99512.0,1.1823672
8617240,152.55432,22.9,99506.0,1.1822959
8629188,152.55432,22.9,99506.0,1.1822959
8641199,153.06165,22.9,99500.0,1.1822246
8665492,151.71143,22.91,99516.0,1.1824147
8677228,152.13155,22.91,99511.0,1.1823553
8688461,152.46976,22.91,99507.0,1.1823077
8711262,151.96243,22.9,99513.0,1.182379
8723557,152.80798,22.9,99503.0,1.1822603
8735295,152.38785,22.9,99507.99,1.1823195
8758179,152.46976,22.91,99507.0,1.1823077
8770438,152.38785,22.91,99507.99,1.1823195
8782210,152.30066,22.91,99509.0,1.1823316
8806188,152.63887,22.9,99505.0,1.182284
8818170,152.55432,22.9,99506.0,1.1822959
8831270,152.30066,22.9,99509.0,1.1823316
8854484,152.46976,22.91,99507.0,1.1823077
8865167,152.63887,22.91,99505.0,1.182284
8877341,152.13155,22.91,99511.0,1.1823553
8899927,151.79333,22.91,99515.0,1.1824028
8910469,152.46976,22.91,99507.0,1.1823077
8922787,152.80798,22.91,99503.0,1.1822603
8944284,152.2161,22.91,99510.0,1.1823434
8956048,152.2161,22.91,99510.0,1.1823434
8967637,152.30066,22.91,99509.0,1.1823316
8989158,152.30066,22.91,99509.0,1.1823316
9001162,152.72343,22.91,99504.0,1.1822721
9012568,152.46976,22.91,99507.0,1.1823077
9035348,152.55432,22.91,99506.0,1.1822959
9047658,152.30066,22.91,99509.0,1.1823316
9059334,152.63887,22.91,99505.0,1.182284
9083366,152.30066,22.91,99509.0,1.1823316
9095585,152.30066,22.91,99509.0,1.1823316
9106841,152.46976,22.91,99507.0,1.1823077
9129936,152.30066,22.91,99509.0,1.1823316
9140225,152.55432,22.91,99506.0,1.1822959
9153142,152.89253,22.91,99501.99,1.1822482
9175228,151.71143,22.92,99516.0,1.1824147
9187408,152.46976,22.92,99507.0,1.1823077
9198862,152.55432,22.92,99506.0,1.1822959
9220175,152.46976,22.92,99507.0,1.1823077
9232254,152.46976,22.92,99507.0,1.1823077
9244280,152.46976,22.92,99507.0,1.1823077
9268296,152.63887,22.92,99505.0,1.182284
9279260,152.38785,22.92,99507.99,1.1823195
9291285,151.96243,22.92,99513.0,1.182379
9315211,152.38785,22.92,99507.99,1.1823195
9327142,152.38785,22.92,99507.99,1.1823195
9339497,152.38785,22.92,99507.99,1.1823195
9364294,152.2161,22.92,99510.0,1.1823434
9375301,152.30066,22.92,99509.0,1.1823316
9387835,151.88052,22.92,99513.99,1.1823908
9410761,152.38785,22.91,99507.99,1.1823195
9421676,152.30066,22.91,99509.0,1.1823316
9433344,152.72343,22.91,99504.0,1.1822721
9456418,152.80798,22.92,99503.0,1.1822603
9467297,152.04964,22.92,99512.0,1.1823672
9479655,152.63887,22.92,99505.0,1.182284
9503801,151.96243,22.92,99513.0,1.182379
9515964,152.38785,22.92,99507.99,1.1823195
9527958,152.2161,22.92,99510.0,1.1823434
9551239,152.55432,22.92,99506.0,1.1822959
9563276,152.13155,22.92,99511.0,1.1823553
9575338,152.55432,22.92,99506.0,1.1822959
9599523,152.46976,22.92,99507.0,1.1823077
9611221,152.80798,22.92,99503.0,1.1822603
9624095,152.2161,22.92,99510.0,1.1823434
9647380,152.55432,22.92,99506.0,1.1822959
9658954,152.55432,22.92,99506.0,1.1822959
9669998,152.72343,22.92,99504.0,1.1822721
9694654,152.2161,22.92,99510.0,1.1823434
9706150,152.46976,22.92,99507.0,1.1823077
9718560,152.46976,22.92,99507.0,1.1823077
9742428,152.55432,22.92,99506.0,1.1822959
9753184,151.96243,22.92,99513.0,1.182379
9764755,152.04964,22.92,99512.0,1.1823672
9788841,152.80798,22.92,99503.0,1.1822603
9800061,152.55432,22.92,99506.0,1.1822959
9813601,152.38785,22.92,99507.99,1.1823195
9836799,152.46976,22.92,99507.0,1.1823077
9848076,152.38785,22.92,99507.99,1.1823195
9860441,152.63887,22.92,99505.0,1.182284
9884579,152.72343,22.92,99504.0,1.1822721
9896055,152.2161,22.92,99510.0,1.1823434
9908436,152.38785,22.92,99507.99,1.1823195
9933606,152.2161,22.93,99510.0,1.1823434
9944420,152.30066,22.93,99509.0,1.1823316
9956540,152.46976,22.93,99507.0,1.1823077
9980398,151.96243,22.93,99513.0,1.182379
9992197,152.63887,22.93,99505.0,1.182284
10004441,152.89253,22.93,99501.99,1.1822482
10028431,152.30066,22.92,99509.0,1.1823316
10040392,152.80798,22.92,99503.0,1.1822603
10054421,152.46976,22.92,99507.0,1.1823077
10077965,152.2161,22.92,99510.0,1.1823434
10088489,152.38785,22.92,99507.99,1.1823195
10101188,152.80798,22.92,99503.0,1.1822603
10124164,152.89253,22.93,99501.99,1.1822482
10135300,152.30066,22.93,99509.0,1.1823316
10157164,152.2161,22.93,99510.0,1.1823434
10179632,152.30066,22.92,99509.0,1.1823316
10190184,152.55432,22.92,99506.0,1.1822959
10202192,152.2161,22.92,99510.0,1.1823434
10224396,151.96243,22.92,99513.0,1.182379
10236192,152.55432,22.92,99506.0,1.1822959
10247311,152.80798,22.92,99503.0,1.1822603
10271236,152.30066,22.93,99509.0,1.1823316
10284213,152.30066,22.93,99509.0,1.1823316
10295322,152.80798,22.93,99503.0,1.1822603
10319230,152.55432,22.92,99506.0,1.1822959
10331578,152.13155,22.92,99511.0,1.1823553
10342172,152.89253,22.92,99501.99,1.1822482
10365674,152.38785,22.93,99507.99,1.1823195
10377212,152.46976,22.93,99507.0,1.1823077
10389232,152.80798,22.93,99503.0,1.1822603
10411985,151.88052,22.93,99513.99,1.1823908
10422168,152.55432,22.93,99506.0,1.1822959
10434171,152.46976,22.93,99507.0,1.1823077
10456458,152.04964,22.93,99512.0,1.1823672
10469245,152.30066,22.93,99509.0,1.1823316
10480693,152.46976,22.93,99507.0,1.1823077
10504793,152.46976,22.93,99507.0,1.1823077
10515583,152.46976,22.93,99507.0,1.1823077
10527786,152.46976,22.93,99507.0,1.1823077
10552783,152.46976,22.93,99507.0,1.1823077
10563544,152.46976,22.93,99507.0,1.1823077
10576545,152.72343,22.93,99504.0,1.1822721
10599266,152.2161,22.93,99510.0,1.1823434
10610488,152.46976,22.93,99507.0,1.1823077
10622850,152.46976,22.93,99507.0,1.1823077
10645156,152.38785,22.93,99507.99,1.1823195
10657224,152.38785,22.93,99507.99,1.1823195
10670034,152.2161,22.93,99510.0,1.1823434
10694059,152.2161,22.939999,99510.0,1.1823434
10704193,152.55432,22.939999,99506.0,1.1822959
10716309,152.38785,22.939999,99507.99,1.1823195
10740207,151.96243,22.939999,99513.0,1.182379
10752217,152.13155,22.939999,99511.0,1.1823553
10764193,152.55432,22.939999,99506.0,1.1822959
10788250,152.38785,22.939999,99507.99,1.1823195
10800248,152.04964,22.939999,99512.0,1.1823672
10812180,152.55432,22.939999,99506.0,1.1822959
10836147,152.2161,22.93,99510.0,1.1823434
10848177,152.30066,22.93,99509.0,1.1823316
10860279,152.38785,22.93,99507.99,1.1823195
10884151,152.30066,22.939999,99509.0,1.1823316
10896296,152.38785,22.939999,99507.99,1.1823195
10908225,152.46976,22.939999,99507.0,1.1823077
10932204,152.30066,22.939999,99509.0,1.1823316
10944323,152.13155,22.939999,99511.0,1.1823553
10956386,152.30066,22.939999,99509.0,1.1823316
10982163,152.55432,22.939999,99506.0,1.1822959
10994844,152.38785,22.939999,99507.99,1.1823195
11006456,152.2161,22.939999,99510.0,1.1823434
11030774,152.2161,22.939999,99510.0,1.1823434
11042032,152.2161,22.939999,99510.0,1.1823434
11054474,152.72343,22.939999,99504.0,1.1822721
11078446,152.2161,22.93,99510.0,1.1823434
11090411,152.13155,22.93,99511.0,1.1823553
11102457,152.46976,22.93,99507.0,1.1823077
11126492,152.2161,22.939999,99510.0,1.1823434
11138326,152.63887,22.939999,99505.0,1.182284
11150416,152.30066,22.939999,99509.0,1.1823316
11174577,152.80798,22.939999,99503.0,1.1822603
11186363,152.04964,22.939999,99512.0,1.1823672
11198522,152.46976,22.939999,99507.0,1.1823077
11222417,152.55432,22.939999,99506.0,1.1822959
11234223,152.80798,22.939999,99503.0,1.1822603
11246444,152.38785,22.939999,99507.99,1.1823195
11270360,152.30066,22.939999,99509.0,1.1823316
11282162,152.30066,22.939999,99509.0,1.1823316
11294828,152.04964,22.939999,99512.0,1.1823672
11318519,151.88052,22.939999,99513.99,1.1823908
11329978,152.30066,22.939999,99509.0,1.1823316
11342422,152.72343,22.939999,99504.0,1.1822721
11366485,152.55432,22.939999,99506.0,1.1822959
11377225,152.46976,22.939999,99507.0,1.1823077
11388833,152.46976,22.939999,99507.0,1.1823077
11412444,152.46976,22.949999,99507.0,1.1823077
11424104,152.30066,22.949999,99509.0,1.1823316
11436584,152.63887,22.949999,99505.0,1.182284
11460451,152.30066,22.949999,99509.0,1.1823316
11472182,152.38785,22.949999,99507.99,1.1823195
11484558,152.9771,22.949999,99500.99,1.1822364
11509950,152.55432,22.939999,99506.0,1.1822959
11520190,152.46976,22.939999,99507.0,1.1823077
11532832,152.30066,22.939999,99509.0,1.1823316
11556558,152.72343,22.949999,99504.0,1.1822721
11568263,152.38785,22.949999,99507.99,1.1823195
11580423,152.2161,22.949999,99510.0,1.1823434
11603646,152.55432,22.949999,99506.0,1.1822959
11614173,152.46976,22.949999,99507.0,1.1823077
11625181,152.46976,22.949999,99507.0,1.1823077
11648777,151.96243,22.949999,99513.0,1.182379
11659558,152.30066,22.949999,99509.0,1.1823316
11671247,151.79333,22.949999,99515.0,1.1824028
11693672,152.55432,22.949999,99506.0,1.1822959
11705222,152.30066,22.949999,99509.0,1.1823316
11717369,152.38785,22.949999,99507.99,1.1823195
11740348,152.46976,22.96,99507.0,1.1823077
11751344,152.72343,22.96,99504.0,1.1822721
11762175,152.46976,22.96,99507.0,1.1823077
11787811,151.96243,22.949999,99513.0,1.182379
11799208,152.38785,22.949999,99507.99,1.1823195
11811991,152.30066,22.949999,99509.0,1.1823316
11833234,152.30066,22.949999,99509.0,1.1823316
11845237,152.46976,22.949999,99507.0,1.1823077
11856459,152.13155,22.949999,99511.0,1.1823553
11879657,152.38785,22.949999,99507.99,1.1823195
11890841,152.46976,22.949999,99507.0,1.1823077
11901152,152.63887,22.949999,99505.0,1.182284
11925699,152.46976,22.949999,99507.0,1.1823077
11937248,152.30066,22.949999,99509.0,1.1823316
11949157,152.72343,22.949999,99504.0,1.1822721
11972865,152.2161,22.96,99510.0,1.1823434
11984174,152.30066,22.96,99509.0,1.1823316
11996157,152.89253,22.96,99501.99,1.1822482
12019998,152.04964,22.96,99512.0,1.1823672
12031675,152.30066,22.96,99509.0,1.1823316
12043142,152.46976,22.96,99507.0,1.1823077
12067172,152.13155,22.96,99511.0,1.1823553
12078547,152.30066,22.96,99509.0,1.1823316
12091259,152.30066,22.96,99509.0,1.1823316
12114790,152.04964,22.96,99512.0,1.1823672
12126509,152.13155,22.96,99511.0,1.1823553
12139212,152.04964,22.96,99512.0,1.1823672
12163011,152.30066,22.96,99509.0,1.1823316
12174475,152.46976,22.96,99507.0,1.1823077
12187226,152.30066,22.96,99509.0,1.1823316
12209228,152.30066,22.96,99509.0,1.1823316
12220838,152.04964,22.96,99512.0,1.1823672
12232396,152.30066,22.96,99509.0,1.1823316
12256441,152.46976,22.96,99507.0,1.1823077
12268812,152.46976,22.96,99507.0,1.1823077
12280590,152.63887,22.96,99505.0,1.182284
12304366,151.71143,22.96,99516.0,1.1824147
12316753,152.30066,22.96,99509.0,1.1823316
12327316,152.9771,22.96,99500.99,1.1822364
12350490,152.13155,22.96,99511.0,1.1823553
12362750,152.30066,22.96,99509.0,1.1823316
12374485,152.46976,22.96,99507.0,1.1823077
12398782,152.38785,22.949999,99507.99,1.1823195
12410519,152.46976,22.949999,99507.0,1.1823077
12422977,152.55432,22.949999,99506.0,1.1822959
12445650,152.46976,22.96,99507.0,1.1823077
12456406,152.46976,22.96,99507.0,1.1823077
12468180,152.38785,22.96,99507.99,1.1823195
12491640,152.63887,22.96,99505.0,1.182284
12502815,152.63887,22.96,99505.0,1.182284
12514001,152.55432,22.96,99506.0,1.1822959
12537974,152.04964,22.97,99512.0,1.1823672
12550163,152.38785,22.97,99507.99,1.1823195
12562436,152.30066,22.97,99509.0,1.1823316
12586374,152.38785,22.96,99507.99,1.1823195
12598202,152.46976,22.96,99507.0,1.1823077
12610721,152.80798,22.96,99503.0,1.1822603
12634438,152.46976,22.97,99507.0,1.1823077
12646039,152.72343,22.97,99504.0,1.1822721
12658518,152.04964,22.97,99512.0,1.1823672
12682522,152.04964,22.96,99512.0,1.1823672
12694048,152.30066,22.96,99509.0,1.1823316
12706385,152.38785,22.96,99507.99,1.1823195
12730442,152.46976,22.96,99507.0,1.1823077
12741984,152.55432,22.96,99506.0,1.1822959
12754395,152.30066,22.96,99509.0,1.1823316
12778443,152.30066,22.96,99509.0,1.1823316
12790171,152.38785,22.96,99507.99,1.1823195
12802433,152.38785,22.96,99507.99,1.1823195
12825640,152.89253,22.96,99501.99,1.1822482
12837231,152.63887,22.96,99505.0,1.182284
12848728,152.46976,22.96,99507.0,1.1823077
12873749,152.55432,22.97,99506.0,1.1822959
12884191,152.46976,22.97,99507.0,1.1823077
12896568,152.2161,22.97,99510.0,1.1823434
12920353,152.38785,22.96,99507.99,1.1823195
12932096,152.30066,22.96,99509.0,1.1823316
12944953,152.38785,22.96,99507.99,1.1823195
12968964,152.2161,22.97,99510.0,1.1823434
12980089,152.30066,22.97,99509.0,1.1823316
12994027,152.72343,22.97,99504.0,1.1822721
13016801,152.38785,22.97,99507.99,1.1823195
13028123,152.46976,22.97,99507.0,1.1823077
13040569,152.30066,22.97,99509.0,1.1823316
13064589,152.9771,22.97,99500.99,1.1822364
13077341,152.38785,22.97,99507.99,1.1823195
13089126,152.30066,22.97,99509.0,1.1823316
13112689,152.38785,22.96,99507.99,1.1823195
13124044,152.46976,22.96,99507.0,1.1823077
13135661,152.46976,22.96,99507.0,1.1823077
13157160,152.46976,22.97,99507.0,1.1823077
13169172,152.80798,22.97,99503.0,1.1822603
13181199,152.9771,22.97,99500.99,1.1822364
13205195,152.55432,22.97,99506.0,1.1822959
13216833,152.63887,22.97,99505.0,1.182284
13228429,152.80798,22.97,99503.0,1.1822603
13250217,151.88052,22.97,99513.99,1.1823908
13261492,152.30066,22.97,99509.0,1.1823316
13273599,152.55432,22.97,99506.0,1.1822959
13297406,152.38785,22.97,99507.99,1.1823195
13309152,152.30066,22.97,99509.0,1.1823316
13321204,152.55432,22.97,99506.0,1.1822959
13343594,152.9771,22.98,99500.99,1.1822364
13355358,152.30066,22.98,99509.0,1.1823316
13367652,152.80798,22.98,99503.0,1.1822603
13391853,152.30066,22.98,99509.0,1.1823316
13402179,152.63887,22.98,99505.0,1.182284
13414164,152.63887,22.98,99505.0,1.182284
13436425,152.30066,22.98,99509.0,1.1823316
13447785,152.38785,22.98,99507.99,1.1823195
13460820,152.55432,22.98,99506.0,1.1822959
13484755,152.2161,22.98,99510.0,1.1823434
13496314,152.38785,22.98,99507.99,1.1823195
13508921,152.55432,22.98,99506.0,1.1822959
13532850,152.2161,22.98,99510.0,1.1823434
13544272,152.38785,22.98,99507.99,1.1823195
13556841,152.2161,22.98,99510.0,1.1823434
13580285,152.04964,22.98,99512.0,1.1823672
13591577,152.46976,22.98,99507.0,1.1823077
13603924,152.30066,22.98,99509.0,1.1823316
13627276,152.46976,22.98,99507.0,1.1823077
13638507,152.38785,22.98,99507.99,1.1823195
13651218,152.63887,22.98,99505.0,1.182284
13675249,152.46976,22.98,99507.0,1.1823077
13687914,152.55432,22.98,99506.0,1.1822959
13699226,152.38785,22.98,99507.99,1.1823195
13724169,152.13155,22.98,99511.0,1.1823553
13735257,152.2161,22.98,99510.0,1.1823434
13746986,152.2161,22.98,99510.0,1.1823434
13771103,152.80798,22.98,99503.0,1.1822603
13783316,152.80798,22.98,99503.0,1.1822603
13795689,152.72343,22.98,99504.0,1.1822721
13819599,152.72343,22.98,99504.0,1.1822721
13831345,152.89253,22.98,99501.99,1.1822482
13844013,152.55432,22.98,99506.0,1.1822959
13867373,152.72343,22.98,99504.0,1.1822721
13879228,152.46976,22.98,99507.0,1.1823077
13891892,152.9771,22.98,99500.99,1.1822364
13915257,152.2161,22.98,99510.0,1.1823434
13926810,152.30066,22.98,99509.0,1.1823316
13939234,152.46976,22.98,99507.0,1.1823077
13963233,152.13155,22.98,99511.0,1.1823553
13974821,152.38785,22.98,99507.99,1.1823195
13985989,152.38785,22.98,99507.99,1.1823195
14007282,152.46976,22.98,99507.0,1.1823077
14019338,152.63887,22.98,99505.0,1.182284
14031354,152.38785,22.98,99507.99,1.1823195
14054314,152.55432,22.98,99506.0,1.1822959
14068018,152.63887,22.98,99505.0,1.182284
14079275,152.55432,22.98,99506.0,1.1822959
14103251,152.63887,22.98,99505.0,1.182284
14115227,152.72343,22.98,99504.0,1.1822721
14127276,152.46976,22.98,99507.0,1.1823077
14150206,152.38785,22.98,99507.99,1.1823195
14163768,153.06165,22.98,99500.0,1.1822246
14174345,152.2161,22.98,99510.0,1.1823434
14199266,152.38785,22.99,99507.99,1.1823195
14211229,152.38785,22.99,99507.99,1.1823195
14223225,152.04964,22.99,99512.0,1.1823672
14247319,152.13155,22.99,99511.0,1.1823553
14259227,152.04964,22.99,99512.0,1.1823672
14271247,152.72343,22.99,99504.0,1.1822721
14295241,152.55432,22.99,99506.0,1.1822959
14307314,152.46976,22.99,99507.0,1.1823077
14318415,152.13155,22.99,99511.0,1.1823553
14342296,152.38785,22.99,99507.99,1.1823195
14355007,152.13155,22.99,99511.0,1.1823553
14366169,152.55432,22.99,99506.0,1.1822959
14390036,152.13155,22.98,99511.0,1.1823553
14402961,152.38785,22.98,99507.99,1.1823195
14414379,152.55432,22.98,99506.0,1.1822959
14438184,151.71143,22.99,99516.0,1.1824147
14451011,151.88052,22.99,99513.99,1.1823908
14464853,152.04964,22.99,99512.0,1.1823672
14488891,152.30066,22.98,99509.0,1.1823316
14500070,152.30066,22.98,99509.0,1.1823316
14512924,152.80798,22.98,99503.0,1.1822603
14536900,152.30066,22.99,99509.0,1.1823316
14548185,152.46976,22.99,99507.0,1.1823077
14561930,152.46976,22.99,99507.0,1.1823077
14586457,152.55432,22.98,99506.0,1.1822959
14598281,152.2161,22.98,99510.0,1.1823434
14610206,152.2161,22.98,99510.0,1.1823434
14634171,152.13155,22.99,99511.0,1.1823553
14646370,152.46976,22.99,99507.0,1.1823077
14658045,152.63887,22.99,99505.0,1.182284
14681108,152.30066,22.99,99509.0,1.1823316
14692561,152.72343,22.99,99504.0,1.1822721
14704038,152.72343,22.99,99504.0,1.1822721
14728083,152.46976,22.99,99507.0,1.1823077
14740378,152.46976,22.99,99507.0,1.1823077
14752072,152.13155,22.99,99511.0,1.1823553
14775935,153.23076,22.99,99498.0,1.1822008
14787250,152.63887,22.99,99505.0,1.182284
14800025,152.72343,22.99,99504.0,1.1822721
14824021,152.04964,22.99,99512.0,1.1823672
14836337,152.80798,22.99,99503.0,1.1822603
14848020,152.72343,22.99,99504.0,1.1822721
14872125,152.13155,22.99,99511.0,1.1823553
14884423,152.38785,22.99,99507.99,1.1823195
14895959,152.04964,22.99,99512.0,1.1823672
14917212,152.55432,22.99,99506.0,1.1822959
14929168,152.55432,22.99,99506.0,1.1822959
14940391,152.72343,22.99,99504.0,1.1822721
14964827,152.13155,23.0,99511.0,1.1823553
14976250,152.55432,23.0,99506.0,1.1822959
14988827,152.2161,23.0,99510.0,1.1823434
15012827,152.46976,22.99,99507.0,1.1823077
15024339,152.38785,22.99,99507.99,1.1823195
15036877,152.38785,22.99,99507.99,1.1823195
15060918,152.46976,23.0,99507.0,1.1823077
15072266,152.55432,23.0,99506.0,1.1822959
15084287,152.38785,23.0,99507.99,1.1823195
15106819,152.55432,23.0,99506.0,1.1822959
15117200,152.89253,23.0,99501.99,1.1822482
15129241,152.46976,23.0,99507.0,1.1823077
15152301,152.2161,23.0,99510.0,1.1823434
15164264,152.38785,23.0,99507.99,1.1823195
15175577,152.04964,23.0,99512.0,1.1823672
15428215,152.04964,23.01,99512.0,1.1823672
15964460,152.63887,23.01,99505.0,1.182284
15976203,152.89253,23.01,99501.99,1.1822482
16000207,152.46976,23.01,99507.0,1.1823077
16012845,151.79333,23.01,99515.0,1.1824028
16024042,152.63887,23.01,99505.0,1.182284
16048195,151.88052,23.01,99513.99,1.1823908
16061029,152.46976,23.01,99507.0,1.1823077
16073372,152.55432,23.01,99506.0,1.1822959
16096539,152.38785,23.01,99507.99,1.1823195
16108963,152.80798,23.01,99503.0,1.1822603
16120014,152.63887,23.01,99505.0,1.182284
16146198,152.30066,23.01,99509.0,1.1823316
16158469,152.55432,23.01,99506.0,1.1822959
16169166,152.38785,23.01,99507.99,1.1823195
16193203,152.46976,23.01,99507.0,1.1823077
16206517,152.04964,23.01,99512.0,1.1823672
16217250,152.46976,23.01,99507.0,1.1823077
16241220,152.46976,23.01,99507.0,1.1823077
16253743,152.46976,23.01,99507.0,1.1823077
16265196,152.46976,23.01,99507.0,1.1823077
16289180,152.30066,23.01,99509.0,1.1823316
16301885,152.72343,23.01,99504.0,1.1822721
16313178,152.46976,23.01,99507.0,1.1823077
16337199,152.13155,23.019999,99511.0,1.1823553
16350239,152.38785,23.019999,99507.99,1.1823195
16361235,152.2161,23.019999,99510.0,1.1823434
16385189,152.89253,23.01,99501.99,1.1822482
16397767,152.2161,23.01,99510.0,1.1823434
16409219,152.55432,23.01,99506.0,1.1822959
16433274,152.2161,23.01,99510.0,1.1823434
16445869,152.63887,23.01,99505.0,1.182284
16457368,152.89253,23.01,99501.99,1.1822482
16480173,152.55432,23.019999,99506.0,1.1822959
16493653,152.30066,23.019999,99509.0,1.1823316
16504201,152.38785,23.019999,99507.99,1.1823195
16528302,152.63887,23.019999,99505.0,1.182284
16540788,152.63887,23.019999,99505.0,1.182284
16551757,152.55432,23.019999,99506.0,1.1822959
16575664,152.46976,23.019999,99507.0,1.1823077
16588004,152.55432,23.019999,99506.0,1.1822959
16599576,152.80798,23.019999,99503.0,1.1822603
16624307,152.04964,23.01,99512.0,1.1823672
16636678,152.46976,23.01,99507.0,1.1823077
16647652,152.72343,23.01,99504.0,1.1822721
16670444,152.72343,23.01,99504.0,1.1822721
16683423,152.72343,23.01,99504.0,1.1822721
16695639,152.38785,23.01,99507.99,1.1823195
16719587,152.55432,23.019999,99506.0,1.1822959
16731618,152.46976,23.019999,99507.0,1.1823077
16743598,152.89253,23.019999,99501.99,1.1822482
16766585,152.04964,23.019999,99512.0,1.1823672
16778535,151.96243,23.019999,99513.0,1.182379
16789662,151.71143,23.019999,99516.0,1.1824147
16813656,152.2161,23.019999,99510.0,1.1823434
16826665,152.30066,23.019999,99509.0,1.1823316
16838862,152.63887,23.019999,99505.0,1.182284
16861753,152.2161,23.019999,99510.0,1.1823434
16874740,151.96243,23.019999,99513.0,1.182379
16886871,151.79333,23.019999,99515.0,1.1824028
16910825,152.13155,23.019999,99511.0,1.1823553
16923773,152.46976,23.019999,99507.0,1.1823077
16934850,152.13155,23.019999,99511.0,1.1823553
16959318,152.38785,23.019999,99507.99,1.1823195
16971936,152.46976,23.019999,99507.0,1.1823077
16982833,152.30066,23.019999,99509.0,1.1823316
17005683,152.46976,23.019999,99507.0,1.1823077
17018718,152.55432,23.019999,99506.0,1.1822959
17029584,151.96243,23.019999,99513.0,1.182379
17053685,152.63887,23.019999,99505.0,1.182284
17064310,152.38785,23.019999,99507.99,1.1823195
17075459,152.63887,23.019999,99505.0,1.182284
17099265,152.63887,23.019999,99505.0,1.182284
17111222,152.30066,23.019999,99509.0,1.1823316
17123247,152.30066,23.019999,99509.0,1.1823316
17147613,152.80798,23.029999,99503.0,1.1822603
17159624,152.30066,23.029999,99509.0,1.1823316
17170804,152.04964,23.029999,99512.0,1.1823672
17194058,152.04964,23.029999,99512.0,1.1823672
17206171,152.80798,23.029999,99503.0,1.1822603
17218471,152.80798,23.029999,99503.0,1.1822603
17242427,152.38785,23.029999,99507.99,1.1823195
17254138,152.46976,23.029999,99507.0,1.1823077
17266407,152.89253,23.029999,99501.99,1.1822482
17290482,152.13155,23.029999,99511.0,1.1823553
17302019,152.63887,23.029999,99505.0,1.182284
17314441,152.30066,23.029999,99509.0,1.1823316
17337239,152.46976,23.029999,99507.0,1.1823077
17350025,152.46976,23.029999,99507.0,1.1823077
17362472,152.80798,23.029999,99503.0,1.1822603
17386487,152.89253,23.029999,99501.99,1.1822482
17398162,152.2161,23.029999,99510.0,1.1823434
17409147,152.46976,23.029999,99507.0,1.1823077
17433671,151.96243,23.029999,99513.0,1.182379
17445245,152.55432,23.029999,99506.0,1.1822959
17456452,152.46976,23.029999,99507.0,1.1823077
17480417,152.04964,23.029999,99512.0,1.1823672
17492056,152.46976,23.029999,99507.0,1.1823077
17505600,152.30066,23.029999,99509.0,1.1823316
17528831,152.46976,23.029999,99507.0,1.1823077
17540108,152.38785,23.029999,99507.99,1.1823195
17552807,152.46976,23.029999,99507.0,1.1823077
17576442,152.63887,23.029999,99505.0,1.182284
17588419,152.38785,23.029999,99507.99,1.1823195
17600371,152.55432,23.029999,99506.0,1.1822959
17624447,152.30066,23.039999,99509.0,1.1823316
17636170,152.04964,23.039999,99512.0,1.1823672
17648755,152.38785,23.039999,99507.99,1.1823195
17673897,152.72343,23.029999,99504.0,1.1822721
17684412,152.2161,23.029999,99510.0,1.1823434
17695251,152.38785,23.029999,99507.99,1.1823195
17718193,152.13155,23.039999,99511.0,1.1823553
17730175,152.55432,23.039999,99506.0,1.1822959
17741147,152.38785,23.039999,99507.99,1.1823195
17764427,152.13155,23.029999,99511.0,1.1823553
17775629,152.46976,23.029999,99507.0,1.1823077
17786191,152.46976,23.029999,99507.0,1.1823077
17809536,152.55432,23.039999,99506.0,1.1822959
17821195,152.63887,23.039999,99505.0,1.182284
17833371,152.30066,23.039999,99509.0,1.1823316
17857382,152.13155,23.039999,99511.0,1.1823553
17868417,152.63887,23.039999,99505.0,1.182284
17879909,152.04964,23.039999,99512.0,1.1823672
17903554,152.30066,23.039999,99509.0,1.1823316
17915302,152.55432,23.039999,99506.0,1.1822959
17927633,152.2161,23.039999,99510.0,1.1823434
17949204,152.9771,23.039999,99500.99,1.1822364
17961167,152.30066,23.039999,99509.0,1.1823316
17973194,152.63887,23.039999,99505.0,1.182284
17997368,152.38785,23.05,99507.99,1.1823195
18008839,152.38785,23.05,99507.99,1.1823195
18020414,152.55432,23.05,99506.0,1.1822959
18043597,152.38785,23.05,99507.99,1.1823195
18054853,152.2161,23.05,99510.0,1.1823434
18065153,152.55432,23.05,99506.0,1.1822959
18089115,152.30066,23.039999,99509.0,1.1823316
18100285,152.30066,23.039999,99509.0,1.1823316
18112012,152.63887,23.039999,99505.0,1.182284
18134842,152.63887,23.05,99505.0,1.182284
18146556,152.72343,23.05,99504.0,1.1822721
18158829,152.30066,23.05,99509.0,1.1823316
18182821,152.38785,23.039999,99507.99,1.1823195
18193154,152.63887,23.039999,99505.0,1.182284
18205188,152.46976,23.039999,99507.0,1.1823077
18227628,152.72343,23.039999,99504.0,1.1822721
18238824,152.30066,23.039999,99509.0,1.1823316
18250460,152.80798,23.039999,99503.0,1.1822603
18274580,152.63887,23.05,99505.0,1.182284
18286832,152.80798,23.05,99503.0,1.1822603
18297212,152.63887,23.05,99505.0,1.182284
18321203,152.30066,23.05,99509.0,1.1823316
18333184,152.2161,23.05,99510.0,1.1823434
18345188,152.38785,23.05,99507.99,1.1823195
18370041,152.46976,23.05,99507.0,1.1823077
18382788,151.71143,23.05,99516.0,1.1824147
18394208,152.46976,23.05,99507.0,1.1823077
18418350,152.46976,23.039999,99507.0,1.1823077
18430781,152.46976,23.039999,99507.0,1.1823077
18442036,152.2161,23.039999,99510.0,1.1823434
18466490,152.38785,23.039999,99507.99,1.1823195
18477657,152.46976,23.039999,99507.0,1.1823077
18490341,152.55432,23.039999,99506.0,1.1822959
18515120,152.13155,23.039999,99511.0,1.1823553
18526836,152.9771,23.039999,99500.99,1.1822364
18539240,152.72343,23.039999,99504.0,1.1822721
18563360,152.55432,23.05,99506.0,1.1822959
18575260,152.30066,23.05,99509.0,1.1823316
18587298,152.55432,23.05,99506.0,1.1822959
18611270,152.63887,23.039999,99505.0,1.182284
18622322,152.63887,23.039999,99505.0,1.182284
18634482,152.72343,23.039999,99504.0,1.1822721
18657320,152.38785,23.05,99507.99,1.1823195
18670021,152.63887,23.05,99505.0,1.182284
18682433,152.63887,23.05,99505.0,1.182284
18706483,152.2161,23.05,99510.0,1.1823434
18718179,152.04964,23.05,99512.0,1.1823672
18730321,152.2161,23.05,99510.0,1.1823434
18754538,152.38785,23.05,99507.99,1.1823195
18766024,152.46976,23.05,99507.0,1.1823077
18778522,152.72343,23.05,99504.0,1.1822721
18802496,152.46976,23.05,99507.0,1.1823077
18813985,152.13155,23.05,99511.0,1.1823553
18825229,152.46976,23.05,99507.0,1.1823077
18850968,152.04964,23.05,99512.0,1.1823672
18862171,152.30066,23.05,99509.0,1.1823316
18874410,152.2161,23.05,99510.0,1.1823434
18898327,152.80798,23.05,99503.0,1.1822603
18910163,152.72343,23.05,99504.0,1.1822721
18921166,152.38785,23.05,99507.99,1.1823195
18945204,152.80798,23.05,99503.0,1.1822603
18957884,152.80798,23.05,99503.0,1.1822603
18969240,152.80798,23.05,99503.0,1.1822603
18992456,152.55432,23.05,99506.0,1.1822959
19004346,152.46976,23.05,99507.0,1.1823077
19016299,152.63887,23.05,99505.0,1.182284
19040042,152.55432,23.05,99506.0,1.1822959
19053633,152.46976,23.05,99507.0,1.1823077
19064198,152.30066,23.05,99509.0,1.1823316
19088049,152.30066,23.06,99509.0,1.1823316
19101637,152.30066,23.06,99509.0,1.1823316
19112262,152.63887,23.06,99505.0,1.182284
19136110,152.04964,23.06,99512.0,1.1823672
19148981,152.46976,23.06,99507.0,1.1823077
19160107,152.55432,23.06,99506.0,1.1822959
19185187,152.55432,23.05,99506.0,1.1822959
19198445,152.63887,23.05,99505.0,1.182284
19210170,152.2161,23.05,99510.0,1.1823434
19233262,152.46976,23.05,99507.0,1.1823077
19245521,152.55432,23.05,99506.0,1.1822959
19257197,152.89253,23.05,99501.99,1.1822482
19281941,152.38785,23.05,99507.99,1.1823195
19293402,152.04964,23.05,99512.0,1.1823672
19305148,152.30066,23.05,99509.0,1.1823316
19329186,152.80798,23.05,99503.0,1.1822603
19341492,152.38785,23.05,99507.99,1.1823195
19353221,152.55432,23.05,99506.0,1.1822959
19376579,152.38785,23.05,99507.99,1.1823195
19388517,152.89253,23.05,99501.99,1.1822482
19399332,152.38785,23.05,99507.99,1.1823195
19424384,152.2161,23.06,99510.0,1.1823434
19436330,151.88052,23.06,99513.99,1.1823908
19448575,152.46976,23.06,99507.0,1.1823077
19473057,152.30066,23.06,99509.0,1.1823316
19485504,152.30066,23.06,99509.0,1.1823316
19497338,152.30066,23.06,99509.0,1.1823316
19519538,152.30066,23.06,99509.0,1.1823316
19532941,152.72343,23.06,99504.0,1.1822721
19544777,152.38785,23.06,99507.99,1.1823195
19568122,152.38785,23.06,99507.99,1.1823195
19580363,152.63887,23.06,99505.0,1.182284
19592021,152.55432,23.06,99506.0,1.1822959
19617260,152.30066,23.06,99509.0,1.1823316
19628539,152.46976,23.06,99507.0,1.1823077
19639916,152.72343,23.06,99504.0,1.1822721
19662168,152.9771,23.06,99500.99,1.1822364
19675413,151.96243,23.06,99513.0,1.182379
19686179,152.55432,23.06,99506.0,1.1822959
19709259,152.72343,23.06,99504.0,1.1822721
19721174,152.72343,23.06,99504.0,1.1822721
19733204,152.55432,23.06,99506.0,1.1822959
19756300,152.38785,23.06,99507.99,1.1823195
19768139,152.55432,23.06,99506.0,1.1822959
19780157,152.72343,23.06,99504.0,1.1822721
19803555,152.2161,23.06,99510.0,1.1823434
19815620,152.46976,23.06,99507.0,1.1823077
19826779,152.63887,23.06,99505.0,1.182284
19848785,152.2161,23.06,99510.0,1.1823434
19860246,152.13155,23.06,99511.0,1.1823553
19872280,152.55432,23.06,99506.0,1.1822959
19895245,152.80798,23.06,99503.0,1.1822603
19906872,152.55432,23.06,99506.0,1.1822959
19917941,152.80798,23.06,99503.0,1.1822603
19940265,152.38785,23.07,99507.99,1.1823195
19952163,152.55432,23.07,99506.0,1.1822959
19963261,152.55432,23.07,99506.0,1.1822959
19986980,151.62422,23.07,99517.0,1.1824266
19998011,152.30066,23.07,99509.0,1.1823316
20010792,152.89253,23.07,99501.99,1.1822482
20034856,152.30066,23.07,99509.0,1.1823316
20045995,152.9771,23.07,99500.99,1.1822364
20056329,152.30066,23.07,99509.0,1.1823316
20080282,152.2161,23.07,99510.0,1.1823434
20091253,153.06165,23.07,99500.0,1.1822246
20103730,152.2161,23.07,99510.0,1.1823434
20126009,152.38785,23.07,99507.99,1.1823195
20138811,151.88052,23.07,99513.99,1.1823908
20149986,152.46976,23.07,99507.0,1.1823077
20174021,152.63887,23.07,99505.0,1.182284
20186639,152.72343,23.07,99504.0,1.1822721
20198039,152.63887,23.07,99505.0,1.182284
20222190,152.38785,23.07,99507.99,1.1823195
20234468,152.2161,23.07,99510.0,1.1823434
20246047,152.38785,23.07,99507.99,1.1823195
20270217,152.30066,23.07,99509.0,1.1823316
20282601,152.55432,23.07,99506.0,1.1822959
20293922,152.72343,23.07,99504.0,1.1822721
20318049,152.46976,23.07,99507.0,1.1823077
20331237,152.46976,23.07,99507.0,1.1823077
20343363,152.46976,23.07,99507.0,1.1823077
20367316,152.80798,23.07,99503.0,1.1822603
20379313,152.55432,23.07,99506.0,1.1822959
20391279,152.55432,23.07,99506.0,1.1822959
20414321,152.46976,23.07,99507.0,1.1823077
20427769,152.38785,23.07,99507.99,1.1823195
20438292,152.2161,23.07,99510.0,1.1823434
20464576,152.55432,23.07,99506.0,1.1822959
20476439,152.30066,23.07,99509.0,1.1823316
20487743,152.30066,23.07,99509.0,1.1823316
20512347,152.30066,23.07,99509.0,1.1823316
20524091,152.30066,23.07,99509.0,1.1823316
20536847,152.46976,23.07,99507.0,1.1823077
20560446,152.46976,23.07,99507.0,1.1823077
20572089,152.55432,23.07,99506.0,1.1822959
20584611,152.55432,23.07,99506.0,1.1822959
20609620,152.2161,23.07,99510.0,1.1823434
20621516,152.13155,23.07,99511.0,1.1823553
20633640,152.72343,23.07,99504.0,1.1822721
20656731,152.2161,23.07,99510.0,1.1823434
20668199,152.38785,23.07,99507.99,1.1823195
20680392,152.63887,23.07,99505.0,1.182284
20704560,152.55432,23.08,99506.0,1.1822959
20716432,152.30066,23.08,99509.0,1.1823316
20728806,152.46976,23.08,99507.0,1.1823077
20751325,152.63887,23.08,99505.0,1.182284
20763765,152.55432,23.08,99506.0,1.1822959
20775269,152.55432,23.08,99506.0,1.1822959
20799241,152.13155,23.08,99511.0,1.1823553
20810168,152.04964,23.08,99512.0,1.1823672
20821761,152.55432,23.08,99506.0,1.1822959
20845654,152.2161,23.08,99510.0,1.1823434
20857210,152.46976,23.08,99507.0,1.1823077
20869729,152.38785,23.08,99507.99,1.1823195
20893873,152.89253,23.08,99501.99,1.1822482
20905218,152.30066,23.08,99509.0,1.1823316
20916819,152.55432,23.08,99506.0,1.1822959
20939553,152.72343,23.08,99504.0,1.1822721
20951267,152.46976,23.08,99507.0,1.1823077
20963767,152.38785,23.08,99507.99,1.1823195
20985181,152.30066,23.08,99509.0,1.1823316
20997345,152.13155,23.08,99511.0,1.1823553
21008434,152.46976,23.08,99507.0,1.1823077
21032534,152.38785,23.08,99507.99,1.1823195
21043569,152.30066,23.08,99509.0,1.1823316
21055353,152.55432,23.08,99506.0,1.1822959
21078498,152.2161,23.08,99510.0,1.1823434
21089183,153.06165,23.08,99500.0,1.1822246
21101154,152.46976,23.08,99507.0,1.1823077
21125230,152.55432,23.09,99506.0,1.1822959
21136322,152.89253,23.09,99501.99,1.1822482
21148043,152.2161,23.09,99510.0,1.1823434
21172400,152.2161,23.09,99510.0,1.1823434
21183648,152.38785,23.09,99507.99,1.1823195
21194812,152.30066,23.09,99509.0,1.1823316
21219132,152.55432,23.09,99506.0,1.1822959
21231639,152.2161,23.09,99510.0,1.1823434
21243139,152.38785,23.09,99507.99,1.1823195
21267214,152.72343,23.09,99504.0,1.1822721
21278505,152.2161,23.09,99510.0,1.1823434
21291241,152.30066,23.09,99509.0,1.1823316
21315191,152.30066,23.09,99509.0,1.1823316
21327761,152.80798,23.09,99503.0,1.1822603
21339173,152.72343,23.09,99504.0,1.1822721
21362478,151.88052,23.09,99513.99,1.1823908
21374797,151.88052,23.09,99513.99,1.1823908
21387311,152.63887,23.09,99505.0,1.182284
21411261,152.63887,23.08,99505.0,1.182284
21422861,152.04964,23.08,99512.0,1.1823672
21435123,152.55432,23.08,99506.0,1.1822959
21459273,152.72343,23.08,99504.0,1.1822721
21470777,152.04964,23.08,99512.0,1.1823672
21483134,152.72343,23.08,99504.0,1.1822721
21507344,152.30066,23.08,99509.0,1.1823316
21518972,152.38785,23.08,99507.99,1.1823195
21530035,152.30066,23.08,99509.0,1.1823316
21553982,152.30066,23.09,99509.0,1.1823316
21565739,152.80798,23.09,99503.0,1.1822603
21578032,152.46976,23.09,99507.0,1.1823077
21603120,152.2161,23.09,99510.0,1.1823434
21615255,152.55432,23.09,99506.0,1.1822959
21627290,152.55432,23.09,99506.0,1.1822959
21650321,152.38785,23.09,99507.99,1.1823195
21662484,152.46976,23.09,99507.0,1.1823077
21674351,152.46976,23.09,99507.0,1.1823077
21698129,152.63887,23.09,99505.0,1.182284
21710406,152.72343,23.09,99504.0,1.1822721
21722341,152.55432,23.09,99506.0,1.1822959
21745983,152.46976,23.09,99507.0,1.1823077
21757271,152.55432,23.09,99506.0,1.1822959
21770006,152.13155,23.09,99511.0,1.1823553
21794757,152.2161,23.09,99510.0,1.1823434
21807336,152.30066,23.09,99509.0,1.1823316
21819341,152.04964,23.09,99512.0,1.1823672
21842162,152.38785,23.09,99507.99,1.1823195
21854948,152.55432,23.09,99506.0,1.1822959
21866372,152.30066,23.09,99509.0,1.1823316
21891293,152.30066,23.09,99509.0,1.1823316
21903286,152.55432,23.09,99506.0,1.1822959
21914180,152.30066,23.09,99509.0,1.1823316
21938060,152.46976,23.09,99507.0,1.1823077
21950973,152.2161,23.09,99510.0,1.1823434
21962384,152.30066,23.09,99509.0,1.1823316
21985210,152.13155,23.09,99511.0,1.1823553
21997049,152.63887,23.09,99505.0,1.182284
22009157,152.63887,23.09,99505.0,1.182284
22034172,152.30066,23.09,99509.0,1.1823316
22046444,152.46976,23.09,99507.0,1.1823077
22058342,152.80798,23.09,99503.0,1.1822603
22081241,152.55432,23.09,99506.0,1.1822959
22094320,152.13155,23.09,99511.0,1.1823553
22106452,152.38785,23.09,99507.99,1.1823195
22130184,152.55432,23.1,99506.0,1.1822959
22142051,152.63887,23.1,99505.0,1.182284
22153343,152.46976,23.1,99507.0,1.1823077
22177250,152.55432,23.1,99506.0,1.1822959
22190281,152.13155,23.1,99511.0,1.1823553
22202322,152.46976,23.1,99507.0,1.1823077
22226382,152.38785,23.09,99507.99,1.1823195
22238313,152.55432,23.09,99506.0,1.1822959
22250395,152.55432,23.09,99506.0,1.1822959
22274476,152.38785,23.1,99507.99,1.1823195
22285189,152.38785,23.1,99507.99,1.1823195
22297530,152.13155,23.1,99511.0,1.1823553
22321175,152.30066,23.1,99509.0,1.1823316
22333215,152.2161,23.1,99510.0,1.1823434
22344883,152.72343,23.1,99504.0,1.1822721
22367636,152.80798,23.1,99503.0,1.1822603
22379333,152.63887,23.1,99505.0,1.182284
22391583,152.2161,23.1,99510.0,1.1823434
22415576,152.46976,23.1,99507.0,1.1823077
22426168,152.13155,23.1,99511.0,1.1823553
22439536,152.46976,23.1,99507.0,1.1823077
22463590,152.13155,23.1,99511.0,1.1823553
22474192,152.80798,23.1,99503.0,1.1822603
22487604,152.46976,23.1,99507.0,1.1823077
22511998,152.72343,23.1,99504.0,1.1822721
22522171,152.2161,23.1,99510.0,1.1823434
22533163,152.46976,23.1,99507.0,1.1823077
22557212,152.80798,23.109999,99503.0,1.1822603
22569668,152.2161,23.109999,99510.0,1.1823434
22580290,152.63887,23.109999,99505.0,1.182284
22604314,152.30066,23.109999,99509.0,1.1823316
22616771,152.13155,23.109999,99511.0,1.1823553
22628293,152.2161,23.109999,99510.0,1.1823434
22652292,152.63887,23.1,99505.0,1.182284
22664075,152.63887,23.1,99505.0,1.182284
22675553,152.46976,23.1,99507.0,1.1823077
22698545,152.30066,23.1,99509.0,1.1823316
22709239,152.38785,23.1,99507.99,1.1823195
22721158,152.89253,23.1,99501.99,1.1822482
22745217,152.13155,23.1,99511.0,1.1823553
22756163,152.55432,23.1,99506.0,1.1822959
22768166,152.63887,23.1,99505.0,1.182284
22790770,152.55432,23.109999,99506.0,1.1822959
22801203,152.30066,23.109999,99509.0,1.1823316
22813171,152.46976,23.109999,99507.0,1.1823077
22837208,152.80798,23.109999,99503.0,1.1822603
22849203,152.46976,23.109999,99507.0,1.1823077
22862050,152.38785,23.109999,99507.99,1.1823195
22886004,152.38785,23.109999,99507.99,1.1823195
22897688,152.2161,23.109999,99510.0,1.1823434
22909962,152.89253,23.109999,99501.99,1.1822482
22934011,152.2161,23.109999,99510.0,1.1823434
22946977,152.46976,23.109999,99507.0,1.1823077
22959222,152.46976,23.109999,99507.0,1.1823077
22981997,152.72343,23.1,99504.0,1.1822721
22993746,152.63887,23.1,99505.0,1.182284
23006474,152.89253,23.1,99501.99,1.1822482
23030317,152.80798,23.109999,99503.0,1.1822603
23041677,152.63887,23.109999,99505.0,1.182284
23054365,152.46976,23.109999,99507.0,1.1823077
23079346,152.13155,23.109999,99511.0,1.1823553
23090801,152.46976,23.109999,99507.0,1.1823077
23103515,152.55432,23.109999,99506.0,1.1822959
23127524,152.46976,23.1,99507.0,1.1823077
23138863,152.38785,23.1,99507.99,1.1823195
23150435,152.89253,23.1,99501.99,1.1822482
23174661,152.30066,23.109999,99509.0,1.1823316
23186057,152.46976,23.109999,99507.0,1.1823077
23198843,152.46976,23.109999,99507.0,1.1823077
23221649,152.30066,23.109999,99509.0,1.1823316
23233987,152.80798,23.109999,99503.0,1.1822603
23246716,152.72343,23.109999,99504.0,1.1822721
23270683,152.30066,23.109999,99509.0,1.1823316
23282028,152.30066,23.109999,99509.0,1.1823316
23294763,152.55432,23.109999,99506.0,1.1822959
23317601,152.30066,23.109999,99509.0,1.1823316
23330016,152.13155,23.109999,99511.0,1.1823553
23342787,152.55432,23.109999,99506.0,1.1822959
23366954,152.38785,23.109999,99507.99,1.1823195
23378201,152.55432,23.109999,99506.0,1.1822959
23390965,152.63887,23.109999,99505.0,1.182284
23414813,152.2161,23.109999,99510.0,1.1823434
23426396,152.2161,23.109999,99510.0,1.1823434
23438870,152.46976,23.109999,99507.0,1.1823077
23461329,152.2161,23.109999,99510.0,1.1823434
23473363,152.55432,23.109999,99506.0,1.1822959
23485511,152.89253,23.109999,99501.99,1.1822482
23507618,152.30066,23.119999,99509.0,1.1823316
23518168,152.72343,23.119999,99504.0,1.1822721
23530394,152.55432,23.119999,99506.0,1.1822959
23554319,152.46976,23.109999,99507.0,1.1823077
23566182,152.63887,23.109999,99505.0,1.182284
23577224,152.38785,23.109999,99507.99,1.1823195
23600113,152.55432,23.119999,99506.0,1.1822959
23612443,152.9771,23.119999,99500.99,1.1822364
23624087,152.72343,23.119999,99504.0,1.1822721
23648095,152.2161,23.119999,99510.0,1.1823434
23660709,152.46976,23.119999,99507.0,1.1823077
23672191,152.55432,23.119999,99506.0,1.1822959
23697210,152.80798,23.119999,99503.0,1.1822603
23709247,152.2161,23.119999,99510.0,1.1823434
23720194,152.72343,23.119999,99504.0,1.1822721
23744412,152.55432,23.119999,99506.0,1.1822959
23757040,152.30066,23.119999,99509.0,1.1823316
23769292,152.72343,23.119999,99504.0,1.1822721
23793203,152.2161,23.119999,99510.0,1.1823434
23805492,152.30066,23.119999,99509.0,1.1823316
23817212,152.80798,23.119999,99503.0,1.1822603
23840827,152.04964,23.119999,99512.0,1.1823672
23852246,152.46976,23.119999,99507.0,1.1823077
23863323,152.80798,23.119999,99503.0,1.1822603
23887399,152.30066,23.119999,99509.0,1.1823316
23898421,152.63887,23.119999,99505.0,1.182284
23911346,152.2161,23.119999,99510.0,1.1823434
23934163,152.46976,23.119999,99507.0,1.1823077
23945204,153.3153,23.119999,99497.0,1.182189
23956866,152.46976,23.119999,99507.0,1.1823077
23979947,152.38785,23.119999,99507.99,1.1823195
23991279,152.38785,23.119999,99507.99,1.1823195
24003989,152.55432,23.119999,99506.0,1.1822959
24027659,152.55432,23.119999,99506.0,1.1822959
24039260,152.46976,23.119999,99507.0,1.1823077
24051628,152.55432,23.119999,99506.0,1.1822959
24074750,152.46976,23.119999,99507.0,1.1823077
24085251,152.46976,23.119999,99507.0,1.1823077
24096181,152.55432,23.119999,99506.0,1.1822959
24120127,152.46976,23.13,99507.0,1.1823077
24132201,152.30066,23.13,99509.0,1.1823316
24144164,152.30066,23.13,99509.0,1.1823316
24167786,152.13155,23.13,99511.0,1.1823553
24178772,152.13155,23.13,99511.0,1.1823553
24190480,152.38785,23.13,99507.99,1.1823195
24214823,152.72343,23.13,99504.0,1.1822721
24226805,152.04964,23.13,99512.0,1.1823672
24237209,152.46976,23.13,99507.0,1.1823077
24261213,152.13155,23.13,99511.0,1.1823553
24273156,152.2161,23.13,99510.0,1.1823434
24285202,152.63887,23.13,99505.0,1.182284
24309224,152.30066,23.13,99509.0,1.1823316
24320274,152.72343,23.13,99504.0,1.1822721
24332294,152.72343,23.13,99504.0,1.1822721
24354792,152.38785,23.13,99507.99,1.1823195
24365158,152.2161,23.13,99510.0,1.1823434
24377240,152.80798,23.13,99503.0,1.1822603
24402176,152.63887,23.13,99505.0,1.182284
24414988,152.46976,23.13,99507.0,1.1823077
24426022,152.30066,23.13,99509.0,1.1823316
24450162,152.72343,23.13,99504.0,1.1822721
24461714,152.30066,23.13,99509.0,1.1823316
24474212,152.63887,23.13,99505.0,1.182284
24499295,152.38785,23.13,99507.99,1.1823195
24510801,152.63887,23.13,99505.0,1.182284
24523233,152.55432,23.13,99506.0,1.1822959
24545937,152.30066,23.13,99509.0,1.1823316
24556318,152.55432,23.13,99506.0,1.1822959
24568150,153.06165,23.13,99500.0,1.1822246
24591298,152.72343,23.13,99504.0,1.1822721
24603318,152.04964,23.13,99512.0,1.1823672
24614962,152.55432,23.13,99506.0,1.1822959
24638841,152.13155,23.13,99511.0,1.1823553
24649919,152.80798,23.13,99503.0,1.1822603
24660189,152.30066,23.13,99509.0,1.1823316
24684339,152.30066,23.13,99509.0,1.1823316
24695227,152.2161,23.13,99510.0,1.1823434
24707781,152.63887,23.13,99505.0,1.182284
24730411,152.38785,23.14,99507.99,1.1823195
24742126,152.46976,23.14,99507.0,1.1823077
24754463,152.46976,23.14,99507.0,1.1823077
24778430,152.72343,23.14,99504.0,1.1822721
24790211,152.63887,23.14,99505.0,1.182284
24802522,152.2161,23.14,99510.0,1.1823434
24826681,152.55432,23.13,99506.0,1.1822959
24838160,152.30066,23.13,99509.0,1.1823316
24850718,152.80798,23.13,99503.0,1.1822603
24874716,152.30066,23.14,99509.0,1.1823316
24885991,152.13155,23.14,99511.0,1.1823553
24897624,152.46976,23.14,99507.0,1.1823077
24922460,152.13155,23.14,99511.0,1.1823553
24934187,152.2161,23.14,99510.0,1.1823434
24946471,152.2161,23.14,99510.0,1.1823434
24970428,152.55432,23.14,99506.0,1.1822959
24982681,151.96243,23.14,99513.0,1.182379
24994225,152.38785,23.14,99507.99,1.1823195
25018405,152.55432,23.13,99506.0,1.1822959
25030169,152.55432,23.13,99506.0,1.1822959
25041645,152.89253,23.13,99501.99,1.1822482
25064452,152.2161,23.13,99510.0,1.1823434
25076034,152.80798,23.13,99503.0,1.1822603
25089571,152.55432,23.13,99506.0,1.1822959
25112445,152.46976,23.14,99507.0,1.1823077
25124592,152.2161,23.14,99510.0,1.1823434
25136423,152.55432,23.14,99506.0,1.1822959
25160402,152.55432,23.14,99506.0,1.1822959
25172057,152.2161,23.14,99510.0,1.1823434
25184393,152.13155,23.14,99511.0,1.1823553
25208459,152.30066,23.14,99509.0,1.1823316
25220355,152.80798,23.14,99503.0,1.1822603
25232451,152.13155,23.14,99511.0,1.1823553
25256569,152.63887,23.14,99505.0,1.182284
25268461,152.63887,23.14,99505.0,1.182284
25280378,152.30066,23.14,99509.0,1.1823316
25303537,152.2161,23.14,99510.0,1.1823434
25315287,152.46976,23.14,99507.0,1.1823077
25326175,152.72343,23.14,99504.0,1.1822721
25351755,152.63887,23.14,99505.0,1.182284
25363261,151.79333,23.14,99515.0,1.1824028
25375602,152.2161,23.14,99510.0,1.1823434
25397235,152.30066,23.14,99509.0,1.1823316
25408833,152.2161,23.14,99510.0,1.1823434
25420367,152.46976,23.14,99507.0,1.1823077
25443250,152.38785,23.15,99507.99,1.1823195
25455577,152.38785,23.15,99507.99,1.1823195
25467254,152.63887,23.15,99505.0,1.182284
25490163,152.38785,23.15,99507.99,1.1823195
25501211,152.2161,23.15,99510.0,1.1823434
25512853,152.72343,23.15,99504.0,1.1822721
25536304,152.38785,23.14,99507.99,1.1823195
25547432,152.63887,23.14,99505.0,1.182284
25559624,152.38785,23.14,99507.99,1.1823195
25581371,152.38785,23.14,99507.99,1.1823195
25593152,152.55432,23.14,99506.0,1.1822959
25604192,152.9771,23.14,99500.99,1.1822364
