timestamp,vel_pos_innov[0],vel_pos_innov[1],vel_pos_innov[2],vel_pos_innov[3],vel_pos_innov[4],vel_pos_innov[5],mag_innov[0],mag_innov[1],mag_innov[2],heading_innov,airspeed_innov,beta_innov,flow_innov[0],flow_innov[1],hagl_innov,vel_pos_innov_var[0],vel_pos_innov_var[1],vel_pos_innov_var[2],vel_pos_innov_var[3],vel_pos_innov_var[4],vel_pos_innov_var[5],mag_innov_var[0],mag_innov_var[1],mag_innov_var[2],heading_innov_var,airspeed_innov_var,beta_innov_var,flow_innov_var[0],flow_innov_var[1],hagl_innov_var,output_tracking_error[0],output_tracking_error[1],output_tracking_error[2],drag_innov[0],drag_innov[1],drag_innov_var[0],drag_innov_var[1],aux_vel_innov[0],aux_vel_innov[1]
4501488,0.0,0.0,0.0,0.00080409565,-7.217597e-05,0.120147705,0.0,0.0,0.0,-0.0022019148,0.0,0.0,0.0,0.0,0.0,0.0,0.0,0.0,0.2858436,0.28584254,4.193764,0.0,0.0,0.0,0.09413608,0.0,0.0,0.0,0.0,0.0,0.015165176,0.001945599,0.0021742638,0.0,0.0,0.0,0.0,0.0,0.0
4512675,0.0,0.0,0.0,0.00080409565,-7.217597e-05,0.120147705,0.0,0.0,0.0,-0.06439209,0.0,0.0,0.0,0.0,0.0,0.0,0.0,0.0,0.2858436,0.28584254,4.193764,0.0,0.0,0.0,0.094058536,0.0,0.0,0.0,0.0,0.0,0.012337188,0.0017395937,0.0019977817,0.0,0.0,0.0,0.0,0.0,0.0
4712664,0.0,0.0,0.0,0.0015253132,-0.0003349846,0.13926697,0.0,0.0,0.0,0.010401726,0.0,0.0,0.0,0.0,0.0,0.0,0.0,0.0,0.2817463,0.28174314,4.191571,0.0,0.0,0.0,0.09404857,0.0,0.0,0.0,0.0,0.0,0.004158057,0.034869697,0.035448927,0.0,0.0,0.0,0.0,0.0,0.0
4915899,0.0,0.0,0.0,0.0023744968,-0.00054475357,-0.48294067,0.0,0.0,0.0,-0.059162736,0.0,0.0,0.0,0.0,0.0,0.0,0.0,0.0,0.2817381,0.28173238,4.1920633,0.0,0.0,0.0,0.09406735,0.0,0.0,0.0,0.0,0.0,0.0012562217,0.0218975,0.012945907,0.0,0.0,0.0,0.0,0.0,0.0
5123863,0.0,0.0,0.0,0.0026929565,-0.0007977015,0.02041626,0.0,0.0,0.0,0.07563722,0.0,0.0,0.0,0.0,0.0,0.0,0.0,0.0,0.28274605,0.28273922,4.189793,0.0,0.0,0.0,0.09398307,0.0,0.0,0.0,0.0,0.0,0.0038610888,0.009490089,0.00465142,0.0,0.0,0.0,0.0,0.0,0.0
5327064,0.0,0.0,0.0,0.002769987,-0.0009376599,-0.26210022,0.0,0.0,0.0,0.0012898445,0.0,0.0,0.0,0.0,0.0,0.0,0.0,0.0,0.28292504,0.28291902,4.184941,0.0,0.0,0.0,0.09396706,0.0,0.0,0.0,0.0,0.0,0.008213787,0.018139074,0.013902854,0.0,0.0,0.0,0.0,0.0,0.0
5530287,0.0,0.0,0.0,0.0027564443,-0.0009333382,-0.021774292,0.0,0.0,0.0,-0.026770353,0.0,0.0,0.0,0.0,0.0,0.0,0.0,0.0,0.28240946,0.28240427,4.1785793,0.0,0.0,0.0,0.093781,0.0,0.0,0.0,0.0,0.0,0.0021521284,0.022614531,0.024202414,0.0,0.0,0.0,0.0,0.0,0.0
5730264,0.0,0.0,0.0,0.0025984403,-0.0008979185,-0.1894226,0.0,0.0,0.0,0.0563972,0.0,0.0,0.0,0.0,0.0,0.0,0.0,0.0,0.2805296,0.2805253,4.1701756,0.0,0.0,0.0,0.09366217,0.0,0.0,0.0,0.0,0.0,0.0062998002,0.011952876,0.007992479,0.0,0.0,0.0,0.0,0.0,0.0
5929469,0.0,0.0,0.0,0.0027275616,-0.0011262764,-0.1490326,0.0,0.0,0.0,0.0055788755,0.0,0.0,0.0,0.0,0.0,0.0,0.0,0.0,0.28066677,0.2806626,4.165896,0.0,0.0,0.0,0.09348363,0.0,0.0,0.0,0.0,0.0,0.0024550958,0.0091170985,0.006174228,0.0,0.0,0.0,0.0,0.0,0.0
6136663,0.0,0.0,0.0,0.002659554,-0.0012676654,0.077056885,0.0,0.0,0.0,0.08041954,0.0,0.0,0.0,0.0,0.0,0.0,0.0,0.0,0.27957553,0.27957162,4.1591625,0.0,0.0,0.0,0.093305536,0.0,0.0,0.0,0.0,0.0,0.0025025816,0.017995,0.024803642,0.0,0.0,0.0,0.0,0.0,0.0
6336670,0.0,0.0,0.0,0.0023388623,-0.0011909237,0.06826782,0.0,0.0,0.0,-0.06710625,0.0,0.0,0.0,0.0,0.0,0.0,0.0,0.0,0.2786541,0.27865034,4.153323,0.0,0.0,0.0,0.09314531,0.0,0.0,0.0,0.0,0.0,0.0016353915,0.04666696,0.07091985,0.0,0.0,0.0,0.0,0.0,0.0
6543863,0.0,0.0,0.0,0.001911149,-0.0010554083,0.08517456,0.0,0.0,0.0,-0.0157094,0.0,0.0,0.0,0.0,0.0,0.0,0.0,0.0,0.27803865,0.27803516,4.148791,0.0,0.0,0.0,0.09296721,0.0,0.0,0.0,0.0,0.0,0.0021819929,0.042225808,0.07051575,0.0,0.0,0.0,0.0,0.0,0.0
6743073,0.0,0.0,0.0,0.0015948788,-0.0009905258,0.06199646,0.0,0.0,0.0,0.08905649,0.0,0.0,0.0,0.0,0.0,0.0,0.0,0.0,0.27722776,0.27722466,4.1452217,0.0,0.0,0.0,0.09282175,0.0,0.0,0.0,0.0,0.0,0.0013872227,0.01168628,0.02826904,0.0,0.0,0.0,0.0,0.0,0.0
6951106,0.0,0.0,0.0,0.0012400297,-0.0010657127,0.40434265,0.0,0.0,0.0,0.0067903996,0.0,0.0,0.0,0.0,0.0,0.0,0.0,0.0,0.27639288,0.2763903,4.142328,0.0,0.0,0.0,0.09266535,0.0,0.0,0.0,0.0,0.0,0.003436034,0.013669499,0.027325658,0.0,0.0,0.0,0.0,0.0,0.0
7154264,0.0,0.0,0.0,0.0009997867,-0.0011519138,0.034439087,0.0,0.0,0.0,-0.010049462,0.0,0.0,0.0,0.0,0.0,0.0,0.0,0.0,0.27618882,0.27618673,4.1418476,0.0,0.0,0.0,0.09256746,0.0,0.0,0.0,0.0,0.0,0.00775565,0.005525036,0.0021249696,0.0,0.0,0.0,0.0,0.0,0.0
7353464,0.0,0.0,0.0,0.00081405014,-0.0010654891,0.5731964,0.0,0.0,0.0,-0.09915078,0.0,0.0,0.0,0.0,0.0,0.0,0.0,0.0,0.27471238,0.2747109,4.139354,0.0,0.0,0.0,0.09241127,0.0,0.0,0.0,0.0,0.0,0.012604313,0.020104837,0.029988324,0.0,0.0,0.0,0.0,0.0,0.0
7553475,0.0,0.0,0.0,0.00065589516,-0.0009626215,-0.035064697,0.0,0.0,0.0,-0.03635931,0.0,0.0,0.0,0.0,0.0,0.0,0.0,0.0,0.2739026,0.27390143,4.1382236,0.0,0.0,0.0,0.09228751,0.0,0.0,0.0,0.0,0.0,0.011950049,0.008465319,0.013394107,0.0,0.0,0.0,0.0,0.0,0.0
7760671,0.0,0.0,0.0,0.0005175932,-0.0008362086,-0.4804535,0.0,0.0,0.0,-0.021044374,0.0,0.0,0.0,0.0,0.0,0.0,0.0,0.0,0.2724177,0.27241692,4.1361294,0.0,0.0,0.0,0.09216144,0.0,0.0,0.0,0.0,0.0,0.005180481,0.007583181,0.012208397,0.0,0.0,0.0,0.0,0.0,0.0
7959873,0.0,0.0,0.0,0.0004050356,-0.00073921995,0.35888672,0.0,0.0,0.0,0.02246797,0.0,0.0,0.0,0.0,0.0,0.0,0.0,0.0,0.27170134,0.27170077,4.1354885,0.0,0.0,0.0,0.09207159,0.0,0.0,0.0,0.0,0.0,0.00088393106,0.019500267,0.029162038,0.0,0.0,0.0,0.0,0.0,0.0
8167864,0.0,0.0,0.0,0.0001190033,-0.0006567908,0.019729614,0.0,0.0,0.0,0.008347392,0.0,0.0,0.0,0.0,0.0,0.0,0.0,0.0,0.27195343,0.27195293,4.137882,0.0,0.0,0.0,0.09199853,0.0,0.0,0.0,0.0,0.0,0.0010964671,0.004462186,0.005107131,0.0,0.0,0.0,0.0,0.0,0.0
8371099,0.0,0.0,0.0,-0.0001385027,-0.00044714948,0.062057495,0.0,0.0,0.0,0.04822755,0.0,0.0,0.0,0.0,0.0,0.0,0.0,0.0,0.27084133,0.27084094,4.136647,0.0,0.0,0.0,0.091900215,0.0,0.0,0.0,0.0,0.0,0.0082197925,0.015788913,0.023858221,0.0,0.0,0.0,0.0,0.0,0.0
8570270,0.0,0.0,0.0,-0.00047386484,-0.00052486884,-0.028152466,0.0,0.0,0.0,0.10386753,0.0,0.0,0.0,0.0,0.0,0.0,0.0,0.0,100.03096,100.03095,4.135885,0.0,0.0,0.0,0.09617898,0.0,0.0,0.0,0.0,0.0,0.011625846,0.0045504877,0.0045392504,0.0,0.0,0.0,0.0,0.0,0.0
8778264,0.0,0.0,0.0,-0.0007438992,-0.0007475466,-0.12464905,0.0,0.0,0.0,0.08791697,0.0,0.0,0.0,0.0,0.0,0.0,0.0,0.0,100.05166,100.05165,4.133869,0.0,0.0,0.0,0.09400297,0.0,0.0,0.0,0.0,0.0,0.021936905,0.006256036,0.00781768,0.0,0.0,0.0,0.0,0.0,0.0
8977469,0.0,0.0,0.0,-0.000986032,-0.00094589026,0.048446655,0.0,0.0,0.0,-0.012158513,0.0,0.0,0.0,0.0,0.0,0.0,0.0,0.0,100.078545,100.078545,4.133447,0.0,0.0,0.0,0.09297771,0.0,0.0,0.0,0.0,0.0,0.0126933325,0.00987166,0.015399569,0.0,0.0,0.0,0.0,0.0,0.0
9184717,0.0,0.0,0.0,-0.0012151393,-0.0011272118,0.31185913,0.0,0.0,0.0,0.026031733,0.0,0.0,0.0,0.0,0.0,0.0,0.0,0.0,100.11973,100.11973,4.131064,0.0,0.0,0.0,0.09239017,0.0,0.0,0.0,0.0,0.0,0.0021976945,0.011867477,0.020344893,0.0,0.0,0.0,0.0,0.0,0.0
9384698,0.0,0.0,0.0,-0.0014703021,-0.0012218184,0.09339905,0.0,0.0,0.0,-0.0038120747,0.0,0.0,0.0,0.0,0.0,0.0,0.0,0.0,100.17905,100.17904,4.1287026,0.0,0.0,0.0,0.09197743,0.0,0.0,0.0,0.0,0.0,0.00717192,0.0113349175,0.02037555,0.0,0.0,0.0,0.0,0.0,0.0
9587863,0.0,0.0,0.0,-0.0016757745,-0.0012228186,-0.2753601,0.0,0.0,0.0,0.016914606,0.0,0.0,0.0,0.0,0.0,0.0,0.0,0.0,100.25609,100.25608,4.127705,0.0,0.0,0.0,0.09173495,0.0,0.0,0.0,0.0,0.0,0.0059442967,0.022343164,0.03831725,0.0,0.0,0.0,0.0,0.0,0.0
9786319,0.0,0.0,0.0,-0.001802624,-0.0011216032,0.42099,0.0,0.0,0.0,-0.028354883,0.0,0.0,0.0,0.0,0.0,0.0,0.0,0.0,100.37156,100.37155,4.1255403,0.0,0.0,0.0,0.091567546,0.0,0.0,0.0,0.0,0.0,0.00020634176,0.013055358,0.02395122,0.0,0.0,0.0,0.0,0.0,0.0
9995070,0.0,0.0,0.0,-0.0018703804,-0.0009266021,0.027740479,0.0,0.0,0.0,0.08742714,0.0,0.0,0.0,0.0,0.0,0.0,0.0,0.0,100.52753,100.52752,4.1236005,0.0,0.0,0.0,0.091433294,0.0,0.0,0.0,0.0,0.0,0.0030848936,0.008866191,0.017131457,0.0,0.0,0.0,0.0,0.0,0.0
10194273,0.0,0.0,0.0,-0.002009781,-0.0007952565,0.1988678,0.0,0.0,0.0,-0.08079755,0.0,0.0,0.0,0.0,0.0,0.0,0.0,0.0,100.70297,100.70297,4.1219916,0.0,0.0,0.0,0.09135306,0.0,0.0,0.0,0.0,0.0,0.000982849,0.0064837723,0.011070347,0.0,0.0,0.0,0.0,0.0,0.0
10402285,0.0,0.0,0.0,-0.0021421374,-0.0006420974,0.14761353,0.0,0.0,0.0,0.03291762,0.0,0.0,0.0,0.0,0.0,0.0,0.0,0.0,100.93468,100.93467,4.119881,0.0,0.0,0.0,0.09130134,0.0,0.0,0.0,0.0,0.0,0.0026731994,0.006017533,0.0088386405,0.0,0.0,0.0,0.0,0.0,0.0
10605473,0.0,0.0,0.0,-0.0021724817,-0.0005847582,0.13752747,0.0,0.0,0.0,-0.004654646,0.0,0.0,0.0,0.0,0.0,0.0,0.0,0.0,101.15041,101.150406,4.1168337,0.0,0.0,0.0,0.091284856,0.0,0.0,0.0,0.0,0.0,0.0031049994,0.0037886787,0.003453614,0.0,0.0,0.0,0.0,0.0,0.0
10804664,0.0,0.0,0.0,-0.0019486429,-0.00037628107,0.0069122314,0.0,0.0,0.0,-0.05332589,0.0,0.0,0.0,0.0,0.0,0.0,0.0,0.0,101.40876,101.40875,4.114121,0.0,0.0,0.0,0.09127707,0.0,0.0,0.0,0.0,0.0,0.00033217057,0.0043431073,0.004858371,0.0,0.0,0.0,0.0,0.0,0.0
11003907,0.0,0.0,0.0,-0.0016531704,-0.00043159933,-0.010986328,0.0,0.0,0.0,-0.0037509203,0.0,0.0,0.0,0.0,0.0,0.0,0.0,0.0,101.64022,101.64021,4.112264,0.0,0.0,0.0,0.09127312,0.0,0.0,0.0,0.0,0.0,3.1643984e-05,0.015439584,0.02697414,0.0,0.0,0.0,0.0,0.0,0.0
11203870,0.0,0.0,0.0,-0.0012681298,-0.00044296097,-0.16685486,0.0,0.0,0.0,0.022103429,0.0,0.0,0.0,0.0,0.0,0.0,0.0,0.0,101.87171,101.871704,4.1112514,0.0,0.0,0.0,0.091273956,0.0,0.0,0.0,0.0,0.0,0.00039044733,0.015271995,0.028857572,0.0,0.0,0.0,0.0,0.0,0.0
11411092,0.0,0.0,0.0,-0.0009087833,-0.0006065834,0.43659973,0.0,0.0,0.0,0.00079357624,0.0,0.0,0.0,0.0,0.0,0.0,0.0,0.0,102.07508,102.07507,4.1089616,0.0,0.0,0.0,0.091255054,0.0,0.0,0.0,0.0,0.0,0.0012315436,0.003930746,0.006882368,0.0,0.0,0.0,0.0,0.0,0.0
11610264,0.0,0.0,0.0,-0.0006012991,-0.00075221027,-0.07444763,0.0,0.0,0.0,0.026177883,0.0,0.0,0.0,0.0,0.0,0.0,0.0,0.0,102.21521,102.21521,4.1068625,0.0,0.0,0.0,0.09125946,0.0,0.0,0.0,0.0,0.0,0.0021725562,0.004715527,0.008059781,0.0,0.0,0.0,0.0,0.0,0.0
11818283,0.0,0.0,0.0,-0.00015831518,-0.00091036415,-0.17385864,0.0,0.0,0.0,-0.029422283,0.0,0.0,0.0,0.0,0.0,0.0,0.0,0.0,102.308304,102.308304,4.1037726,0.0,0.0,0.0,0.09126739,0.0,0.0,0.0,0.0,0.0,0.00041453892,0.0015636177,0.002705903,0.0,0.0,0.0,0.0,0.0,0.0
12017464,0.0,0.0,0.0,0.0004131675,-0.0014668845,0.09365845,0.0,0.0,0.0,-0.08776593,0.0,0.0,0.0,0.0,0.0,0.0,0.0,0.0,102.36589,102.3659,4.101075,0.0,0.0,0.0,0.09125488,0.0,0.0,0.0,0.0,0.0,0.0036114724,0.002608124,0.0015327786,0.0,0.0,0.0,0.0,0.0,0.0
12218264,0.0,0.0,0.0,0.0010738882,-0.0016637105,-0.078689575,0.0,0.0,0.0,-0.012035966,0.0,0.0,0.0,0.0,0.0,0.0,0.0,0.0,102.40577,102.40577,4.099438,0.0,0.0,0.0,0.09124847,0.0,0.0,0.0,0.0,0.0,9.449239e-06,0.0022325197,0.0013310049,0.0,0.0,0.0,0.0,0.0,0.0
12424664,0.0,0.0,0.0,0.001922957,-0.002011365,0.037368774,0.0,0.0,0.0,-0.0039561987,0.0,0.0,0.0,0.0,0.0,0.0,0.0,0.0,102.40898,102.40898,4.0971055,0.0,0.0,0.0,0.091235906,0.0,0.0,0.0,0.0,0.0,0.001841632,0.009651873,0.018496465,0.0,0.0,0.0,0.0,0.0,0.0
12623913,0.0,0.0,0.0,0.002494898,-0.0022793002,0.11729431,0.0,0.0,0.0,0.025921345,0.0,0.0,0.0,0.0,0.0,0.0,0.0,0.0,102.40266,102.402664,4.095281,0.0,0.0,0.0,0.09122977,0.0,0.0,0.0,0.0,0.0,0.004131236,0.00078312866,0.000749131,0.0,0.0,0.0,0.0,0.0,0.0
12831082,0.0,0.0,0.0,0.002933294,-0.002413084,0.355011,0.0,0.0,0.0,-0.016143203,0.0,0.0,0.0,0.0,0.0,0.0,0.0,0.0,102.38603,102.38604,4.0937915,0.0,0.0,0.0,0.09121787,0.0,0.0,0.0,0.0,0.0,0.002528962,0.007571515,0.019270072,0.0,0.0,0.0,0.0,0.0,0.0
13031068,0.0,0.0,0.0,0.0034312604,-0.0025933124,0.13182068,0.0,0.0,0.0,-0.059809923,0.0,0.0,0.0,0.0,0.0,0.0,0.0,0.0,102.35623,102.35624,4.092134,0.0,0.0,0.0,0.09121515,0.0,0.0,0.0,0.0,0.0,0.0010197735,0.007298883,0.020025203,0.0,0.0,0.0,0.0,0.0,0.0
13230264,0.0,0.0,0.0,0.003878801,-0.0027254657,0.25741577,0.0,0.0,0.0,-0.055689692,0.0,0.0,0.0,0.0,0.0,0.0,0.0,0.0,102.32472,102.32473,4.0907326,0.0,0.0,0.0,0.09122095,0.0,0.0,0.0,0.0,0.0,0.0026036007,0.0047973213,0.01497809,0.0,0.0,0.0,0.0,0.0,0.0
13430291,0.0,0.0,0.0,0.004067481,-0.0028597082,-0.10823059,0.0,0.0,0.0,-0.08177626,0.0,0.0,0.0,0.0,0.0,0.0,0.0,0.0,102.26981,102.26982,4.088588,0.0,0.0,0.0,0.09119799,0.0,0.0,0.0,0.0,0.0,0.0041526007,0.006391782,0.01967399,0.0,0.0,0.0,0.0,0.0,0.0
13633468,0.0,0.0,0.0,0.00437201,-0.0031024062,-0.031951904,0.0,0.0,0.0,-0.017235875,0.0,0.0,0.0,0.0,0.0,0.0,0.0,0.0,102.22204,102.22205,4.086788,0.0,0.0,0.0,0.091181695,0.0,0.0,0.0,0.0,0.0,0.005493044,0.004221565,0.015455614,0.0,0.0,0.0,0.0,0.0,0.0
13841464,0.0,0.0,0.0,0.0047692535,-0.0034680802,0.14361572,0.0,0.0,0.0,-0.017074585,0.0,0.0,0.0,0.0,0.0,0.0,0.0,0.0,102.19217,102.19219,4.0856733,0.0,0.0,0.0,0.0911737,0.0,0.0,0.0,0.0,0.0,0.0015471859,0.0014472816,0.0011007981,0.0,0.0,0.0,0.0,0.0,0.0
14040664,0.0,0.0,0.0,0.004922794,-0.0037624454,0.20295715,0.0,0.0,0.0,0.012423158,0.0,0.0,0.0,0.0,0.0,0.0,0.0,0.0,102.16034,102.16036,4.084427,0.0,0.0,0.0,0.091156036,0.0,0.0,0.0,0.0,0.0,0.0005701713,0.0059840153,0.017837815,0.0,0.0,0.0,0.0,0.0,0.0
14247863,0.0,0.0,0.0,0.0051349355,-0.0041463324,0.1953125,0.0,0.0,0.0,0.031373143,0.0,0.0,0.0,0.0,0.0,0.0,0.0,0.0,102.11672,102.116745,4.0826197,0.0,0.0,0.0,0.091132276,0.0,0.0,0.0,0.0,0.0,0.0005730536,0.002323856,0.008939523,0.0,0.0,0.0,0.0,0.0,0.0
14447909,0.0,0.0,0.0,0.0054789586,-0.004473064,0.18838501,0.0,0.0,0.0,-0.017166495,0.0,0.0,0.0,0.0,0.0,0.0,0.0,0.0,102.092514,102.092545,4.081379,0.0,0.0,0.0,0.09112238,0.0,0.0,0.0,0.0,0.0,0.0009899265,0.0019655565,0.0023678115,0.0,0.0,0.0,0.0,0.0,0.0
14647864,0.0,0.0,0.0,0.0059762825,-0.004880021,-0.250885,0.0,0.0,0.0,0.02148223,0.0,0.0,0.0,0.0,0.0,0.0,0.0,0.0,102.08939,102.089424,4.0807652,0.0,0.0,0.0,0.091104284,0.0,0.0,0.0,0.0,0.0,0.0014894254,0.013722343,0.034182873,0.0,0.0,0.0,0.0,0.0,0.0
14846318,0.0,0.0,0.0,0.0063970336,-0.0052072597,0.05340576,0.0,0.0,0.0,0.00437057,0.0,0.0,0.0,0.0,0.0,0.0,0.0,0.0,102.07625,102.07629,4.0796,0.0,0.0,0.0,0.09108413,0.0,0.0,0.0,0.0,0.0,0.0008091531,0.009100649,0.024086135,0.0,0.0,0.0,0.0,0.0,0.0
15049473,0.0,0.0,0.0,0.0066478867,-0.005401771,-0.016204834,0.0,0.0,0.0,0.0054951906,0.0,0.0,0.0,0.0,0.0,0.0,0.0,0.0,102.07096,102.07099,4.0785127,0.0,0.0,0.0,0.09107527,0.0,0.0,0.0,0.0,0.0,0.0018095858,0.00050066685,0.0018964746,0.0,0.0,0.0,0.0,0.0,0.0
16067064,0.0,0.0,0.0,0.0074896775,-0.0063731084,0.18540955,0.0,0.0,0.0,0.0038620234,0.0,0.0,0.0,0.0,0.0,0.0,0.0,0.0,102.127686,102.12774,4.072166,0.0,0.0,0.0,0.09099495,0.0,0.0,0.0,0.0,0.0,0.00090440095,0.0034853872,0.009138691,0.0,0.0,0.0,0.0,0.0,0.0
16266347,0.0,0.0,0.0,0.0075608017,-0.006359566,0.05886841,0.0,0.0,0.0,0.023660064,0.0,0.0,0.0,0.0,0.0,0.0,0.0,0.0,102.16759,102.16763,4.0714064,0.0,0.0,0.0,0.09097968,0.0,0.0,0.0,0.0,0.0,8.749427e-05,0.0026793873,0.0070027946,0.0,0.0,0.0,0.0,0.0,0.0
16473470,0.0,0.0,0.0,0.0076149437,-0.0063008727,0.30465698,0.0,0.0,0.0,0.037012815,0.0,0.0,0.0,0.0,0.0,0.0,0.0,0.0,102.21447,102.21452,4.0705247,0.0,0.0,0.0,0.09095977,0.0,0.0,0.0,0.0,0.0,0.003286517,0.0007674729,0.003334581,0.0,0.0,0.0,0.0,0.0,0.0
16673470,0.0,0.0,0.0,0.007738506,-0.006181767,-0.12854004,0.0,0.0,0.0,-0.0057798624,0.0,0.0,0.0,0.0,0.0,0.0,0.0,0.0,102.25784,102.2579,4.0697517,0.0,0.0,0.0,0.09094778,0.0,0.0,0.0,0.0,0.0,0.0011058549,0.00086241553,0.0038212196,0.0,0.0,0.0,0.0,0.0,0.0
16872664,0.0,0.0,0.0,0.007877098,-0.005869046,0.023590088,0.0,0.0,0.0,-0.0848968,0.0,0.0,0.0,0.0,0.0,0.0,0.0,0.0,102.30921,102.309265,4.0689425,0.0,0.0,0.0,0.09093055,0.0,0.0,0.0,0.0,0.0,0.002040176,0.004499454,0.015377057,0.0,0.0,0.0,0.0,0.0,0.0
17072717,0.0,0.0,0.0,0.00797979,-0.005523107,-0.46157837,0.0,0.0,0.0,-0.012809396,0.0,0.0,0.0,0.0,0.0,0.0,0.0,0.0,102.351875,102.35193,4.0682044,0.0,0.0,0.0,0.09091627,0.0,0.0,0.0,0.0,0.0,0.0027075743,0.007050573,0.019812915,0.0,0.0,0.0,0.0,0.0,0.0
17279864,0.0,0.0,0.0,0.007870025,-0.0050905156,-0.118377686,0.0,0.0,0.0,-0.052824378,0.0,0.0,0.0,0.0,0.0,0.0,0.0,0.0,102.39925,102.39931,4.0674353,0.0,0.0,0.0,0.09089786,0.0,0.0,0.0,0.0,0.0,0.0020119036,0.0033409258,0.009499595,0.0,0.0,0.0,0.0,0.0,0.0
17479096,0.0,0.0,0.0,0.007787615,-0.0045720343,0.21525574,0.0,0.0,0.0,-0.011736512,0.0,0.0,0.0,0.0,0.0,0.0,0.0,0.0,102.43533,102.43539,4.0667315,0.0,0.0,0.0,0.090882055,0.0,0.0,0.0,0.0,0.0,0.0009853251,0.0010741935,0.0037683928,0.0,0.0,0.0,0.0,0.0,0.0
17679064,0.0,0.0,0.0,0.0076297866,-0.0039323363,0.042144775,0.0,0.0,0.0,0.10256183,0.0,0.0,0.0,0.0,0.0,0.0,0.0,0.0,102.46731,102.467354,4.0660515,0.0,0.0,0.0,0.09087706,0.0,0.0,0.0,0.0,0.0,0.0018498668,0.0003348077,0.0011744493,0.0,0.0,0.0,0.0,0.0,0.0
17886345,0.0,0.0,0.0,0.0073250397,-0.0030377822,-0.16246033,0.0,0.0,0.0,0.013378143,0.0,0.0,0.0,0.0,0.0,0.0,0.0,0.0,102.48011,102.480156,4.0650516,0.0,0.0,0.0,0.09085935,0.0,0.0,0.0,0.0,0.0,0.0020416118,0.0028467642,0.0078105084,0.0,0.0,0.0,0.0,0.0,0.0
18085464,0.0,0.0,0.0,0.006883599,-0.0019815892,0.13226318,0.0,0.0,0.0,0.0099931955,0.0,0.0,0.0,0.0,0.0,0.0,0.0,0.0,102.505394,102.50544,4.0643554,0.0,0.0,0.0,0.09084796,0.0,0.0,0.0,0.0,0.0,0.0007775666,0.00076184474,0.0015095617,0.0,0.0,0.0,0.0,0.0,0.0
18293463,0.0,0.0,0.0,0.0064947777,-0.00073439744,0.216568,0.0,0.0,0.0,0.054946303,0.0,0.0,0.0,0.0,0.0,0.0,0.0,0.0,102.50764,102.507675,4.0634375,0.0,0.0,0.0,0.09083875,0.0,0.0,0.0,0.0,0.0,0.0014175471,0.0005527253,0.0007953084,0.0,0.0,0.0,0.0,0.0,0.0
18496670,0.0,0.0,0.0,0.006194451,0.00041555878,0.025039673,0.0,0.0,0.0,0.035167933,0.0,0.0,0.0,0.0,0.0,0.0,0.0,0.0,102.507744,102.507774,4.0626984,0.0,0.0,0.0,0.09082196,0.0,0.0,0.0,0.0,0.0,0.00010340495,0.0035034528,0.012702616,0.0,0.0,0.0,0.0,0.0,0.0
18695864,0.0,0.0,0.0,0.0060256575,0.0019119921,0.54644775,0.0,0.0,0.0,-0.02303052,0.0,0.0,0.0,0.0,0.0,0.0,0.0,0.0,102.528076,102.52811,4.0622787,0.0,0.0,0.0,0.09080933,0.0,0.0,0.0,0.0,0.0,0.0009113012,0.001119078,0.0046534794,0.0,0.0,0.0,0.0,0.0,0.0
18895874,0.0,0.0,0.0,0.00580986,0.0030535792,-0.40216064,0.0,0.0,0.0,0.0055710077,0.0,0.0,0.0,0.0,0.0,0.0,0.0,0.0,102.531906,102.53194,4.0618067,0.0,0.0,0.0,0.09079532,0.0,0.0,0.0,0.0,0.0,0.00067830086,0.0009696197,0.003415438,0.0,0.0,0.0,0.0,0.0,0.0
19099082,0.0,0.0,0.0,0.005511401,0.0044551524,0.15370178,0.0,0.0,0.0,0.049804926,0.0,0.0,0.0,0.0,0.0,0.0,0.0,0.0,102.5194,102.51943,4.061149,0.0,0.0,0.0,0.09078521,0.0,0.0,0.0,0.0,0.0,0.0018972055,0.00097511575,0.0028217677,0.0,0.0,0.0,0.0,0.0,0.0
19298264,0.0,0.0,0.0,0.0051630135,0.0057491846,-0.11192322,0.0,0.0,0.0,-0.024937391,0.0,0.0,0.0,0.0,0.0,0.0,0.0,0.0,102.51696,102.51698,4.060759,0.0,0.0,0.0,0.09078328,0.0,0.0,0.0,0.0,0.0,7.358469e-05,0.0010630226,0.0025154161,0.0,0.0,0.0,0.0,0.0,0.0
19505464,0.0,0.0,0.0,0.0045774374,0.0072208466,-0.072128296,0.0,0.0,0.0,0.04106033,0.0,0.0,0.0,0.0,0.0,0.0,0.0,0.0,102.50685,102.50688,4.0603113,0.0,0.0,0.0,0.0907678,0.0,0.0,0.0,0.0,0.0,0.00040950705,0.0012551766,0.002517513,0.0,0.0,0.0,0.0,0.0,0.0
19702264,0.0,0.0,0.0,0.0038139168,0.008658253,0.271698,0.0,0.0,0.0,0.008533835,0.0,0.0,0.0,0.0,0.0,0.0,0.0,0.0,102.49181,102.49184,4.059903,0.0,0.0,0.0,0.090754606,0.0,0.0,0.0,0.0,0.0,0.00053737237,0.0020809039,0.006004906,0.0,0.0,0.0,0.0,0.0,0.0
19908698,0.0,0.0,0.0,0.0028911424,0.009612153,0.005569458,0.0,0.0,0.0,0.057052374,0.0,0.0,0.0,0.0,0.0,0.0,0.0,0.0,102.46707,102.46709,4.0594134,0.0,0.0,0.0,0.09074033,0.0,0.0,0.0,0.0,0.0,0.0012573666,0.0014859352,0.0034042716,0.0,0.0,0.0,0.0,0.0,0.0
20108687,0.0,0.0,0.0,0.002090397,0.010034524,0.12840271,0.0,0.0,0.0,-0.013915181,0.0,0.0,0.0,0.0,0.0,0.0,0.0,0.0,102.43097,102.430984,4.0588183,0.0,0.0,0.0,0.09072954,0.0,0.0,0.0,0.0,0.0,0.0018366014,0.0015162835,0.0037884526,0.0,0.0,0.0,0.0,0.0,0.0
20311863,0.0,0.0,0.0,0.0013568166,0.011925008,-0.60087585,0.0,0.0,0.0,-0.018549323,0.0,0.0,0.0,0.0,0.0,0.0,0.0,0.0,102.41518,102.41519,4.0585513,0.0,0.0,0.0,0.090719074,0.0,0.0,0.0,0.0,0.0,0.00089252996,0.0018772971,0.0045493506,0.0,0.0,0.0,0.0,0.0,0.0
20519064,0.0,0.0,0.0,5.4654065e-05,0.013526438,0.15913391,0.0,0.0,0.0,-0.17328262,0.0,0.0,0.0,0.0,0.0,0.0,0.0,0.0,102.38687,102.38689,4.0581546,0.0,0.0,0.0,0.09070609,0.0,0.0,0.0,0.0,0.0,0.002070396,0.0017419882,0.0038287325,0.0,0.0,0.0,0.0,0.0,0.0
20719070,0.0,0.0,0.0,-0.0013932004,0.014839063,-0.007247925,0.0,0.0,0.0,0.015802503,0.0,0.0,0.0,0.0,0.0,0.0,0.0,0.0,102.3845,102.38451,4.0582037,0.0,0.0,0.0,0.09069627,0.0,0.0,0.0,0.0,0.0,0.0017691657,0.0028153444,0.008250238,0.0,0.0,0.0,0.0,0.0,0.0
20922264,0.0,0.0,0.0,-0.0023506284,0.015251744,0.08119202,0.0,0.0,0.0,-0.037264228,0.0,0.0,0.0,0.0,0.0,0.0,0.0,0.0,102.35128,102.35129,4.05784,0.0,0.0,0.0,0.09068415,0.0,0.0,0.0,0.0,0.0,0.00039590997,0.0029172155,0.008606303,0.0,0.0,0.0,0.0,0.0,0.0
21129464,0.0,0.0,0.0,-0.0034657782,0.016214503,-0.002609253,0.0,0.0,0.0,0.014356375,0.0,0.0,0.0,0.0,0.0,0.0,0.0,0.0,102.32663,102.32664,4.057653,0.0,0.0,0.0,0.09067254,0.0,0.0,0.0,0.0,0.0,0.002334521,0.0024315726,0.0073783156,0.0,0.0,0.0,0.0,0.0,0.0
21329499,0.0,0.0,0.0,-0.004887918,0.017083637,-0.26397705,0.0,0.0,0.0,0.0766418,0.0,0.0,0.0,0.0,0.0,0.0,0.0,0.0,102.28547,102.28547,4.0572257,0.0,0.0,0.0,0.09066256,0.0,0.0,0.0,0.0,0.0,0.0022381067,0.0017060152,0.0038349929,0.0,0.0,0.0,0.0,0.0,0.0
21528677,0.0,0.0,0.0,-0.005866618,0.017972292,-0.1720581,0.0,0.0,0.0,-0.047139406,0.0,0.0,0.0,0.0,0.0,0.0,0.0,0.0,102.26287,102.26287,4.0571027,0.0,0.0,0.0,0.09065516,0.0,0.0,0.0,0.0,0.0,0.0005271318,0.0019443154,0.005818191,0.0,0.0,0.0,0.0,0.0,0.0
21731870,0.0,0.0,0.0,-0.0066782692,0.018965745,-0.1582489,0.0,0.0,0.0,-0.00094640255,0.0,0.0,0.0,0.0,0.0,0.0,0.0,0.0,102.241066,102.241066,4.0570226,0.0,0.0,0.0,0.09064563,0.0,0.0,0.0,0.0,0.0,0.00037824368,0.003753573,0.012970268,0.0,0.0,0.0,0.0,0.0,0.0
21931864,0.0,0.0,0.0,-0.007621129,0.01977612,0.08428955,0.0,0.0,0.0,-0.016965032,0.0,0.0,0.0,0.0,0.0,0.0,0.0,0.0,102.20747,102.20747,4.0567994,0.0,0.0,0.0,0.09063754,0.0,0.0,0.0,0.0,0.0,0.00014482632,0.0018685014,0.004996671,0.0,0.0,0.0,0.0,0.0,0.0
22131123,0.0,0.0,0.0,-0.008425551,0.020443173,-0.24742126,0.0,0.0,0.0,0.03514719,0.0,0.0,0.0,0.0,0.0,0.0,0.0,0.0,102.18591,102.18591,4.0567646,0.0,0.0,0.0,0.09062739,0.0,0.0,0.0,0.0,0.0,0.00018940691,0.0023173785,0.007200407,0.0,0.0,0.0,0.0,0.0,0.0
22334287,0.0,0.0,0.0,-0.00882607,0.021351438,0.048171997,0.0,0.0,0.0,0.092311025,0.0,0.0,0.0,0.0,0.0,0.0,0.0,0.0,102.15956,102.15955,4.056713,0.0,0.0,0.0,0.09061867,0.0,0.0,0.0,0.0,0.0,0.0010719609,0.0014872947,0.0036436147,0.0,0.0,0.0,0.0,0.0,0.0
22542281,0.0,0.0,0.0,-0.009340653,0.022317788,0.3095703,0.0,0.0,0.0,-0.08919358,0.0,0.0,0.0,0.0,0.0,0.0,0.0,0.0,102.14233,102.14233,4.056803,0.0,0.0,0.0,0.0906133,0.0,0.0,0.0,0.0,0.0,0.00082923344,0.0014686955,0.0037943553,0.0,0.0,0.0,0.0,0.0,0.0
22741463,0.0,0.0,0.0,-0.009385263,0.022861427,-0.24777222,0.0,0.0,0.0,-0.07058215,0.0,0.0,0.0,0.0,0.0,0.0,0.0,0.0,102.10172,102.101715,4.056513,0.0,0.0,0.0,0.090604834,0.0,0.0,0.0,0.0,0.0,0.0009978059,0.0014229679,0.00375845,0.0,0.0,0.0,0.0,0.0,0.0
22948663,0.0,0.0,0.0,-0.00933883,0.023190277,0.13554382,0.0,0.0,0.0,0.109891534,0.0,0.0,0.0,0.0,0.0,0.0,0.0,0.0,102.0779,102.0779,4.056547,0.0,0.0,0.0,0.09059564,0.0,0.0,0.0,0.0,0.0,8.230069e-05,0.0014166168,0.003959894,0.0,0.0,0.0,0.0,0.0,0.0
23148688,0.0,0.0,0.0,-0.010162761,0.02415512,0.13363647,0.0,0.0,0.0,0.0060720444,0.0,0.0,0.0,0.0,0.0,0.0,0.0,0.0,102.056076,102.056076,4.056572,0.0,0.0,0.0,0.09058864,0.0,0.0,0.0,0.0,0.0,0.00041008892,0.0014130311,0.0042224503,0.0,0.0,0.0,0.0,0.0,0.0
23355864,0.0,0.0,0.0,-0.010841838,0.024384,-0.007217407,0.0,0.0,0.0,-0.002014041,0.0,0.0,0.0,0.0,0.0,0.0,0.0,0.0,102.0307,102.0307,4.056598,0.0,0.0,0.0,0.09058089,0.0,0.0,0.0,0.0,0.0,0.00031671568,0.0024970216,0.008542026,0.0,0.0,0.0,0.0,0.0,0.0
23555070,0.0,0.0,0.0,-0.011200546,0.024302786,0.07847595,0.0,0.0,0.0,-0.0052062273,0.0,0.0,0.0,0.0,0.0,0.0,0.0,0.0,102.00952,102.00952,4.0566545,0.0,0.0,0.0,0.09057515,0.0,0.0,0.0,0.0,0.0,0.0006197897,0.0010174582,0.0034654953,0.0,0.0,0.0,0.0,0.0,0.0
23755084,0.0,0.0,0.0,-0.01187397,0.024337849,-0.01222229,0.0,0.0,0.0,-0.083325386,0.0,0.0,0.0,0.0,0.0,0.0,0.0,0.0,101.973305,101.9733,4.056442,0.0,0.0,0.0,0.09056684,0.0,0.0,0.0,0.0,0.0,0.0004668046,0.0018728886,0.006467898,0.0,0.0,0.0,0.0,0.0,0.0
23962263,0.0,0.0,0.0,-0.012859408,0.025016386,-0.021865845,0.0,0.0,0.0,-0.004956603,0.0,0.0,0.0,0.0,0.0,0.0,0.0,0.0,101.9544,101.95439,4.0565352,0.0,0.0,0.0,0.09056483,0.0,0.0,0.0,0.0,0.0,0.00060661684,0.001483697,0.005435831,0.0,0.0,0.0,0.0,0.0,0.0
24161464,0.0,0.0,0.0,-0.0135345645,0.025393324,-0.11576843,0.0,0.0,0.0,-0.03038752,0.0,0.0,0.0,0.0,0.0,0.0,0.0,0.0,101.931984,101.93198,4.0566163,0.0,0.0,0.0,0.09055914,0.0,0.0,0.0,0.0,0.0,0.0020253425,0.0025637804,0.00916166,0.0,0.0,0.0,0.0,0.0,0.0
24369464,0.0,0.0,0.0,-0.014617818,0.025692264,0.060424805,0.0,0.0,0.0,0.0065995455,0.0,0.0,0.0,0.0,0.0,0.0,0.0,0.0,101.89959,101.899574,4.0564494,0.0,0.0,0.0,0.09055189,0.0,0.0,0.0,0.0,0.0,0.0010132233,0.0017552701,0.0051517137,0.0,0.0,0.0,0.0,0.0,0.0
24568717,0.0,0.0,0.0,-0.0147657655,0.025865924,0.2362976,0.0,0.0,0.0,0.058304667,0.0,0.0,0.0,0.0,0.0,0.0,0.0,0.0,101.87186,101.87184,4.0563083,0.0,0.0,0.0,0.09054407,0.0,0.0,0.0,0.0,0.0,9.994619e-05,0.0018318978,0.0061042462,0.0,0.0,0.0,0.0,0.0,0.0
24775864,0.0,0.0,0.0,-0.014794971,0.02617178,-0.45014954,0.0,0.0,0.0,0.020161867,0.0,0.0,0.0,0.0,0.0,0.0,0.0,0.0,101.852455,101.85245,4.0564294,0.0,0.0,0.0,0.090538844,0.0,0.0,0.0,0.0,0.0,0.0004918039,0.0009447548,0.0033305772,0.0,0.0,0.0,0.0,0.0,0.0
24975099,0.0,0.0,0.0,-0.014846722,0.026339903,0.14466858,0.0,0.0,0.0,-0.12772822,0.0,0.0,0.0,0.0,0.0,0.0,0.0,0.0,101.836006,101.836,4.056548,0.0,0.0,0.0,0.09053296,0.0,0.0,0.0,0.0,0.0,0.00090256176,0.000503042,0.0014244663,0.0,0.0,0.0,0.0,0.0,0.0
25183087,0.0,0.0,0.0,-0.015256885,0.02643389,-0.0051574707,0.0,0.0,0.0,0.01546216,0.0,0.0,0.0,0.0,0.0,0.0,0.0,0.0,101.81857,101.818565,4.056707,0.0,0.0,0.0,0.09052562,0.0,0.0,0.0,0.0,0.0,0.0013782397,0.0045942,0.01571592,0.0,0.0,0.0,0.0,0.0,0.0
25382264,0.0,0.0,0.0,-0.015120311,0.026671888,-0.2633667,0.0,0.0,0.0,0.0003017187,0.0,0.0,0.0,0.0,0.0,0.0,0.0,0.0,101.802,101.801994,4.0568132,0.0,0.0,0.0,0.090519294,0.0,0.0,0.0,0.0,0.0,0.00052519253,0.0029157298,0.01031069,0.0,0.0,0.0,0.0,0.0,0.0
25582264,0.0,0.0,0.0,-0.014865483,0.026930014,-0.25479126,0.0,0.0,0.0,-0.05361557,0.0,0.0,0.0,0.0,0.0,0.0,0.0,0.0,101.77415,101.77414,4.0566664,0.0,0.0,0.0,0.09051672,0.0,0.0,0.0,0.0,0.0,0.00036916698,0.004127787,0.014305409,0.0,0.0,0.0,0.0,0.0,0.0
25789477,0.0,0.0,0.0,-0.014719117,0.027046949,0.04484558,0.0,0.0,0.0,-0.027678847,0.0,0.0,0.0,0.0,0.0,0.0,0.0,0.0,101.74812,101.74811,4.05654,0.0,0.0,0.0,0.09050908,0.0,0.0,0.0,0.0,0.0,0.0008959888,0.0008420134,0.003537917,0.0,0.0,0.0,0.0,0.0,0.0
25992672,0.0,0.0,0.0,-0.014592613,0.02722336,0.25958252,0.0,0.0,0.0,0.013351798,0.0,0.0,0.0,0.0,0.0,0.0,0.0,0.0,101.724594,101.72458,4.056458,0.0,0.0,0.0,0.09050238,0.0,0.0,0.0,0.0,0.0,0.00037381047,0.0005439274,0.0015225689,0.0,0.0,0.0,0.0,0.0,0.0
26192664,0.0,0.0,0.0,-0.014290724,0.027426409,-0.08999634,0.0,0.0,0.0,-0.0059176683,0.0,0.0,0.0,0.0,0.0,0.0,0.0,0.0,101.70743,101.70741,4.0564733,0.0,0.0,0.0,0.09049727,0.0,0.0,0.0,0.0,0.0,0.0008088516,0.00298144,0.010350851,0.0,0.0,0.0,0.0,0.0,0.0
26399906,0.0,0.0,0.0,-0.014162618,0.027621811,0.08201599,0.0,0.0,0.0,-0.050587535,0.0,0.0,0.0,0.0,0.0,0.0,0.0,0.0,101.702515,101.7025,4.056912,0.0,0.0,0.0,0.0904916,0.0,0.0,0.0,0.0,0.0,0.0022195554,0.0012060677,0.004423495,0.0,0.0,0.0,0.0,0.0,0.0
26599082,0.0,0.0,0.0,-0.013976559,0.02762948,0.12046814,0.0,0.0,0.0,0.08739495,0.0,0.0,0.0,0.0,0.0,0.0,0.0,0.0,101.68979,101.68978,4.05705,0.0,0.0,0.0,0.09048737,0.0,0.0,0.0,0.0,0.0,0.00021867923,0.002599373,0.009102704,0.0,0.0,0.0,0.0,0.0,0.0
26799064,0.0,0.0,0.0,-0.013861952,0.027612781,-0.0818634,0.0,0.0,0.0,-0.01099658,0.0,0.0,0.0,0.0,0.0,0.0,0.0,0.0,101.6762,101.676186,4.0571523,0.0,0.0,0.0,0.09048192,0.0,0.0,0.0,0.0,0.0,0.0001862785,0.0010917158,0.0032066505,0.0,0.0,0.0,0.0,0.0,0.0
27006324,0.0,0.0,0.0,-0.013584593,0.02752823,-0.1796112,0.0,0.0,0.0,0.0025035143,0.0,0.0,0.0,0.0,0.0,0.0,0.0,0.0,101.66102,101.66101,4.0572567,0.0,0.0,0.0,0.090476565,0.0,0.0,0.0,0.0,0.0,0.00041347434,0.001523158,0.005448779,0.0,0.0,0.0,0.0,0.0,0.0
27205463,0.0,0.0,0.0,-0.013326653,0.027158286,-0.004211426,0.0,0.0,0.0,-0.019441366,0.0,0.0,0.0,0.0,0.0,0.0,0.0,0.0,101.630974,101.63096,4.0568542,0.0,0.0,0.0,0.09047322,0.0,0.0,0.0,0.0,0.0,0.0006143841,0.00024316293,0.00020230569,0.0,0.0,0.0,0.0,0.0,0.0
27407887,0.0,0.0,0.0,-0.0132136475,0.027105896,-0.0005187988,0.0,0.0,0.0,0.018796206,0.0,0.0,0.0,0.0,0.0,0.0,0.0,0.0,101.61961,101.6196,4.0569754,0.0,0.0,0.0,0.09046744,0.0,0.0,0.0,0.0,0.0,8.2416715e-05,0.00037929352,0.0007199441,0.0,0.0,0.0,0.0,0.0,0.0
27815864,0.0,0.0,0.0,-0.012981634,0.026735937,0.006958008,0.0,0.0,0.0,0.02570641,0.0,0.0,0.0,0.0,0.0,0.0,0.0,0.0,101.59069,101.590675,4.0570946,0.0,0.0,0.0,0.09045812,0.0,0.0,0.0,0.0,0.0,0.0013369616,0.001326125,0.0041669896,0.0,0.0,0.0,0.0,0.0,0.0
28016664,0.0,0.0,0.0,-0.01277415,0.02652235,-0.043426514,0.0,0.0,0.0,-0.020222545,0.0,0.0,0.0,0.0,0.0,0.0,0.0,0.0,101.57985,101.579834,4.0571966,0.0,0.0,0.0,0.09045387,0.0,0.0,0.0,0.0,0.0,0.0006601698,0.00074553926,0.002323897,0.0,0.0,0.0,0.0,0.0,0.0
28223076,0.0,0.0,0.0,-0.012963908,0.026214419,0.0012817383,0.0,0.0,0.0,0.0020208359,0.0,0.0,0.0,0.0,0.0,0.0,0.0,0.0,101.56844,101.56843,4.057328,0.0,0.0,0.0,0.09044914,0.0,0.0,0.0,0.0,0.0,0.0006027774,0.0008347162,0.002750871,0.0,0.0,0.0,0.0,0.0,0.0
28422280,0.0,0.0,0.0,-0.013064586,0.025848411,-0.17222595,0.0,0.0,0.0,0.058025002,0.0,0.0,0.0,0.0,0.0,0.0,0.0,0.0,101.56433,101.564316,4.057657,0.0,0.0,0.0,0.09044505,0.0,0.0,0.0,0.0,0.0,0.0012097601,0.00061737414,0.0018367843,0.0,0.0,0.0,0.0,0.0,0.0
28625463,0.0,0.0,0.0,-0.013013762,0.025101127,0.068878174,0.0,0.0,0.0,0.094376564,0.0,0.0,0.0,0.0,0.0,0.0,0.0,0.0,101.54527,101.54526,4.05743,0.0,0.0,0.0,0.090442106,0.0,0.0,0.0,0.0,0.0,0.0006133943,0.0036249342,0.0124071995,0.0,0.0,0.0,0.0,0.0,0.0
28833464,0.0,0.0,0.0,-0.0130526535,0.02416259,-0.11117554,0.0,0.0,0.0,-0.0032433271,0.0,0.0,0.0,0.0,0.0,0.0,0.0,0.0,101.52979,101.52978,4.057371,0.0,0.0,0.0,0.09043656,0.0,0.0,0.0,0.0,0.0,0.00045192052,0.0023981084,0.009374171,0.0,0.0,0.0,0.0,0.0,0.0
29032664,0.0,0.0,0.0,-0.013107963,0.023250358,-0.36228943,0.0,0.0,0.0,-0.004569888,0.0,0.0,0.0,0.0,0.0,0.0,0.0,0.0,101.512215,101.5122,4.057212,0.0,0.0,0.0,0.09043167,0.0,0.0,0.0,0.0,0.0,0.00050793577,0.0013235817,0.0032060144,0.0,0.0,0.0,0.0,0.0,0.0
29232689,0.0,0.0,0.0,-0.013405598,0.022339528,-0.21531677,0.0,0.0,0.0,-0.088837266,0.0,0.0,0.0,0.0,0.0,0.0,0.0,0.0,101.49518,101.49516,4.0570526,0.0,0.0,0.0,0.09042792,0.0,0.0,0.0,0.0,0.0,0.0004321296,0.0046225768,0.015428792,0.0,0.0,0.0,0.0,0.0,0.0
29439864,0.0,0.0,0.0,-0.013854482,0.02150616,-0.04663086,0.0,0.0,0.0,-0.025458932,0.0,0.0,0.0,0.0,0.0,0.0,0.0,0.0,101.48748,101.487465,4.0571885,0.0,0.0,0.0,0.09042473,0.0,0.0,0.0,0.0,0.0,0.0007610719,0.0013220672,0.0049857167,0.0,0.0,0.0,0.0,0.0,0.0
30855864,0.0,0.0,0.0,-0.014571741,0.009806717,0.16119385,0.0,0.0,0.0,-0.059460044,0.0,0.0,0.0,0.0,0.0,0.0,0.0,0.0,101.4236,101.42359,4.0577216,0.0,0.0,0.0,0.09040042,0.0,0.0,0.0,0.0,0.0,6.8099e-05,0.0025343783,0.008535074,0.0,0.0,0.0,0.0,0.0,0.0
31055885,0.0,0.0,0.0,-0.014348985,0.007982952,0.15905762,0.0,0.0,0.0,0.083533406,0.0,0.0,0.0,0.0,0.0,0.0,0.0,0.0,101.41557,101.415565,4.057778,0.0,0.0,0.0,0.0903976,0.0,0.0,0.0,0.0,0.0,0.00036485764,0.0014896085,0.005118724,0.0,0.0,0.0,0.0,0.0,0.0
31255088,0.0,0.0,0.0,-0.014236628,0.006116873,0.24165344,0.0,0.0,0.0,0.0035954714,0.0,0.0,0.0,0.0,0.0,0.0,0.0,0.0,101.40705,101.40705,4.0578036,0.0,0.0,0.0,0.09039397,0.0,0.0,0.0,0.0,0.0,0.00092718034,0.0016942641,0.005676284,0.0,0.0,0.0,0.0,0.0,0.0
31454281,0.0,0.0,0.0,-0.013942266,0.004140485,0.24812317,0.0,0.0,0.0,0.011285305,0.0,0.0,0.0,0.0,0.0,0.0,0.0,0.0,101.39386,101.39386,4.0576587,0.0,0.0,0.0,0.09038959,0.0,0.0,0.0,0.0,0.0,0.0003444656,0.0008460123,0.002613601,0.0,0.0,0.0,0.0,0.0,0.0
31662289,0.0,0.0,0.0,-0.013634845,0.0022604521,-0.10316467,0.0,0.0,0.0,-0.03192115,0.0,0.0,0.0,0.0,0.0,0.0,0.0,0.0,101.386,101.38601,4.057744,0.0,0.0,0.0,0.09038656,0.0,0.0,0.0,0.0,0.0,1.0888351e-05,0.0022671097,0.007444483,0.0,0.0,0.0,0.0,0.0,0.0
31861464,0.0,0.0,0.0,-0.013555244,0.00074486766,-0.17138672,0.0,0.0,0.0,0.030348182,0.0,0.0,0.0,0.0,0.0,0.0,0.0,0.0,101.37961,101.379616,4.057838,0.0,0.0,0.0,0.09038357,0.0,0.0,0.0,0.0,0.0,0.00029968045,0.0027417075,0.00903845,0.0,0.0,0.0,0.0,0.0,0.0
32068670,0.0,0.0,0.0,-0.013502055,-0.0007787033,0.012039185,0.0,0.0,0.0,-0.047446966,0.0,0.0,0.0,0.0,0.0,0.0,0.0,0.0,101.3718,101.37181,4.057906,0.0,0.0,0.0,0.090380214,0.0,0.0,0.0,0.0,0.0,0.00020388492,0.0033439011,0.011604131,0.0,0.0,0.0,0.0,0.0,0.0
32268664,0.0,0.0,0.0,-0.013617197,-0.0021363925,-0.0040893555,0.0,0.0,0.0,-0.020594954,0.0,0.0,0.0,0.0,0.0,0.0,0.0,0.0,101.36496,101.364975,4.057963,0.0,0.0,0.0,0.09037694,0.0,0.0,0.0,0.0,0.0,0.00026846744,0.0027177169,0.008430527,0.0,0.0,0.0,0.0,0.0,0.0
32471864,0.0,0.0,0.0,-0.0138589,-0.003401641,-0.3436737,0.0,0.0,0.0,0.04399562,0.0,0.0,0.0,0.0,0.0,0.0,0.0,0.0,101.36109,101.36111,4.0581536,0.0,0.0,0.0,0.090375304,0.0,0.0,0.0,0.0,0.0,0.0006633965,0.00089219713,0.0033697386,0.0,0.0,0.0,0.0,0.0,0.0
32679086,0.0,0.0,0.0,-0.014113663,-0.0047705197,0.46975708,0.0,0.0,0.0,0.011771321,0.0,0.0,0.0,0.0,0.0,0.0,0.0,0.0,101.35386,101.353874,4.0582175,0.0,0.0,0.0,0.09037171,0.0,0.0,0.0,0.0,0.0,0.00047302985,0.0016686368,0.005880295,0.0,0.0,0.0,0.0,0.0,0.0
32882272,0.0,0.0,0.0,-0.014140865,-0.006290299,0.33021545,0.0,0.0,0.0,-0.0010660887,0.0,0.0,0.0,0.0,0.0,0.0,0.0,0.0,101.34708,101.3471,4.058249,0.0,0.0,0.0,0.090368584,0.0,0.0,0.0,0.0,0.0,0.00034740142,0.0034028452,0.011623328,0.0,0.0,0.0,0.0,0.0,0.0
33082306,0.0,0.0,0.0,-0.014607235,-0.007657758,-0.26792908,0.0,0.0,0.0,-0.05162716,0.0,0.0,0.0,0.0,0.0,0.0,0.0,0.0,101.3369,101.33692,4.0581455,0.0,0.0,0.0,0.09036516,0.0,0.0,0.0,0.0,0.0,0.00047238736,0.00080795644,0.0029283653,0.0,0.0,0.0,0.0,0.0,0.0
33281464,0.0,0.0,0.0,-0.014696101,-0.008985806,-0.2592926,0.0,0.0,0.0,-0.058238626,0.0,0.0,0.0,0.0,0.0,0.0,0.0,0.0,101.33116,101.33119,4.058208,0.0,0.0,0.0,0.09036216,0.0,0.0,0.0,0.0,0.0,0.00055395724,0.00182847,0.0056466334,0.0,0.0,0.0,0.0,0.0,0.0
33488711,0.0,0.0,0.0,-0.015141117,-0.010141501,0.008117676,0.0,0.0,0.0,0.08529544,0.0,0.0,0.0,0.0,0.0,0.0,0.0,0.0,101.32432,101.32435,4.05825,0.0,0.0,0.0,0.09035993,0.0,0.0,0.0,0.0,0.0,0.0002424027,0.0025190455,0.008740376,0.0,0.0,0.0,0.0,0.0,0.0
33688664,0.0,0.0,0.0,-0.015467935,-0.011245678,0.35951233,0.0,0.0,0.0,0.018152952,0.0,0.0,0.0,0.0,0.0,0.0,0.0,0.0,101.31886,101.3189,4.0583105,0.0,0.0,0.0,0.0903595,0.0,0.0,0.0,0.0,0.0,0.00031432923,0.0015303969,0.0059197186,0.0,0.0,0.0,0.0,0.0,0.0
33887864,0.0,0.0,0.0,-0.015931029,-0.01262335,0.26315308,0.0,0.0,0.0,0.020960093,0.0,0.0,0.0,0.0,0.0,0.0,0.0,0.0,101.3123,101.31234,4.0583477,0.0,0.0,0.0,0.09035759,0.0,0.0,0.0,0.0,0.0,0.00027754324,0.00245299,0.007567848,0.0,0.0,0.0,0.0,0.0,0.0
34095064,0.0,0.0,0.0,-0.016480256,-0.013816111,-0.0012512207,0.0,0.0,0.0,0.04107368,0.0,0.0,0.0,0.0,0.0,0.0,0.0,0.0,101.30655,101.30659,4.058376,0.0,0.0,0.0,0.09035498,0.0,0.0,0.0,0.0,0.0,0.00081287144,0.0031538578,0.01046489,0.0,0.0,0.0,0.0,0.0,0.0
34295073,0.0,0.0,0.0,-0.01697203,-0.015242521,0.15838623,0.0,0.0,0.0,0.032788992,0.0,0.0,0.0,0.0,0.0,0.0,0.0,0.0,101.306244,101.30629,4.0586815,0.0,0.0,0.0,0.09035242,0.0,0.0,0.0,0.0,0.0,0.0004228184,0.0039111665,0.013513479,0.0,0.0,0.0,0.0,0.0,0.0
34502263,0.0,0.0,0.0,-0.017596386,-0.016452083,0.24664307,0.0,0.0,0.0,0.049330592,0.0,0.0,0.0,0.0,0.0,0.0,0.0,0.0,101.299515,101.29957,4.0586777,0.0,0.0,0.0,0.09034923,0.0,0.0,0.0,0.0,0.0,2.6595028e-05,0.002031076,0.0074367314,0.0,0.0,0.0,0.0,0.0,0.0
34701470,0.0,0.0,0.0,-0.018430252,-0.017395347,-0.010131836,0.0,0.0,0.0,0.066683054,0.0,0.0,0.0,0.0,0.0,0.0,0.0,0.0,101.288315,101.28837,4.058424,0.0,0.0,0.0,0.09034677,0.0,0.0,0.0,0.0,0.0,0.0010740211,0.0016042904,0.0056310995,0.0,0.0,0.0,0.0,0.0,0.0
34909464,0.0,0.0,0.0,-0.019223196,-0.018186484,0.17417908,0.0,0.0,0.0,0.05461335,0.0,0.0,0.0,0.0,0.0,0.0,0.0,0.0,101.283195,101.28325,4.0584493,0.0,0.0,0.0,0.09034369,0.0,0.0,0.0,0.0,0.0,0.001071631,0.0012995262,0.00442273,0.0,0.0,0.0,0.0,0.0,0.0
35108701,0.0,0.0,0.0,-0.020094005,-0.019229056,-0.20220947,0.0,0.0,0.0,0.03862226,0.0,0.0,0.0,0.0,0.0,0.0,0.0,0.0,101.273155,101.27322,4.058236,0.0,0.0,0.0,0.090340704,0.0,0.0,0.0,0.0,0.0,0.0011615762,0.0016331746,0.0058662277,0.0,0.0,0.0,0.0,0.0,0.0
35311865,0.0,0.0,0.0,-0.020916611,-0.020438774,-0.06762695,0.0,0.0,0.0,0.031207085,0.0,0.0,0.0,0.0,0.0,0.0,0.0,0.0,101.27359,101.27365,4.0585475,0.0,0.0,0.0,0.09033869,0.0,0.0,0.0,0.0,0.0,0.00049567496,0.0015995647,0.005889714,0.0,0.0,0.0,0.0,0.0,0.0
35511902,0.0,0.0,0.0,-0.021667298,-0.02176201,0.09729004,0.0,0.0,0.0,0.023123503,0.0,0.0,0.0,0.0,0.0,0.0,0.0,0.0,101.26589,101.26596,4.058437,0.0,0.0,0.0,0.09033549,0.0,0.0,0.0,0.0,0.0,0.00080835354,0.0013806815,0.0046764174,0.0,0.0,0.0,0.0,0.0,0.0
35711068,0.0,0.0,0.0,-0.022282593,-0.02296918,-0.07229614,0.0,0.0,0.0,0.081742644,0.0,0.0,0.0,0.0,0.0,0.0,0.0,0.0,101.26153,101.2616,4.0584664,0.0,0.0,0.0,0.09033328,0.0,0.0,0.0,0.0,0.0,0.0010605934,0.001289348,0.0043409425,0.0,0.0,0.0,0.0,0.0,0.0
35914264,0.0,0.0,0.0,-0.023036828,-0.024034858,-0.49432373,0.0,0.0,0.0,-0.08496964,0.0,0.0,0.0,0.0,0.0,0.0,0.0,0.0,101.25785,101.25793,4.058527,0.0,0.0,0.0,0.0903308,0.0,0.0,0.0,0.0,0.0,0.0009201371,0.0013866606,0.0046219947,0.0,0.0,0.0,0.0,0.0,0.0
36116702,0.0,0.0,0.0,-0.023491045,-0.025321279,0.013015747,0.0,0.0,0.0,-0.041075468,0.0,0.0,0.0,0.0,0.0,0.0,0.0,0.0,101.25081,101.250885,4.058421,0.0,0.0,0.0,0.09032866,0.0,0.0,0.0,0.0,0.0,9.459922e-05,0.001850584,0.0066239256,0.0,0.0,0.0,0.0,0.0,0.0
36325465,0.0,0.0,0.0,-0.024167787,-0.026432222,0.107666016,0.0,0.0,0.0,-0.004768729,0.0,0.0,0.0,0.0,0.0,0.0,0.0,0.0,101.243866,101.24394,4.0583096,0.0,0.0,0.0,0.090325974,0.0,0.0,0.0,0.0,0.0,0.00015982594,0.0010928827,0.0032728126,0.0,0.0,0.0,0.0,0.0,0.0
36524670,0.0,0.0,0.0,-0.024724085,-0.027700856,0.11605835,0.0,0.0,0.0,-0.058503866,0.0,0.0,0.0,0.0,0.0,0.0,0.0,0.0,101.23653,101.23661,4.058167,0.0,0.0,0.0,0.090324774,0.0,0.0,0.0,0.0,0.0,0.00013476066,0.0018049481,0.0060284594,0.0,0.0,0.0,0.0,0.0,0.0
36724664,0.0,0.0,0.0,-0.025066417,-0.029017037,0.067718506,0.0,0.0,0.0,0.0127494335,0.0,0.0,0.0,0.0,0.0,0.0,0.0,0.0,101.22869,101.228775,4.0579553,0.0,0.0,0.0,0.09032356,0.0,0.0,0.0,0.0,0.0,0.0007163398,0.00087662094,0.0029149824,0.0,0.0,0.0,0.0,0.0,0.0
36935870,0.0,0.0,0.0,-0.025675757,-0.030854456,-0.06329346,0.0,0.0,0.0,0.010850549,0.0,0.0,0.0,0.0,0.0,0.0,0.0,0.0,101.228455,101.228546,4.0582056,0.0,0.0,0.0,0.090322055,0.0,0.0,0.0,0.0,0.0,0.00030954886,0.001655339,0.0067368946,0.0,0.0,0.0,0.0,0.0,0.0
37135109,0.0,0.0,0.0,-0.02605131,-0.03236834,-0.06074524,0.0,0.0,0.0,-0.0014441013,0.0,0.0,0.0,0.0,0.0,0.0,0.0,0.0,101.22158,101.221664,4.058059,0.0,0.0,0.0,0.09031998,0.0,0.0,0.0,0.0,0.0,0.0002229828,0.00065599196,0.0026188002,0.0,0.0,0.0,0.0,0.0,0.0
37335064,0.0,0.0,0.0,-0.026662767,-0.033833355,0.3276062,0.0,0.0,0.0,0.15330768,0.0,0.0,0.0,0.0,0.0,0.0,0.0,0.0,101.22409,101.22419,4.0584235,0.0,0.0,0.0,0.09031767,0.0,0.0,0.0,0.0,0.0,0.00078694546,0.0009906694,0.0031808398,0.0,0.0,0.0,0.0,0.0,0.0
37542263,0.0,0.0,0.0,-0.026664006,-0.03533342,-0.1433258,0.0,0.0,0.0,0.022214532,0.0,0.0,0.0,0.0,0.0,0.0,0.0,0.0,101.21677,101.216866,4.0582304,0.0,0.0,0.0,0.090315394,0.0,0.0,0.0,0.0,0.0,0.00082624966,0.0006170316,0.0023349961,0.0,0.0,0.0,0.0,0.0,0.0
37745476,0.0,0.0,0.0,-0.026642712,-0.03685216,0.60739136,0.0,0.0,0.0,-0.0311023,0.0,0.0,0.0,0.0,0.0,0.0,0.0,0.0,101.21511,101.21522,4.058336,0.0,0.0,0.0,0.09031317,0.0,0.0,0.0,0.0,0.0,0.00036267526,0.0050275708,0.016655596,0.0,0.0,0.0,0.0,0.0,0.0
37944699,0.0,0.0,0.0,-0.026365327,-0.038262174,0.08581543,0.0,0.0,0.0,-0.01538527,0.0,0.0,0.0,0.0,0.0,0.0,0.0,0.0,101.21021,101.21032,4.058262,0.0,0.0,0.0,0.09031098,0.0,0.0,0.0,0.0,0.0,3.3809356e-05,0.003468753,0.012622528,0.0,0.0,0.0,0.0,0.0,0.0
38152663,0.0,0.0,0.0,-0.026134755,-0.039598547,0.33628845,0.0,0.0,0.0,-0.0049642324,0.0,0.0,0.0,0.0,0.0,0.0,0.0,0.0,101.20782,101.207924,4.058306,0.0,0.0,0.0,0.09030909,0.0,0.0,0.0,0.0,0.0,0.00034100705,0.0032288937,0.011439162,0.0,0.0,0.0,0.0,0.0,0.0
38351869,0.0,0.0,0.0,-0.025777264,-0.04073682,-0.4157257,0.0,0.0,0.0,0.001572609,0.0,0.0,0.0,0.0,0.0,0.0,0.0,0.0,101.2023,101.202415,4.0581827,0.0,0.0,0.0,0.09030671,0.0,0.0,0.0,0.0,0.0,0.00090296904,0.0037661646,0.011779489,0.0,0.0,0.0,0.0,0.0,0.0
38551112,0.0,0.0,0.0,-0.025512876,-0.041734144,0.17092896,0.0,0.0,0.0,-0.023450255,0.0,0.0,0.0,0.0,0.0,0.0,0.0,0.0,101.20076,101.20088,4.058266,0.0,0.0,0.0,0.09030512,0.0,0.0,0.0,0.0,0.0,0.0006415405,0.0004813272,0.0018883797,0.0,0.0,0.0,0.0,0.0,0.0
38759070,0.0,0.0,0.0,-0.025146592,-0.042880725,0.042099,0.0,0.0,0.0,0.017626286,0.0,0.0,0.0,0.0,0.0,0.0,0.0,0.0,101.20378,101.2039,4.058638,0.0,0.0,0.0,0.090303555,0.0,0.0,0.0,0.0,0.0,0.0002490645,0.0004936036,0.0020609428,0.0,0.0,0.0,0.0,0.0,0.0
38958264,0.0,0.0,0.0,-0.024721332,-0.04333857,0.047973633,0.0,0.0,0.0,-0.0073975325,0.0,0.0,0.0,0.0,0.0,0.0,0.0,0.0,101.20224,101.20236,4.0587006,0.0,0.0,0.0,0.09030151,0.0,0.0,0.0,0.0,0.0,0.00023113236,0.00201928,0.0070180255,0.0,0.0,0.0,0.0,0.0,0.0
39164689,0.0,0.0,0.0,-0.023974173,-0.04365801,0.087142944,0.0,0.0,0.0,-0.060427904,0.0,0.0,0.0,0.0,0.0,0.0,0.0,0.0,101.19558,101.19571,4.058465,0.0,0.0,0.0,0.09029924,0.0,0.0,0.0,0.0,0.0,0.00013773279,0.0006096756,0.0026317064,0.0,0.0,0.0,0.0,0.0,0.0
39365464,0.0,0.0,0.0,-0.023355836,-0.043862745,-0.1614685,0.0,0.0,0.0,0.019221187,0.0,0.0,0.0,0.0,0.0,0.0,0.0,0.0,101.19414,101.19427,4.058525,0.0,0.0,0.0,0.09029801,0.0,0.0,0.0,0.0,0.0,6.096584e-05,0.0023250028,0.008282267,0.0,0.0,0.0,0.0,0.0,0.0
39564676,0.0,0.0,0.0,-0.02254338,-0.043904435,0.39704895,0.0,0.0,0.0,-0.03076458,0.0,0.0,0.0,0.0,0.0,0.0,0.0,0.0,101.18859,101.18873,4.0583463,0.0,0.0,0.0,0.090295814,0.0,0.0,0.0,0.0,0.0,0.00025287227,0.0012849395,0.004901339,0.0,0.0,0.0,0.0,0.0,0.0
39771908,0.0,0.0,0.0,-0.021807486,-0.043864492,0.11378479,0.0,0.0,0.0,0.05479896,0.0,0.0,0.0,0.0,0.0,0.0,0.0,0.0,101.183014,101.18314,4.058161,0.0,0.0,0.0,0.09029413,0.0,0.0,0.0,0.0,0.0,8.285929e-05,0.0037026878,0.013076342,0.0,0.0,0.0,0.0,0.0,0.0
39971864,0.0,0.0,0.0,-0.021311285,-0.04401853,0.11616516,0.0,0.0,0.0,-0.03683698,0.0,0.0,0.0,0.0,0.0,0.0,0.0,0.0,101.182236,101.18237,4.0582476,0.0,0.0,0.0,0.09029223,0.0,0.0,0.0,0.0,0.0,0.00022341494,0.0016530552,0.0065346803,0.0,0.0,0.0,0.0,0.0,0.0
40179099,0.0,0.0,0.0,-0.020822212,-0.044273872,-0.061706543,0.0,0.0,0.0,0.056012154,0.0,0.0,0.0,0.0,0.0,0.0,0.0,0.0,101.18184,101.18198,4.058367,0.0,0.0,0.0,0.09029037,0.0,0.0,0.0,0.0,0.0,6.0788825e-05,0.0005270501,0.0015671744,0.0,0.0,0.0,0.0,0.0,0.0
40378271,0.0,0.0,0.0,-0.02058294,-0.044463795,-0.021240234,0.0,0.0,0.0,0.00820446,0.0,0.0,0.0,0.0,0.0,0.0,0.0,0.0,101.18098,101.18112,4.058434,0.0,0.0,0.0,0.090288535,0.0,0.0,0.0,0.0,0.0,2.8309407e-05,0.0017056318,0.0055078757,0.0,0.0,0.0,0.0,0.0,0.0
40586318,0.0,0.0,0.0,-0.020416128,-0.04439448,-0.23110962,0.0,0.0,0.0,-0.008120179,0.0,0.0,0.0,0.0,0.0,0.0,0.0,0.0,101.18002,101.18017,4.0585027,0.0,0.0,0.0,0.090286955,0.0,0.0,0.0,0.0,0.0,4.9634225e-05,0.00071587256,0.0022612843,0.0,0.0,0.0,0.0,0.0,0.0
40785464,0.0,0.0,0.0,-0.02028349,-0.044163026,0.024917603,0.0,0.0,0.0,0.040828824,0.0,0.0,0.0,0.0,0.0,0.0,0.0,0.0,101.17505,101.17519,4.0583143,0.0,0.0,0.0,0.09028495,0.0,0.0,0.0,0.0,0.0,0.0003788458,0.0008071468,0.0024228045,0.0,0.0,0.0,0.0,0.0,0.0
40984664,0.0,0.0,0.0,-0.02017568,-0.044250365,-0.31072998,0.0,0.0,0.0,-0.05881989,0.0,0.0,0.0,0.0,0.0,0.0,0.0,0.0,101.174484,101.17463,4.058386,0.0,0.0,0.0,0.090283416,0.0,0.0,0.0,0.0,0.0,0.00017074528,0.0021950998,0.0070270486,0.0,0.0,0.0,0.0,0.0,0.0
41184676,0.0,0.0,0.0,-0.019936088,-0.044187978,0.5349884,0.0,0.0,0.0,0.035532236,0.0,0.0,0.0,0.0,0.0,0.0,0.0,0.0,101.1697,101.169846,4.0582047,0.0,0.0,0.0,0.09028191,0.0,0.0,0.0,0.0,0.0,0.00010313325,0.0023258948,0.0075637233,0.0,0.0,0.0,0.0,0.0,0.0
41391877,0.0,0.0,0.0,-0.019844547,-0.044490177,-0.14854431,0.0,0.0,0.0,-0.070038795,0.0,0.0,0.0,0.0,0.0,0.0,0.0,0.0,101.169876,101.17002,4.0583143,0.0,0.0,0.0,0.0902802,0.0,0.0,0.0,0.0,0.0,0.00045290665,0.0002438937,0.0012256738,0.0,0.0,0.0,0.0,0.0,0.0
41591112,0.0,0.0,0.0,-0.019876458,-0.04452327,0.024993896,0.0,0.0,0.0,-0.013956666,0.0,0.0,0.0,0.0,0.0,0.0,0.0,0.0,101.16953,101.16968,4.058397,0.0,0.0,0.0,0.090278715,0.0,0.0,0.0,0.0,0.0,0.0005918965,0.00040454723,0.0011872601,0.0,0.0,0.0,0.0,0.0,0.0
41799071,0.0,0.0,0.0,-0.020141616,-0.044679042,-0.07015991,0.0,0.0,0.0,0.019157887,0.0,0.0,0.0,0.0,0.0,0.0,0.0,0.0,101.169136,101.16928,4.0584583,0.0,0.0,0.0,0.09027685,0.0,0.0,0.0,0.0,0.0,3.0379755e-05,0.0014138898,0.004875212,0.0,0.0,0.0,0.0,0.0,0.0
41998273,0.0,0.0,0.0,-0.020545349,-0.044389814,0.114227295,0.0,0.0,0.0,-0.0067492723,0.0,0.0,0.0,0.0,0.0,0.0,0.0,0.0,101.169205,101.16935,4.058554,0.0,0.0,0.0,0.09027628,0.0,0.0,0.0,0.0,0.0,0.000376589,0.0022154176,0.0069993394,0.0,0.0,0.0,0.0,0.0,0.0
42205464,0.0,0.0,0.0,-0.020871457,-0.044235397,-0.387146,0.0,0.0,0.0,-0.076986074,0.0,0.0,0.0,0.0,0.0,0.0,0.0,0.0,101.16451,101.164665,4.058347,0.0,0.0,0.0,0.0902761,0.0,0.0,0.0,0.0,0.0,0.00039601154,0.00398721,0.013288541,0.0,0.0,0.0,0.0,0.0,0.0
42405471,0.0,0.0,0.0,-0.021405919,-0.04420395,-0.25952148,0.0,0.0,0.0,0.06456339,0.0,0.0,0.0,0.0,0.0,0.0,0.0,0.0,101.16441,101.164566,4.058418,0.0,0.0,0.0,0.090274654,0.0,0.0,0.0,0.0,0.0,0.00020906107,0.0016829596,0.006100135,0.0,0.0,0.0,0.0,0.0,0.0
42612664,0.0,0.0,0.0,-0.022054914,-0.043932438,0.040542603,0.0,0.0,0.0,-0.006989002,0.0,0.0,0.0,0.0,0.0,0.0,0.0,0.0,101.16055,101.160706,4.0582576,0.0,0.0,0.0,0.090272814,0.0,0.0,0.0,0.0,0.0,4.1240583e-05,0.00058118196,0.002328015,0.0,0.0,0.0,0.0,0.0,0.0
42815870,0.0,0.0,0.0,-0.02274736,-0.043762736,-0.22598267,0.0,0.0,0.0,0.028713942,0.0,0.0,0.0,0.0,0.0,0.0,0.0,0.0,101.15623,101.15637,4.0580606,0.0,0.0,0.0,0.0902712,0.0,0.0,0.0,0.0,0.0,0.00038376354,0.0020856245,0.006814664,0.0,0.0,0.0,0.0,0.0,0.0
43015096,0.0,0.0,0.0,-0.02351528,-0.043707825,-0.0075683594,0.0,0.0,0.0,-0.021969914,0.0,0.0,0.0,0.0,0.0,0.0,0.0,0.0,101.1588,101.15895,4.0582943,0.0,0.0,0.0,0.090269834,0.0,0.0,0.0,0.0,0.0,0.00015877407,0.00042510568,0.0004936835,0.0,0.0,0.0,0.0,0.0,0.0
43215070,0.0,0.0,0.0,-0.023994787,-0.043869488,-0.022201538,0.0,0.0,0.0,-0.04157424,0.0,0.0,0.0,0.0,0.0,0.0,0.0,0.0,101.15892,101.15907,4.058362,0.0,0.0,0.0,0.09026827,0.0,0.0,0.0,0.0,0.0,0.0010225608,0.0026344284,0.00924668,0.0,0.0,0.0,0.0,0.0,0.0
43422264,0.0,0.0,0.0,-0.024876557,-0.043541566,0.44610596,0.0,0.0,0.0,-0.047658205,0.0,0.0,0.0,0.0,0.0,0.0,0.0,0.0,101.159424,101.15958,4.058457,0.0,0.0,0.0,0.09026772,0.0,0.0,0.0,0.0,0.0,0.0007527629,0.002183244,0.007674036,0.0,0.0,0.0,0.0,0.0,0.0
43622263,0.0,0.0,0.0,-0.025660783,-0.043452382,-0.2374878,0.0,0.0,0.0,0.0070676804,0.0,0.0,0.0,0.0,0.0,0.0,0.0,0.0,101.15937,101.15952,4.0585055,0.0,0.0,0.0,0.09026598,0.0,0.0,0.0,0.0,0.0,0.00020216976,0.00027194226,0.0005273327,0.0,0.0,0.0,0.0,0.0,0.0
43829480,0.0,0.0,0.0,-0.026475286,-0.043243486,0.019241333,0.0,0.0,0.0,-0.011170983,0.0,0.0,0.0,0.0,0.0,0.0,0.0,0.0,101.15972,101.159874,4.058582,0.0,0.0,0.0,0.09026446,0.0,0.0,0.0,0.0,0.0,8.9892914e-05,0.00020028529,0.0009008725,0.0,0.0,0.0,0.0,0.0,0.0
44028663,0.0,0.0,0.0,-0.0272003,-0.043007284,-0.036315918,0.0,0.0,0.0,0.026914835,0.0,0.0,0.0,0.0,0.0,0.0,0.0,0.0,101.15953,101.15968,4.058614,0.0,0.0,0.0,0.09026317,0.0,0.0,0.0,0.0,0.0,4.5419987e-05,0.0026876878,0.008851744,0.0,0.0,0.0,0.0,0.0,0.0
44236664,0.0,0.0,0.0,-0.028043773,-0.04233202,0.009613037,0.0,0.0,0.0,-0.06249225,0.0,0.0,0.0,0.0,0.0,0.0,0.0,0.0,101.159325,101.15948,4.058647,0.0,0.0,0.0,0.09026151,0.0,0.0,0.0,0.0,0.0,0.00040547657,0.0001226506,0.0006596436,0.0,0.0,0.0,0.0,0.0,0.0
44435901,0.0,0.0,0.0,-0.028708644,-0.041684404,0.24951172,0.0,0.0,0.0,-0.007829666,0.0,0.0,0.0,0.0,0.0,0.0,0.0,0.0,101.159515,101.15967,4.058697,0.0,0.0,0.0,0.09026026,0.0,0.0,0.0,0.0,0.0,6.0369664e-05,0.0034758146,0.011703077,0.0,0.0,0.0,0.0,0.0,0.0
44639063,0.0,0.0,0.0,-0.02948027,-0.040623162,0.11907959,0.0,0.0,0.0,0.018999815,0.0,0.0,0.0,0.0,0.0,0.0,0.0,0.0,101.15919,101.15935,4.0587163,0.0,0.0,0.0,0.0902592,0.0,0.0,0.0,0.0,0.0,0.0004885929,0.0016973533,0.005975687,0.0,0.0,0.0,0.0,0.0,0.0
44839100,0.0,0.0,0.0,-0.03024251,-0.0395551,-0.3070526,0.0,0.0,0.0,-0.017842174,0.0,0.0,0.0,0.0,0.0,0.0,0.0,0.0,101.1567,101.15686,4.058589,0.0,0.0,0.0,0.09025779,0.0,0.0,0.0,0.0,0.0,0.0008638995,0.0011152937,0.0028760242,0.0,0.0,0.0,0.0,0.0,0.0
45038264,0.0,0.0,0.0,-0.031060955,-0.03830716,-0.011245728,0.0,0.0,0.0,0.023812175,0.0,0.0,0.0,0.0,0.0,0.0,0.0,0.0,101.15299,101.153145,4.0583854,0.0,0.0,0.0,0.0902564,0.0,0.0,0.0,0.0,0.0,0.00063050236,0.00070649,0.0021833235,0.0,0.0,0.0,0.0,0.0,0.0
45241474,0.0,0.0,0.0,-0.031847958,-0.03734948,-0.2707672,0.0,0.0,0.0,-0.008449435,0.0,0.0,0.0,0.0,0.0,0.0,0.0,0.0,101.152565,101.152725,4.0583916,0.0,0.0,0.0,0.0902552,0.0,0.0,0.0,0.0,0.0,2.9764069e-05,0.0008327307,0.0030384993,0.0,0.0,0.0,0.0,0.0,0.0
45450272,0.0,0.0,0.0,-0.03266206,-0.035999965,0.20173645,0.0,0.0,0.0,-0.0010188818,0.0,0.0,0.0,0.0,0.0,0.0,0.0,0.0,101.150604,101.15076,4.0583024,0.0,0.0,0.0,0.090253696,0.0,0.0,0.0,0.0,0.0,0.00013928411,0.0014561744,0.004895204,0.0,0.0,0.0,0.0,0.0,0.0
45648664,0.0,0.0,0.0,-0.033467125,-0.035050415,-0.09693909,0.0,0.0,0.0,-0.019377828,0.0,0.0,0.0,0.0,0.0,0.0,0.0,0.0,101.15092,101.15107,4.058358,0.0,0.0,0.0,0.09025236,0.0,0.0,0.0,0.0,0.0,0.00020078725,0.0019638967,0.0069140936,0.0,0.0,0.0,0.0,0.0,0.0
45855864,0.0,0.0,0.0,-0.034207,-0.03406174,-0.43328857,0.0,0.0,0.0,-0.05742061,0.0,0.0,0.0,0.0,0.0,0.0,0.0,0.0,101.15155,101.1517,4.0584292,0.0,0.0,0.0,0.09025088,0.0,0.0,0.0,0.0,0.0,6.909875e-05,0.002920874,0.010378148,0.0,0.0,0.0,0.0,0.0,0.0
46055064,0.0,0.0,0.0,-0.035059422,-0.03319275,0.20414734,0.0,0.0,0.0,0.07501125,0.0,0.0,0.0,0.0,0.0,0.0,0.0,0.0,101.15174,101.15189,4.0584726,0.0,0.0,0.0,0.09024994,0.0,0.0,0.0,0.0,0.0,0.00029827596,0.00063100626,0.0031705524,0.0,0.0,0.0,0.0,0.0,0.0
46263063,0.0,0.0,0.0,-0.03576614,-0.032771256,0.31896973,0.0,0.0,0.0,-0.022874832,0.0,0.0,0.0,0.0,0.0,0.0,0.0,0.0,101.151764,101.15192,4.0585003,0.0,0.0,0.0,0.09024865,0.0,0.0,0.0,0.0,0.0,0.0006160912,0.0030359614,0.009253555,0.0,0.0,0.0,0.0,0.0,0.0
46462312,0.0,0.0,0.0,-0.036357917,-0.032471646,-0.21073914,0.0,0.0,0.0,-0.048072934,0.0,0.0,0.0,0.0,0.0,0.0,0.0,0.0,101.14801,101.148155,4.0582867,0.0,0.0,0.0,0.090247564,0.0,0.0,0.0,0.0,0.0,3.2465192e-05,0.0037198314,0.012438867,0.0,0.0,0.0,0.0,0.0,0.0
46669470,0.0,0.0,0.0,-0.03714778,-0.031618726,0.1798706,0.0,0.0,0.0,0.0023554564,0.0,0.0,0.0,0.0,0.0,0.0,0.0,0.0,101.14846,101.14861,4.058347,0.0,0.0,0.0,0.090246156,0.0,0.0,0.0,0.0,0.0,0.0003817748,0.0006223498,0.0018502321,0.0,0.0,0.0,0.0,0.0,0.0
46869480,0.0,0.0,0.0,-0.037781168,-0.031177267,0.21661377,0.0,0.0,0.0,0.043083787,0.0,0.0,0.0,0.0,0.0,0.0,0.0,0.0,101.14874,101.148895,4.0583916,0.0,0.0,0.0,0.090244606,0.0,0.0,0.0,0.0,0.0,0.00088736863,0.00085795944,0.0029750236,0.0,0.0,0.0,0.0,0.0,0.0
47068719,0.0,0.0,0.0,-0.03831143,-0.030430079,0.30088806,0.0,0.0,0.0,0.012178183,0.0,0.0,0.0,0.0,0.0,0.0,0.0,0.0,101.145355,101.1455,4.058203,0.0,0.0,0.0,0.09024357,0.0,0.0,0.0,0.0,0.0,0.00086226634,0.00031958809,0.001375883,0.0,0.0,0.0,0.0,0.0,0.0
47276664,0.0,0.0,0.0,-0.0386463,-0.030032337,-0.050827026,0.0,0.0,0.0,0.060722947,0.0,0.0,0.0,0.0,0.0,0.0,0.0,0.0,101.14587,101.146,4.0582623,0.0,0.0,0.0,0.09024238,0.0,0.0,0.0,0.0,0.0,0.00067214185,0.000830712,0.0028812457,0.0,0.0,0.0,0.0,0.0,0.0
47479863,0.0,0.0,0.0,-0.039091043,-0.029367423,-0.04324341,0.0,0.0,0.0,0.011241555,0.0,0.0,0.0,0.0,0.0,0.0,0.0,0.0,101.14423,101.14438,4.058184,0.0,0.0,0.0,0.09024106,0.0,0.0,0.0,0.0,0.0,0.0004376113,0.0017138104,0.00507651,0.0,0.0,0.0,0.0,0.0,0.0
47679096,0.0,0.0,0.0,-0.039558943,-0.028651072,0.22698975,0.0,0.0,0.0,-0.002586484,0.0,0.0,0.0,0.0,0.0,0.0,0.0,0.0,101.14521,101.14535,4.0582685,0.0,0.0,0.0,0.09024007,0.0,0.0,0.0,0.0,0.0,0.0002661775,0.0042048753,0.014089589,0.0,0.0,0.0,0.0,0.0,0.0
47882264,0.0,0.0,0.0,-0.0396777,-0.028088767,-0.03161621,0.0,0.0,0.0,0.029195666,0.0,0.0,0.0,0.0,0.0,0.0,0.0,0.0,101.14171,101.141846,4.0580683,0.0,0.0,0.0,0.090238936,0.0,0.0,0.0,0.0,0.0,0.0008299778,0.0026676203,0.009727309,0.0,0.0,0.0,0.0,0.0,0.0
48090286,0.0,0.0,0.0,-0.039986663,-0.02780443,-0.16714478,0.0,0.0,0.0,-0.06097114,0.0,0.0,0.0,0.0,0.0,0.0,0.0,0.0,101.14472,101.14486,4.0582876,0.0,0.0,0.0,0.090238765,0.0,0.0,0.0,0.0,0.0,0.0010286587,0.00036383956,0.0015364508,0.0,0.0,0.0,0.0,0.0,0.0
48289464,0.0,0.0,0.0,-0.040122345,-0.027377188,-0.039611816,0.0,0.0,0.0,0.030433893,0.0,0.0,0.0,0.0,0.0,0.0,0.0,0.0,101.146065,101.1462,4.058389,0.0,0.0,0.0,0.09023763,0.0,0.0,0.0,0.0,0.0,0.000660551,0.0005624264,0.0018180961,0.0,0.0,0.0,0.0,0.0,0.0
48488664,0.0,0.0,0.0,-0.0400119,-0.026960468,0.041046143,0.0,0.0,0.0,-0.063203216,0.0,0.0,0.0,0.0,0.0,0.0,0.0,0.0,101.14205,101.14219,4.058149,0.0,0.0,0.0,0.090236664,0.0,0.0,0.0,0.0,0.0,3.2579628e-05,0.0013585824,0.004257166,0.0,0.0,0.0,0.0,0.0,0.0
48696681,0.0,0.0,0.0,-0.039962474,-0.026414208,0.24531555,0.0,0.0,0.0,0.018869877,0.0,0.0,0.0,0.0,0.0,0.0,0.0,0.0,101.138885,101.13902,4.0579686,0.0,0.0,0.0,0.090235576,0.0,0.0,0.0,0.0,0.0,0.0001930726,0.0029814576,0.00975838,0.0,0.0,0.0,0.0,0.0,0.0
48899873,0.0,0.0,0.0,-0.03996895,-0.025778882,-0.09188843,0.0,0.0,0.0,0.054948807,0.0,0.0,0.0,0.0,0.0,0.0,0.0,0.0,101.13615,101.13628,4.057815,0.0,0.0,0.0,0.09023463,0.0,0.0,0.0,0.0,0.0,7.755673e-05,0.00077910523,0.0023719743,0.0,0.0,0.0,0.0,0.0,0.0
49099077,0.0,0.0,0.0,-0.040146075,-0.025010576,0.039993286,0.0,0.0,0.0,-0.0054039955,0.0,0.0,0.0,0.0,0.0,0.0,0.0,0.0,101.13961,101.13974,4.058061,0.0,0.0,0.0,0.09023372,0.0,0.0,0.0,0.0,0.0,0.00010817599,0.0017763687,0.0055242954,0.0,0.0,0.0,0.0,0.0,0.0
49306319,0.0,0.0,0.0,-0.04021462,-0.024220554,0.043762207,0.0,0.0,0.0,-0.021260023,0.0,0.0,0.0,0.0,0.0,0.0,0.0,0.0,101.136475,101.136604,4.0578766,0.0,0.0,0.0,0.09023265,0.0,0.0,0.0,0.0,0.0,7.652738e-05,0.0018649993,0.0064916126,0.0,0.0,0.0,0.0,0.0,0.0
49506337,0.0,0.0,0.0,-0.04044568,-0.023522,-0.20736694,0.0,0.0,0.0,0.025877714,0.0,0.0,0.0,0.0,0.0,0.0,0.0,0.0,101.13761,101.13773,4.057967,0.0,0.0,0.0,0.09023175,0.0,0.0,0.0,0.0,0.0,2.6275979e-05,0.0018754485,0.006892483,0.0,0.0,0.0,0.0,0.0,0.0
49713463,0.0,0.0,0.0,-0.0406752,-0.022672053,-0.031600952,0.0,0.0,0.0,0.0065943003,0.0,0.0,0.0,0.0,0.0,0.0,0.0,0.0,101.139305,101.13943,4.058093,0.0,0.0,0.0,0.090230554,0.0,0.0,0.0,0.0,0.0,0.00027257568,0.0019274461,0.0070114196,0.0,0.0,0.0,0.0,0.0,0.0
50926318,0.0,0.0,0.0,-0.040661693,-0.017730268,-0.1570282,0.0,0.0,0.0,0.05079162,0.0,0.0,0.0,0.0,0.0,0.0,0.0,0.0,101.141464,101.14158,4.058283,0.0,0.0,0.0,0.090225786,0.0,0.0,0.0,0.0,0.0,0.0001821083,0.0016918677,0.0065641063,0.0,0.0,0.0,0.0,0.0,0.0
51133464,0.0,0.0,0.0,-0.04042663,-0.017031053,0.1423645,0.0,0.0,0.0,0.013808012,0.0,0.0,0.0,0.0,0.0,0.0,0.0,0.0,101.14212,101.142235,4.0583277,0.0,0.0,0.0,0.0902248,0.0,0.0,0.0,0.0,0.0,0.000315524,0.0014708176,0.005628449,0.0,0.0,0.0,0.0,0.0,0.0
51333473,0.0,0.0,0.0,-0.04026059,-0.015908722,0.08097839,0.0,0.0,0.0,0.024038196,0.0,0.0,0.0,0.0,0.0,0.0,0.0,0.0,101.14281,101.14292,4.058371,0.0,0.0,0.0,0.090223715,0.0,0.0,0.0,0.0,0.0,9.8434e-05,0.004156981,0.0135184005,0.0,0.0,0.0,0.0,0.0,0.0
51536664,0.0,0.0,0.0,-0.040076047,-0.015112811,0.17207336,0.0,0.0,0.0,-0.012462497,0.0,0.0,0.0,0.0,0.0,0.0,0.0,0.0,101.14372,101.14384,4.0584283,0.0,0.0,0.0,0.09022316,0.0,0.0,0.0,0.0,0.0,0.00010329471,0.0024454358,0.008516115,0.0,0.0,0.0,0.0,0.0,0.0
51735870,0.0,0.0,0.0,-0.0399359,-0.014285359,-0.20381165,0.0,0.0,0.0,-0.024488568,0.0,0.0,0.0,0.0,0.0,0.0,0.0,0.0,101.14202,101.142136,4.0583105,0.0,0.0,0.0,0.090222515,0.0,0.0,0.0,0.0,0.0,0.00018309143,0.0028607715,0.009679006,0.0,0.0,0.0,0.0,0.0,0.0
51935876,0.0,0.0,0.0,-0.03996197,-0.013810245,0.051849365,0.0,0.0,0.0,-0.06561816,0.0,0.0,0.0,0.0,0.0,0.0,0.0,0.0,101.142555,101.14267,4.058342,0.0,0.0,0.0,0.09022131,0.0,0.0,0.0,0.0,0.0,0.00023034395,0.00045951302,0.0019740628,0.0,0.0,0.0,0.0,0.0,0.0
52139110,0.0,0.0,0.0,-0.039999504,-0.013649103,0.16677856,0.0,0.0,0.0,0.050384164,0.0,0.0,0.0,0.0,0.0,0.0,0.0,0.0,101.14346,101.14357,4.058397,0.0,0.0,0.0,0.09022078,0.0,0.0,0.0,0.0,0.0,0.00022823045,0.0032732575,0.010851311,0.0,0.0,0.0,0.0,0.0,0.0
52346318,0.0,0.0,0.0,-0.03999799,-0.013271811,0.08459473,0.0,0.0,0.0,-0.0018545389,0.0,0.0,0.0,0.0,0.0,0.0,0.0,0.0,101.14191,101.14201,4.0582905,0.0,0.0,0.0,0.090219624,0.0,0.0,0.0,0.0,0.0,0.00014923362,0.0016165436,0.006089362,0.0,0.0,0.0,0.0,0.0,0.0
52546320,0.0,0.0,0.0,-0.040102243,-0.01310495,-0.0337677,0.0,0.0,0.0,-0.06849587,0.0,0.0,0.0,0.0,0.0,0.0,0.0,0.0,101.14246,101.14258,4.0583215,0.0,0.0,0.0,0.09021899,0.0,0.0,0.0,0.0,0.0,0.0007700619,0.0015975267,0.004885236,0.0,0.0,0.0,0.0,0.0,0.0
52745511,0.0,0.0,0.0,-0.0401372,-0.0131035345,-0.07121277,0.0,0.0,0.0,-0.015193224,0.0,0.0,0.0,0.0,0.0,0.0,0.0,0.0,101.14334,101.14345,4.058374,0.0,0.0,0.0,0.090218365,0.0,0.0,0.0,0.0,0.0,0.0010363378,0.001966826,0.006393495,0.0,0.0,0.0,0.0,0.0,0.0
52952664,0.0,0.0,0.0,-0.04006087,-0.0129685765,0.016220093,0.0,0.0,0.0,-0.06450069,0.0,0.0,0.0,0.0,0.0,0.0,0.0,0.0,101.139435,101.13955,4.058115,0.0,0.0,0.0,0.09021761,0.0,0.0,0.0,0.0,0.0,0.00069771026,0.0002775436,0.0011479643,0.0,0.0,0.0,0.0,0.0,0.0
53152664,0.0,0.0,0.0,-0.04013195,-0.013125233,-0.24943542,0.0,0.0,0.0,-0.08953214,0.0,0.0,0.0,0.0,0.0,0.0,0.0,0.0,101.14014,101.14025,4.0581627,0.0,0.0,0.0,0.09021724,0.0,0.0,0.0,0.0,0.0,0.00039413047,0.0020874627,0.0068164147,0.0,0.0,0.0,0.0,0.0,0.0
53359864,0.0,0.0,0.0,-0.040253535,-0.012896721,0.150177,0.0,0.0,0.0,0.0038847923,0.0,0.0,0.0,0.0,0.0,0.0,0.0,0.0,101.136665,101.13677,4.057941,0.0,0.0,0.0,0.0902169,0.0,0.0,0.0,0.0,0.0,5.110403e-05,0.0003016358,0.001035353,0.0,0.0,0.0,0.0,0.0,0.0
53559079,0.0,0.0,0.0,-0.04067496,-0.012671776,-0.21226501,0.0,0.0,0.0,-0.021318674,0.0,0.0,0.0,0.0,0.0,0.0,0.0,0.0,101.13808,101.13819,4.058039,0.0,0.0,0.0,0.09021587,0.0,0.0,0.0,0.0,0.0,3.9299994e-05,0.0043398603,0.014751497,0.0,0.0,0.0,0.0,0.0,0.0
53767100,0.0,0.0,0.0,-0.041140635,-0.012961525,0.7963257,0.0,0.0,0.0,0.015614867,0.0,0.0,0.0,0.0,0.0,0.0,0.0,0.0,101.13885,101.13896,4.058094,0.0,0.0,0.0,0.090215266,0.0,0.0,0.0,0.0,0.0,0.00015949026,0.0043185633,0.013586462,0.0,0.0,0.0,0.0,0.0,0.0
53966318,0.0,0.0,0.0,-0.041583195,-0.01362132,0.22335815,0.0,0.0,0.0,0.026449323,0.0,0.0,0.0,0.0,0.0,0.0,0.0,0.0,101.140114,101.14023,4.058181,0.0,0.0,0.0,0.09021429,0.0,0.0,0.0,0.0,0.0,0.0003555939,0.006067214,0.020524452,0.0,0.0,0.0,0.0,0.0,0.0
54173507,0.0,0.0,0.0,-0.041886438,-0.013832947,-0.23646545,0.0,0.0,0.0,-0.005120516,0.0,0.0,0.0,0.0,0.0,0.0,0.0,0.0,101.136856,101.13697,4.057977,0.0,0.0,0.0,0.09021345,0.0,0.0,0.0,0.0,0.0,0.00029365713,0.00021323474,0.0018267625,0.0,0.0,0.0,0.0,0.0,0.0
54373470,0.0,0.0,0.0,-0.042377897,-0.014201029,-0.061431885,0.0,0.0,0.0,0.023078918,0.0,0.0,0.0,0.0,0.0,0.0,0.0,0.0,101.137825,101.13794,4.058049,0.0,0.0,0.0,0.09021286,0.0,0.0,0.0,0.0,0.0,0.00024677545,0.00014405647,0.0011175454,0.0,0.0,0.0,0.0,0.0,0.0
54572703,0.0,0.0,0.0,-0.042743534,-0.014751082,0.1903534,0.0,0.0,0.0,-0.0027948618,0.0,0.0,0.0,0.0,0.0,0.0,0.0,0.0,101.134796,101.13491,4.0578647,0.0,0.0,0.0,0.090212025,0.0,0.0,0.0,0.0,0.0,0.0005061703,0.0017072547,0.0059531117,0.0,0.0,0.0,0.0,0.0,0.0
54779888,0.0,0.0,0.0,-0.043064527,-0.015094084,-0.053878784,0.0,0.0,0.0,-0.025537372,0.0,0.0,0.0,0.0,0.0,0.0,0.0,0.0,101.13242,101.13253,4.0577254,0.0,0.0,0.0,0.090211466,0.0,0.0,0.0,0.0,0.0,0.0005539021,0.0012343895,0.0038145895,0.0,0.0,0.0,0.0,0.0,0.0
54979066,0.0,0.0,0.0,-0.04350071,-0.015240714,-0.2216034,0.0,0.0,0.0,-0.0090305805,0.0,0.0,0.0,0.0,0.0,0.0,0.0,0.0,101.133835,101.13395,4.0578322,0.0,0.0,0.0,0.0902109,0.0,0.0,0.0,0.0,0.0,0.0006047554,0.0020650201,0.006831113,0.0,0.0,0.0,0.0,0.0,0.0
55187064,0.0,0.0,0.0,-0.043661296,-0.015335727,-0.009841919,0.0,0.0,0.0,-0.012274027,0.0,0.0,0.0,0.0,0.0,0.0,0.0,0.0,101.13085,101.13097,4.057648,0.0,0.0,0.0,0.09020986,0.0,0.0,0.0,0.0,0.0,0.00021400598,0.0007526758,0.0021923676,0.0,0.0,0.0,0.0,0.0,0.0
55386329,0.0,0.0,0.0,-0.043627683,-0.015464134,0.28179932,0.0,0.0,0.0,0.028155565,0.0,0.0,0.0,0.0,0.0,0.0,0.0,0.0,101.13266,101.132774,4.0577784,0.0,0.0,0.0,0.09020931,0.0,0.0,0.0,0.0,0.0,0.00027464295,0.0028689234,0.009494246,0.0,0.0,0.0,0.0,0.0,0.0
