timestamp,states[0],states[1],states[2],states[3],states[4],states[5],states[6],states[7],states[8],states[9],states[10],states[11],states[12],states[13],states[14],states[15],states[16],states[17],states[18],states[19],states[20],states[21],states[22],states[23],vibe[0],vibe[1],vibe[2],covariances[0],covariances[1],covariances[2],covariances[3],covariances[4],covariances[5],covariances[6],covariances[7],covariances[8],covariances[9],covariances[10],covariances[11],covariances[12],covariances[13],covariances[14],covariances[15],covariances[16],covariances[17],covariances[18],covariances[19],covariances[20],covariances[21],covariances[22],covariances[23],control_mode_flags,pos_horiz_accuracy,pos_vert_accuracy,mag_test_ratio,vel_test_ratio,pos_test_ratio,hgt_test_ratio,tas_test_ratio,hagl_test_ratio,beta_test_ratio,time_slip,gps_check_fail_flags,filter_fault_flags,innovation_check_flags,solution_status_flags,n_states,pre_flt_fail,health_flags,timeout_flags
4501488,0.80931735,-0.053411797,0.027160369,0.58430725,0.007156068,-0.00074747147,0.04938655,0.0007031185,-6.3088315e-05,0.07069586,-8.641155e-06,1.2707876e-07,7.8742814e-05,8.083267e-08,-2.241323e-07,-1.999165e-07,0.11639,0.0012863657,0.40219882,0.0,0.0,0.0,0.0,0.0,1.1611654e-10,8.048851e-06,0.001057402,0.00035436,0.0031722393,0.0031896972,0.0006642065,0.30597848,0.3059118,0.48449355,0.031348966,0.031348158,0.1848117,6.356678e-07,6.366908e-07,5.4815064e-07,2.5550346e-06,2.555023e-06,2.5563347e-06,0.0,0.0,0.0,0.0,0.0,0.0,0.0,0.0,131730,0.0,0.0,0.0027602545,0.0,1.5039848e-05,0.01173393,0.0,0.0,0.0,0.024001,0,0,0,164,24,0,0,0
4512675,0.8085272,-0.053487528,0.02713749,0.5853944,0.007286232,-0.0011640514,0.05002333,0.0007484045,-0.000103640064,0.07110479,-6.7180476e-06,9.776114e-08,6.0668783e-05,6.8179e-08,-2.2331068e-07,-2.0050038e-07,0.11639,0.0012863657,0.40219882,0.0,0.0,0.0,0.0,0.0,1.15754566e-10,8.142352e-06,0.0011778306,0.0003434973,0.0031986835,0.0032163437,0.00064480363,0.31246635,0.31239447,0.48490328,0.032593917,0.032592963,0.18756871,6.355839e-07,6.366908e-07,5.407402e-07,2.5550346e-06,2.555023e-06,2.5563347e-06,0.0,0.0,0.0,0.0,0.0,0.0,0.0,0.0,131730,0.0,0.0,0.08075326,0.0,1.5039848e-05,0.01173393,0.0,0.0,0.0,0.024001,0,0,0,164,24,0,0,0
4712664,0.80864656,-0.053703878,0.027129307,0.5852099,0.010948499,-0.0027801653,0.027548071,0.0013528228,-0.0002970978,0.046740077,-6.8537265e-06,-3.1690697e-09,5.425828e-05,-1.1714326e-06,-1.5374279e-06,1.2048753e-05,0.11639,0.0012863657,0.40219882,0.0,0.0,0.0,0.0,0.0,1.439804e-10,8.379814e-06,0.0014128017,0.00035030418,0.0035392377,0.003558479,0.000666556,0.3048247,0.3046997,0.4187862,0.02816922,0.02816673,0.18281548,6.213367e-07,6.230112e-07,4.805026e-07,2.545311e-06,2.5452805e-06,2.5489153e-06,0.0,0.0,0.0,0.0,0.0,0.0,0.0,0.0,131730,0.0,0.0,0.013045358,0.0,2.873624e-05,0.013604722,0.0,0.0,0.0,0.024001,0,0,0,164,24,0,0,0
4915899,0.8094742,-0.05401889,0.026996726,0.5840417,0.014179321,-0.0033928694,0.07481331,0.0021119728,-0.0004844529,0.08717765,-9.714674e-06,-2.4131143e-07,6.047555e-05,7.219346e-07,-2.0955401e-06,-4.1758e-06,0.11639,0.0012863657,0.40219882,0.0,0.0,0.0,0.0,0.0,1.3756826e-10,8.184453e-06,0.001347978,0.00033866847,0.0035489427,0.0035684393,0.0006541763,0.3397778,0.3396168,0.34830606,0.028162774,0.028158259,0.18326394,5.839304e-07,5.8622345e-07,3.969716e-07,2.529944e-06,2.529908e-06,2.5351783e-06,0.0,0.0,0.0,0.0,0.0,0.0,0.0,0.0,131730,0.0,0.0,0.07419173,0.0,4.473514e-05,0.047174778,0.0,0.0,0.0,0.024001,0,0,0,164,24,0,0,0
5123863,0.80958575,-0.05398939,0.027180078,0.58388144,0.014420004,-0.0040523675,0.08684936,0.0025156524,-0.0006665504,0.10310504,-1.2651166e-05,-4.6067473e-07,5.257658e-05,5.791883e-07,-4.0470563e-06,-1.982684e-06,0.11639,0.0012863657,0.40219882,0.0,0.0,0.0,0.0,0.0,1.2181518e-10,7.936823e-06,0.0008875492,0.00032949718,0.0032026335,0.0032205898,0.0006420667,0.353006,0.35284418,0.28487864,0.030267721,0.030261843,0.18404837,5.2236066e-07,5.2499985e-07,3.1672525e-07,2.5149106e-06,2.5149482e-06,2.514187e-06,0.0,0.0,0.0,0.0,0.0,0.0,0.0,0.0,131730,0.0,0.0,0.09489371,0.0,5.0644358e-05,0.0019948483,0.0,0.0,0.0,0.024001,0,0,0,164,24,0,0,0
5327064,0.80828625,-0.053934984,0.027414255,0.585673,0.014037907,-0.0055766664,0.10742839,0.0024527025,-0.0008296479,0.12835474,-1.312538e-05,-2.2943766e-07,1.6232781e-05,1.1546512e-06,-5.2213427e-06,-8.8218685e-06,0.11639,0.0012863657,0.40219882,0.0,0.0,0.0,0.0,0.0,1.4613151e-10,8.181493e-06,0.0015479502,0.00033506364,0.002660865,0.002676056,0.0006545266,0.31348273,0.31336454,0.23225574,0.029093437,0.02908872,0.1767681,4.5067748e-07,4.5323202e-07,2.618923e-07,2.5057304e-06,2.505967e-06,2.4854467e-06,0.0,0.0,0.0,0.0,0.0,0.0,0.0,0.0,131730,0.0,0.0,0.001618364,0.0,5.207653e-05,0.025624342,0.0,0.0,0.0,0.024001,0,0,0,164,24,0,0,0
5530287,0.8099781,-0.0538568,0.027518185,0.5833333,0.012901012,-0.004708882,0.15054289,0.0024405662,-0.00082633685,0.18761168,-2.0872805e-05,-5.5773893e-07,4.787414e-05,3.6049933e-06,-5.007297e-06,-2.9609511e-05,0.11639,0.0012863657,0.40219882,0.0,0.0,0.0,0.0,0.0,1.3701454e-10,8.006185e-06,0.001466241,0.00031430286,0.0022499475,0.002263195,0.0006158351,0.27556837,0.2754713,0.19311287,0.028690131,0.028686069,0.17094757,3.823988e-07,3.8489057e-07,2.0471701e-07,2.5023091e-06,2.50286e-06,2.4488652e-06,0.0,0.0,0.0,0.0,0.0,0.0,0.0,0.0,131730,0.0,0.0,0.03362198,0.0,5.1869207e-05,0.002130393,0.0,0.0,0.0,0.024001,0,0,0,164,24,0,0,0
5730264,0.8115247,-0.053594105,0.027804287,0.5811905,0.01233901,-0.004791347,0.14721456,0.0023195578,-0.0008012404,0.19718815,-2.7324963e-05,-8.6309694e-07,6.990563e-05,1.9679119e-06,-6.12267e-06,-1.294354e-05,0.11639,0.0012863657,0.40219882,0.0,0.0,0.0,0.0,0.0,1.1713233e-10,7.917036e-06,0.0011119373,0.0003030354,0.0019520482,0.0019638333,0.00059671985,0.23913085,0.23905021,0.16470973,0.027207091,0.027203698,0.16323088,3.200731e-07,3.2233842e-07,1.6405664e-07,2.501428e-06,2.5023896e-06,2.4032745e-06,0.0,0.0,0.0,0.0,0.0,0.0,0.0,0.0,131730,0.0,0.0,0.07087647,0.0,4.905953e-05,0.018551739,0.0,0.0,0.0,0.024001,0,0,0,164,24,0,0,0
5929469,0.8115386,-0.053364832,0.02799691,0.581183,0.012609566,-0.006209117,0.16615972,0.0025324398,-0.001053322,0.23709935,-2.9926758e-05,-5.2865676e-07,6.169111e-05,2.7114816e-06,-5.540287e-06,-2.0201333e-05,0.11639,0.0012863657,0.40219882,0.0,0.0,0.0,0.0,0.0,1.3574136e-10,8.264451e-06,0.0008982507,0.00029052162,0.0018074388,0.001818534,0.0005749093,0.22763868,0.2275614,0.14872994,0.028374396,0.028370827,0.16127425,2.6924212e-07,2.7128382e-07,1.3224262e-07,2.500643e-06,2.50204e-06,2.3544042e-06,0.0,0.0,0.0,0.0,0.0,0.0,0.0,0.0,131730,0.0,0.0,0.0070178737,0.0,5.1484807e-05,0.014603503,0.0,0.0,0.0,0.024001,0,0,0,164,24,0,0,0
6136663,0.812251,-0.05327509,0.028135205,0.58018845,0.011105699,-0.0057215793,0.15912518,0.00247858,-0.001134469,0.24291314,-3.4220393e-05,-2.5760824e-07,6.604734e-05,-4.845723e-07,-6.4755222e-06,1.0229792e-05,0.11639,0.0012863657,0.40219882,0.0,0.0,0.0,0.0,0.0,1.256613e-10,8.151707e-06,0.0012387172,0.00026953142,0.0016305931,0.0016408561,0.00053596887,0.20903623,0.20896514,0.1354853,0.027445199,0.027441822,0.15491807,2.1750387e-07,2.1924443e-07,1.0438891e-07,2.4985216e-06,2.5004888e-06,2.2891697e-06,0.0,0.0,0.0,0.0,0.0,0.0,0.0,0.0,131730,0.0,0.0,0.10125922,0.0,5.0298982e-05,0.00755681,0.0,0.0,0.0,0.024001,0,0,0,164,24,0,0,0
6336670,0.81247455,-0.052965518,0.028356573,0.57989293,0.008196213,-0.004661268,0.11117677,0.0020970006,-0.00106797,0.1883192,-3.721281e-05,3.3128669e-07,6.1680694e-05,-1.0779287e-05,-1.0518623e-05,0.00010689039,0.11639,0.0012863657,0.40219882,0.0,0.0,0.0,0.0,0.0,1.1780757e-10,8.012383e-06,0.0011154438,0.00025579814,0.0014421897,0.0014514591,0.00051127304,0.18975553,0.18969327,0.1261497,0.02570759,0.025704578,0.14766318,1.712701e-07,1.7265901e-07,8.514043e-08,2.4946714e-06,2.4973062e-06,2.211836e-06,0.0,0.0,0.0,0.0,0.0,0.0,0.0,0.0,131730,0.0,0.0,0.0845686,0.0,4.430696e-05,0.0066995895,0.0,0.0,0.0,0.024001,0,0,0,164,24,0,0,0
6543863,0.81267434,-0.052714095,0.028546957,0.5796264,0.006220829,-0.0038165078,0.08867566,0.0017168699,-0.0009483633,0.16505134,-3.950703e-05,9.152165e-07,5.7815523e-05,-1.7153607e-05,-1.2690558e-05,0.00016754339,0.11639,0.0012863657,0.40219882,0.0,0.0,0.0,0.0,0.0,1.3513862e-10,7.959597e-06,0.0010597772,0.0002449614,0.0012670254,0.0012753477,0.00049155427,0.17723425,0.17718205,0.1208432,0.025211118,0.025208296,0.14345446,1.3137593e-07,1.3242914e-07,7.009464e-08,2.4892677e-06,2.492673e-06,2.122116e-06,0.0,0.0,0.0,0.0,0.0,0.0,0.0,0.0,131730,0.0,0.0,0.019816246,0.0,3.6244488e-05,0.008363328,0.0,0.0,0.0,0.024001,0,0,0,164,24,0,0,0
6743073,0.813202,-0.05269593,0.028587218,0.5788855,0.0050865184,-0.0041476134,0.09935777,0.0015178747,-0.000958236,0.18662699,-4.151247e-05,1.2299131e-06,5.9596936e-05,-1.6346168e-05,-1.1669255e-05,0.00016147374,0.11639,0.0012863657,0.40219882,0.0,0.0,0.0,0.0,0.0,1.2359588e-10,8.415107e-06,0.0016859239,0.00023246465,0.0011286999,0.0011362962,0.00046781957,0.17211166,0.172067,0.11935641,0.026318215,0.026315365,0.14339848,1.01680186e-07,1.0248091e-07,5.8170137e-08,2.483566e-06,2.487752e-06,2.0316547e-06,0.0,0.0,0.0,0.0,0.0,0.0,0.0,0.0,131730,0.0,0.0,0.112426154,0.0,3.0290703e-05,0.0060900804,0.0,0.0,0.0,0.024001,0,0,0,164,24,0,0,0
6951106,0.81242174,-0.052480735,0.028681375,0.5799949,0.0035703387,-0.0045107887,0.08862961,0.001173144,-0.0010322039,0.1788587,-4.1423824e-05,2.3208197e-06,4.424168e-05,-2.0589301e-05,-1.3076978e-05,0.00020384425,0.11639,0.0012863657,0.40219882,0.0,0.0,0.0,0.0,0.0,1.2373105e-10,8.392438e-06,0.0013015054,0.00022237212,0.0009555352,0.0009621487,0.00044861197,0.15654296,0.15650943,0.11709247,0.025535025,0.025532652,0.14063418,7.486256e-08,7.541335e-08,4.8664248e-08,2.4766946e-06,2.4818635e-06,1.9186507e-06,0.0,0.0,0.0,0.0,0.0,0.0,0.0,0.0,131730,0.0,0.0,0.008579526,0.0,2.3586781e-05,0.039733544,0.0,0.0,0.0,0.024001,0,0,0,164,24,0,0,0
7154264,0.8110182,-0.05241332,0.028628213,0.58196443,0.003317127,-0.0042581824,0.09807547,0.0009045608,-0.0010424455,0.19942546,-4.0406445e-05,3.7521752e-06,2.4080304e-05,-1.9244912e-05,-1.2126984e-05,0.00019616834,0.11639,0.0012863657,0.40219882,0.0,0.0,0.0,0.0,0.0,1.5199184e-10,8.332658e-06,0.0011118177,0.00021081815,0.00078836497,0.0007940127,0.0004253701,0.13668095,0.13665953,0.11436502,0.023705548,0.02370384,0.13698974,5.4093373e-08,5.44483e-08,4.0897433e-08,2.469722e-06,2.475986e-06,1.7941309e-06,0.0,0.0,0.0,0.0,0.0,0.0,0.0,0.0,131730,0.0,0.0,0.012703996,0.0,2.191889e-05,0.0033844225,0.0,0.0,0.0,0.024001,0,0,0,164,24,0,0,0
7353464,0.80853194,-0.052602928,0.028330177,0.5854114,0.002655022,-0.0032476506,0.072174154,0.00073509855,-0.0009658351,0.17178485,-3.80882e-05,5.593629e-06,-5.3498425e-06,-2.7293323e-05,-1.564114e-05,0.00027688485,0.11639,0.0012863657,0.40219882,0.0,0.0,0.0,0.0,0.0,1.3615536e-10,8.007983e-06,0.0012726893,0.00019562346,0.00065376196,0.00065862556,0.00039410996,0.12064956,0.1206357,0.11178793,0.022489335,0.022488099,0.13466269,3.915692e-08,3.937932e-08,3.4059305e-08,2.463225e-06,2.470656e-06,1.6630183e-06,0.0,0.0,0.0,0.0,0.0,0.0,0.0,0.0,131730,0.0,0.0,0.125447,0.0,2.032877e-05,0.05634653,0.0,0.0,0.0,0.024001,0,0,0,164,24,0,0,0
7553475,0.8070194,-0.052556835,0.028230783,0.5875037,0.001759395,-0.002731264,0.07030586,0.0006239989,-0.00092962384,0.17696281,-3.6939313e-05,6.6930234e-06,-2.1003838e-05,-2.8443277e-05,-1.6065298e-05,0.00029186113,0.11639,0.0012863657,0.40219882,0.0,0.0,0.0,0.0,0.0,1.1906277e-10,7.69287e-06,0.0010620902,0.0001872821,0.00056708587,0.00057143066,0.00037608368,0.11310814,0.113097824,0.11149235,0.02317974,0.023178676,0.13673002,2.9491964e-08,2.9630606e-08,2.9200768e-08,2.4579108e-06,2.4664103e-06,1.543935e-06,0.0,0.0,0.0,0.0,0.0,0.0,0.0,0.0,131730,0.0,0.0,0.046033166,0.0,1.8393246e-05,0.0034474113,0.0,0.0,0.0,0.024001,0,0,0,164,24,0,0,0
7760671,0.80692136,-0.052451164,0.028270848,0.5876459,0.0014785201,-0.0030253392,0.05874552,0.00047791866,-0.0007701373,0.16525061,-3.7451722e-05,7.0488018e-06,-2.0581403e-05,-3.2944743e-05,-1.7865697e-05,0.000335845,0.11639,0.0012863657,0.40219882,0.0,0.0,0.0,0.0,0.0,1.4057142e-10,7.822671e-06,0.0008490281,0.00017651006,0.00046107356,0.00046477103,0.0003527138,0.09430344,0.094297506,0.10668415,0.020572918,0.020572262,0.13164891,2.0743196e-08,2.0804634e-08,2.4751508e-08,2.451906e-06,2.4617627e-06,1.3938395e-06,0.0,0.0,0.0,0.0,0.0,0.0,0.0,0.0,131730,0.0,0.0,0.026661713,0.0,1.6021293e-05,0.04724809,0.0,0.0,0.0,0.024001,0,0,0,164,24,0,0,0
7959873,0.80698794,-0.052502908,0.028236983,0.58755153,0.00032462395,-0.0019269867,0.033692356,0.00037879372,-0.0007055393,0.13468283,-3.793335e-05,7.1947825e-06,-1.852789e-05,-4.0742612e-05,-2.1191012e-05,0.00040950693,0.11639,0.0012863657,0.40219882,0.0,0.0,0.0,0.0,0.0,1.3265956e-10,7.675041e-06,0.00076027896,0.00016969103,0.0004040804,0.00040743657,0.00033775662,0.08787509,0.08787048,0.105390295,0.021122316,0.021121778,0.13410681,1.5755473e-08,1.577855e-08,2.152334e-08,2.4476797e-06,2.4586072e-06,1.2759912e-06,0.0,0.0,0.0,0.0,0.0,0.0,0.0,0.0,131730,0.0,0.0,0.028479194,0.0,1.4181698e-05,0.035295878,0.0,0.0,0.0,0.024001,0,0,0,164,24,0,0,0
8167864,0.8067372,-0.052415762,0.028190762,0.58790565,-0.0013513007,-0.001471935,0.038357165,0.00010933241,-0.00060367014,0.14428641,-3.800094e-05,7.4607256e-06,-1.9554946e-05,-4.01913e-05,-2.087977e-05,0.00040621203,0.11639,0.0012863657,0.40219882,0.0,0.0,0.0,0.0,0.0,1.2393729e-10,7.813311e-06,0.0005571999,0.0001641096,0.00034501305,0.0003480056,0.0003255085,0.077171355,0.077167556,0.101646654,0.020181239,0.020180825,0.1332875,1.1558213e-08,1.1548374e-08,1.8815259e-08,2.443391e-06,2.4555045e-06,1.1461369e-06,0.0,0.0,0.0,0.0,0.0,0.0,0.0,0.0,131730,0.0,0.0,0.010584907,0.0,1.2594479e-05,0.0019398115,0.0,0.0,0.0,0.024001,0,0,0,164,24,0,0,0
8371099,0.80913746,-0.052197482,0.028444655,0.5846049,-0.0016224163,-0.00087928266,0.008722824,-0.00015257775,-0.0004270962,0.100819364,-4.037659e-05,6.5290724e-06,2.2960899e-06,-4.9746763e-05,-2.4853282e-05,0.0004918008,0.11639,0.0012863657,0.40219882,0.0,0.0,0.0,0.0,0.0,1.3789914e-10,8.240756e-06,0.001716595,0.00015793777,0.00030493052,0.00030766075,0.00031270777,0.07066485,0.07066223,0.09882184,0.020254651,0.020254297,0.13514438,8.824643e-09,8.797715e-09,1.6548723e-08,2.4400338e-06,2.4531619e-06,1.0353359e-06,0.0,0.0,0.0,0.0,0.0,0.0,0.0,0.0,131730,0.0,0.0,0.061187625,0.0,8.592026e-06,0.0061023906,0.0,0.0,0.0,0.024001,0,0,0,164,24,0,0,0
8570270,0.80200875,-0.0526215,0.027778842,0.59434116,-0.0017606717,-0.0008724826,0.0052455254,-0.00048734553,-0.0005305941,0.09539901,-4.020586e-05,6.637736e-06,7.4442323e-07,-5.079856e-05,-2.5345655e-05,0.0005021636,0.11316734,0.0012507178,0.40500423,0.0,0.0,0.0,0.0,0.0,1.4555647e-10,8.572472e-06,0.001873313,0.00051154365,0.00029517358,0.0002998756,0.0009312249,0.0713575,0.07135531,0.093432724,0.03162253,0.03162186,0.13288762,8.262351e-09,8.230021e-09,1.6285057e-08,2.438235e-06,2.4524363e-06,9.196102e-07,0.0,0.0,0.0,0.0,0.0,0.0,0.0,0.0,131731,0.25148436,0.36453754,0.128815,0.0,5.2478765e-07,0.0027686127,0.0,0.0,0.0,0.024001,0,0,0,165,24,0,0,0
8778264,0.80700004,-0.05238646,0.028194038,0.58754736,-0.0011129506,-0.0010823413,-0.00036615887,-0.00075219694,-0.0007567022,0.0878279,-4.0363408e-05,6.566406e-06,2.2318172e-06,-5.2264746e-05,-2.5959223e-05,0.00051537034,0.11316734,0.0012507178,0.40500423,0.0,0.0,0.0,0.0,0.0,1.2865452e-10,8.199326e-06,0.0013246203,0.00033928273,0.00029845137,0.0003022088,0.00061815063,0.09007712,0.09007528,0.08826662,0.052589245,0.052588023,0.13095538,8.244923e-09,8.2125045e-09,1.6269057e-08,2.4370088e-06,2.4521992e-06,8.1311e-07,0.0,0.0,0.0,0.0,0.0,0.0,0.0,0.0,131731,0.32431045,0.3618776,0.11028808,0.0,7.473537e-07,0.012261416,0.0,0.0,0.0,0.024001,0,0,0,165,24,0,0,0
8977469,0.8074035,-0.052270535,0.028254796,0.58700013,-0.00094540365,-0.0012019062,0.0003566056,-0.0010024223,-0.0009651561,0.087549955,-4.036162e-05,6.568489e-06,2.2234933e-06,-5.2339397e-05,-2.5991252e-05,0.00051605905,0.11316734,0.0012507178,0.40500423,0.0,0.0,0.0,0.0,0.0,1.2998234e-10,8.12001e-06,0.0010362237,0.0002552624,0.00030424944,0.00030755816,0.0004656473,0.122442625,0.12244095,0.08455677,0.081199884,0.08119802,0.13194391,8.218839e-09,8.186391e-09,1.6233647e-08,2.436005e-06,2.4519863e-06,7.278456e-07,0.0,0.0,0.0,0.0,0.0,0.0,0.0,0.0,131731,0.40298623,0.36324084,0.015336199,0.0,9.85645e-07,0.0047658198,0.0,0.0,0.0,0.024001,0,0,0,165,24,0,0,0
9184717,0.8076231,-0.052306432,0.028207397,0.586697,-0.0012089851,-0.0008113371,0.0026917388,-0.0012333757,-0.0011368225,0.089000136,-4.0401246e-05,6.552322e-06,2.603696e-06,-5.2189782e-05,-2.5912615e-05,0.0005144966,0.11316734,0.0012507178,0.40500423,0.0,0.0,0.0,0.0,0.0,1.4627005e-10,8.536143e-06,0.001417284,0.00020642241,0.00031261545,0.00031570432,0.0003771027,0.17059673,0.170595,0.079299286,0.1235492,0.12354656,0.12960884,8.174043e-09,8.141572e-09,1.6169635e-08,2.4348178e-06,2.4515928e-06,6.41628e-07,0.0,0.0,0.0,0.0,0.0,0.0,0.0,0.0,131731,0.49708727,0.36001226,0.03293949,0.0,1.2144126e-06,0.030687217,0.0,0.0,0.0,0.024001,0,0,0,165,24,0,0,0
9384698,0.8098096,-0.052272204,0.028334837,0.58367205,-0.0012735741,-0.00053695246,0.002317173,-0.0014785642,-0.0012235319,0.088885,-4.079e-05,6.376686e-06,6.2435092e-06,-5.2496172e-05,-2.596653e-05,0.00051613525,0.11316734,0.0012507178,0.40500423,0.0,0.0,0.0,0.0,0.0,1.3431882e-10,8.34826e-06,0.00094140787,0.00017121444,0.00032230167,0.00032525626,0.0003134445,0.23042019,0.23041798,0.073871285,0.18157542,0.181572,0.12598291,8.109453e-09,8.077143e-09,1.60563e-08,2.433232e-06,2.4506944e-06,5.659773e-07,0.0,0.0,0.0,0.0,0.0,0.0,0.0,0.0,131731,0.60261714,0.3549407,0.004834454,0.0,1.4689878e-06,0.009193177,0.0,0.0,0.0,0.024001,0,0,0,165,24,0,0,0
9587863,0.8104486,-0.05218408,0.028465101,0.58278626,-0.0011544876,0.00029200138,0.014490112,-0.0016867464,-0.0012170059,0.109625734,-4.0942185e-05,6.3090474e-06,7.665248e-06,-4.9707327e-05,-2.46534e-05,0.0004894835,0.11316734,0.0012507178,0.40500423,0.0,0.0,0.0,0.0,0.0,1.4070897e-10,8.4277e-06,0.0018681982,0.00015070978,0.00033314704,0.00033604456,0.00027670656,0.30325982,0.30325827,0.0701866,0.2634052,0.2634009,0.12627414,8.031931e-09,7.999859e-09,1.591461e-08,2.430956e-06,2.4489489e-06,5.062086e-07,0.0,0.0,0.0,0.0,0.0,0.0,0.0,0.0,131731,0.7258141,0.35535073,0.02147935,0.0,1.6736328e-06,0.027106702,0.0,0.0,0.0,0.024001,0,0,0,165,24,0,0,0
9786319,0.8099979,-0.05226782,0.028411135,0.58340746,-0.0010327123,0.00055556087,0.014076619,-0.001810081,-0.001104115,0.11072944,-4.0774645e-05,6.3895623e-06,6.1451537e-06,-4.998738e-05,-2.47794e-05,0.00049228687,0.11316734,0.0012507178,0.40500423,0.0,0.0,0.0,0.0,0.0,1.4776996e-10,8.555669e-06,0.0023735682,0.0001362675,0.00034346763,0.00034634734,0.00025108413,0.38708025,0.3870789,0.06509978,0.37572044,0.37571552,0.12292526,7.919327e-09,7.8874365e-09,1.5727082e-08,2.426608e-06,2.4451037e-06,4.468791e-07,0.0,0.0,0.0,0.0,0.0,0.0,0.0,0.0,131731,0.8668541,0.35060698,0.036039915,0.0,1.7992844e-06,0.041453514,0.0,0.0,0.0,0.024001,0,0,0,165,24,0,0,0
9995070,0.8112238,-0.05227314,0.028460184,0.58169895,-0.0010001078,0.00039625642,0.010932503,-0.0018613525,-0.0009209977,0.1085224,-4.1264444e-05,6.1679416e-06,1.0754132e-05,-5.0855633e-05,-2.5037341e-05,0.00049868575,0.11316734,0.0012507178,0.40500423,0.0,0.0,0.0,0.0,0.0,1.3208341e-10,8.6320615e-06,0.0024654577,0.00012429086,0.00035266075,0.00035553076,0.00023000006,0.47976938,0.479767,0.06054119,0.5247602,0.52475464,0.119895786,7.776825e-09,7.74543e-09,1.5460357e-08,2.4192345e-06,2.4381318e-06,3.948833e-07,0.0,0.0,0.0,0.0,0.0,0.0,0.0,0.0,131731,1.0244583,0.3462597,0.11120409,0.0,1.8654664e-06,0.002732157,0.0,0.0,0.0,0.024001,0,0,0,165,24,0,0,0
10194273,0.81084967,-0.052196205,0.02851358,0.58222455,-0.0012462906,0.0008310711,0.0104402015,-0.002035396,-0.0008065036,0.10695295,-4.1033873e-05,6.276799e-06,8.661573e-06,-5.1299627e-05,-2.5228901e-05,0.0005030863,0.11316734,0.0012507178,0.40500423,0.0,0.0,0.0,0.0,0.0,1.3240378e-10,8.123214e-06,0.0022147705,0.00011714143,0.0003595562,0.00036241807,0.00021781388,0.57347906,0.5734765,0.057195283,0.7076304,0.70762396,0.1195008,7.6255695e-09,7.594778e-09,1.516872e-08,2.409175e-06,2.4283415e-06,3.5428027e-07,0.0,0.0,0.0,0.0,0.0,0.0,0.0,0.0,131731,1.1896446,0.34568888,0.10281662,0.0,2.002754e-06,0.019590292,0.0,0.0,0.0,0.024001,0,0,0,165,24,0,0,0
10402285,0.81028455,-0.05232046,0.028426245,0.58300394,-0.000719389,0.0007537324,0.0049520805,-0.0021321487,-0.0006301682,0.0994181,-4.0693663e-05,6.436378e-06,5.571701e-06,-5.226357e-05,-2.5657946e-05,0.00051253615,0.11316734,0.0012507178,0.40500423,0.0,0.0,0.0,0.0,0.0,1.4458856e-10,8.050966e-06,0.0017100308,0.000112404974,0.00036154996,0.00036439914,0.00021002917,0.66334474,0.6633421,0.05311511,0.92602,0.92601347,0.11639289,7.432639e-09,7.4023565e-09,1.48252e-08,2.3931789e-06,2.412548e-06,3.1444898e-07,0.0,0.0,0.0,0.0,0.0,0.0,0.0,0.0,131731,1.3608943,0.34116402,0.04190024,0.0,2.132196e-06,0.014545002,0.0,0.0,0.0,0.024001,0,0,0,165,24,0,0,0
10605473,0.8098154,-0.05240801,0.02833284,0.58365214,-0.0006884142,0.00020445685,-0.0014373708,-0.0021714559,-0.0005686326,0.08970076,-4.0381372e-05,6.5813424e-06,2.740828e-06,-5.334621e-05,-2.615312e-05,0.000522986,0.11316734,0.0012507178,0.40500423,0.0,0.0,0.0,0.0,0.0,1.2960627e-10,8.478384e-06,0.0018058331,0.00011184696,0.00036037076,0.00036320978,0.00020987746,0.7422123,0.7422081,0.050109036,1.1656414,1.1656352,0.11557478,7.2462485e-09,7.216204e-09,1.4521609e-08,2.3743567e-06,2.3938217e-06,2.8334048e-07,0.0,0.0,0.0,0.0,0.0,0.0,0.0,0.0,131731,1.5268519,0.3399629,0.005925349,0.0,2.1600922e-06,0.013556194,0.0,0.0,0.0,0.024001,0,0,0,165,24,0,0,0
10804664,0.81034184,-0.052294277,0.028498406,0.58292323,0.00014969076,0.0003044405,-0.0027271593,-0.0019211269,-0.0003683028,0.0883113,-4.0693532e-05,6.4380943e-06,5.7152038e-06,-5.3647207e-05,-2.6139081e-05,0.0005245348,0.11316734,0.0012507178,0.40500423,0.0,0.0,0.0,0.0,0.0,1.3515837e-10,8.185028e-06,0.0012947544,0.00011053122,0.0003518338,0.00035460532,0.00020829264,0.7968233,0.7968206,0.04636237,1.4054826,1.405477,0.11193212,7.030708e-09,7.0014345e-09,1.4115826e-08,2.3487523e-06,2.3682394e-06,2.529757e-07,0.0,0.0,0.0,0.0,0.0,0.0,0.0,0.0,131731,1.6765918,0.33456257,0.06788658,0.0,1.9350605e-06,0.00068156887,0.0,0.0,0.0,0.024001,0,0,0,165,24,0,0,0
11011105,0.8101512,-0.052379265,0.028484574,0.5831809,0.00021308895,-0.00031721644,0.014484211,-0.0015819604,-0.0004327615,0.1174268,-4.0526993e-05,6.518543e-06,4.212997e-06,-5.07496e-05,-2.4566094e-05,0.0004974361,0.11316734,0.0012507178,0.40500423,0.0,0.0,0.0,0.0,0.0,1.468921e-10,8.4465055e-06,0.0011062276,0.00011032395,0.00034033923,0.00034304077,0.00020880417,0.83021736,0.8302148,0.04315095,1.6409516,1.640946,0.1089902,6.820656e-09,6.7925923e-09,1.3669832e-08,2.3197315e-06,2.3391706e-06,2.2680398e-07,0.0,0.0,0.0,0.0,0.0,0.0,0.0,0.0,131731,1.8116008,0.33013663,0.0047752163,0.0,1.6075392e-06,0.009362277,0.0,0.0,0.0,0.024001,0,0,0,165,24,0,0,0
11211869,0.8103649,-0.052423816,0.028410247,0.5828838,0.00090092403,-0.00021503856,0.024217634,-0.0011629966,-0.00047480958,0.13691415,-4.0645722e-05,6.466326e-06,5.3437852e-06,-4.9273705e-05,-2.3687144e-05,0.00048301436,0.11316734,0.0012507178,0.40500423,0.0,0.0,0.0,0.0,0.0,1.4307172e-10,8.42749e-06,0.00092685054,0.000108593325,0.00032968976,0.0003323169,0.0002063757,0.8471787,0.8471777,0.040779024,1.8611269,1.861123,0.108000316,6.643936e-09,6.618627e-09,1.3107178e-08,2.2921508e-06,2.3115044e-06,2.0629005e-07,0.0,0.0,0.0,0.0,0.0,0.0,0.0,0.0,131731,1.9293133,0.32863402,0.034417827,0.0,1.1981614e-06,0.015957478,0.0,0.0,0.0,0.024001,0,0,0,165,24,0,0,0
11411092,0.8100753,-0.052394714,0.02839234,0.58328956,0.00070499943,-0.0011794682,0.018008603,-0.000954319,-0.000570179,0.12760521,-4.038293e-05,6.5880877e-06,2.9438747e-06,-5.052045e-05,-2.4347517e-05,0.00049482053,0.11316734,0.0012507178,0.40500423,0.0,0.0,0.0,0.0,0.0,1.4369464e-10,8.475824e-06,0.0010447112,0.00010735603,0.0003187759,0.00032132384,0.00020482173,0.84423625,0.84423435,0.03852334,2.05341,2.0534072,0.10694514,6.483976e-09,6.4618084e-09,1.2527134e-08,2.2643876e-06,2.2836332e-06,1.8810786e-07,0.0,0.0,0.0,0.0,0.0,0.0,0.0,0.0,131731,2.0265284,0.32702467,0.0010103849,0.0,8.9949856e-07,0.043077197,0.0,0.0,0.0,0.024001,0,0,0,165,24,0,0,0
11618264,0.8097578,-0.05242964,0.028348854,0.5837292,0.0020451045,-0.00147311,0.021618076,-0.00053360086,-0.0007517026,0.13527992,-4.0124487e-05,6.711271e-06,5.585455e-07,-5.0197643e-05,-2.4170266e-05,0.00049191184,0.11316734,0.0012507178,0.40500423,0.0,0.0,0.0,0.0,0.0,1.6456873e-10,8.668473e-06,0.00087960344,0.00010836836,0.0003063157,0.00030879086,0.0002074313,0.81161255,0.81161654,0.03586492,2.1817234,2.1817212,0.10384698,6.3296435e-09,6.3101298e-09,1.2007345e-08,2.23469e-06,2.2538063e-06,1.7024561e-07,0.0,0.0,0.0,0.0,0.0,0.0,0.0,0.0,131731,2.088886,0.322253,0.033329,0.0,7.67798e-07,0.009586823,0.0,0.0,0.0,0.024001,0,0,0,165,24,0,0,0
11818283,0.8098898,-0.052534714,0.028295044,0.5835392,0.002710241,-0.0025940712,0.016039131,-9.066085e-05,-0.0009648821,0.12515616,-4.0231316e-05,6.6619955e-06,1.5688994e-06,-5.1430332e-05,-2.4812378e-05,0.00050285045,0.11316734,0.0012507178,0.40500423,0.0,0.0,0.0,0.0,0.0,1.4353899e-10,8.569998e-06,0.0007283264,0.0001074634,0.00029961913,0.00030205218,0.00020627631,0.7797561,0.77976316,0.03395628,2.297868,2.2978683,0.10274716,6.2121273e-09,6.196718e-09,1.138649e-08,2.2107033e-06,2.2297083e-06,1.5642026e-07,0.0,0.0,0.0,0.0,0.0,0.0,0.0,0.0,131731,2.1437669,0.32054198,0.037458055,0.0,9.000356e-07,0.017164636,0.0,0.0,0.0,0.024001,0,0,0,165,24,0,0,0
12025476,0.80872744,-0.052460223,0.028261816,0.5851576,0.0034870203,-0.0031379997,0.019397799,0.0004446673,-0.0014753365,0.1323178,-3.9331044e-05,7.0863016e-06,-6.805213e-06,-5.0964183e-05,-2.4693638e-05,0.00049960625,0.11316734,0.0012507178,0.40500423,0.0,0.0,0.0,0.0,0.0,1.2848074e-10,8.149928e-06,0.0013647886,0.00010712766,0.00029425422,0.00029664164,0.00020616275,0.7292899,0.7293001,0.031764563,2.3520153,2.3520174,0.10010988,6.102978e-09,6.091745e-09,1.076986e-08,2.187173e-06,2.206067e-06,1.4295166e-07,0.0,0.0,0.0,0.0,0.0,0.0,0.0,0.0,131731,2.1688783,0.31640145,0.1117441,0.0,1.4498339e-06,0.00924971,0.0,0.0,0.0,0.024001,0,0,0,165,24,0,0,0
12226319,0.80937254,-0.052396502,0.028357916,0.58426595,0.0046072816,-0.0031314662,0.020202748,0.0011543147,-0.0016758821,0.13530283,-3.9831702e-05,6.8569675e-06,-2.1924595e-06,-5.1234147e-05,-2.4781131e-05,0.00050068856,0.11316734,0.0012507178,0.40500423,0.0,0.0,0.0,0.0,0.0,1.350359e-10,8.066551e-06,0.0013116196,0.00010641766,0.00029231736,0.00029468266,0.00020527614,0.67315614,0.67316955,0.029665178,2.3524823,2.3524866,0.09683785,6.0129e-09,6.0059784e-09,1.01653646e-08,2.167294e-06,2.1860947e-06,1.3127438e-07,0.0,0.0,0.0,0.0,0.0,0.0,0.0,0.0,131731,2.169094,0.3111878,0.015324801,0.0,1.6897004e-06,0.0075379843,0.0,0.0,0.0,0.024001,0,0,0,165,24,0,0,0
12424664,0.8097946,-0.05244006,0.028355006,0.5836769,0.0047568167,-0.0039130477,0.0318936,0.0019421362,-0.002020914,0.16219051,-4.016503e-05,6.711508e-06,8.135145e-07,-4.9772752e-05,-2.3907842e-05,0.00048609165,0.11316734,0.0012507178,0.40500423,0.0,0.0,0.0,0.0,0.0,1.3380486e-10,8.577855e-06,0.0016334951,0.00010432921,0.00029682575,0.00029920638,0.00020175302,0.6336684,0.63368225,0.028233405,2.3886454,2.388652,0.09614171,5.9437246e-09,5.9418865e-09,9.508861e-09,2.1525375e-06,2.1712715e-06,1.22141e-07,0.0,0.0,0.0,0.0,0.0,0.0,0.0,0.0,131731,2.185703,0.31006727,0.005037579,0.0,1.9875674e-06,0.003692328,0.0,0.0,0.0,0.024001,0,0,0,165,24,0,0,0
12631869,0.8107631,-0.052343283,0.028479673,0.5823334,0.0053020567,-0.003866249,0.027864464,0.0024604937,-0.0022479703,0.15544654,-4.08675e-05,6.384776e-06,7.304098e-06,-5.094148e-05,-2.4564342e-05,0.00049529405,0.11316734,0.0012507178,0.40500423,0.0,0.0,0.0,0.0,0.0,1.2768608e-10,8.6005375e-06,0.0011831605,0.00010407153,0.00030377388,0.0003061878,0.00020181907,0.58537936,0.5853945,0.026546434,2.3645053,2.3645146,0.09373737,5.878532e-09,5.880952e-09,8.946726e-09,2.139033e-06,2.1577105e-06,1.13138746e-07,0.0,0.0,0.0,0.0,0.0,0.0,0.0,0.0,131731,2.174631,0.3061656,0.03300775,0.0,2.4654555e-06,0.011592179,0.0,0.0,0.0,0.024001,0,0,0,165,24,0,0,0
12831082,0.8109297,-0.052326683,0.02850758,0.5821017,0.005680643,-0.0032922,0.016608564,0.002903604,-0.0023839592,0.13413198,-4.0938692e-05,6.349076e-06,7.967266e-06,-5.275762e-05,-2.5734942e-05,0.00051167933,0.11316734,0.0012507178,0.40500423,0.0,0.0,0.0,0.0,0.0,1.3958336e-10,8.295441e-06,0.0014057172,0.00010332135,0.00031503383,0.00031750678,0.00020095968,0.55224717,0.55226594,0.025322521,2.365653,2.3656635,0.092952885,5.826583e-09,5.833232e-09,8.406663e-09,2.1294356e-06,2.1480762e-06,1.0606841e-07,0.0,0.0,0.0,0.0,0.0,0.0,0.0,0.0,131731,2.175159,0.30488175,0.020557791,0.0,2.8989134e-06,0.035092063,0.0,0.0,0.0,0.024001,0,0,0,165,24,0,0,0
13031068,0.81113285,-0.052365027,0.02846884,0.5818169,0.0057398877,-0.0036663779,0.0129056955,0.0033338491,-0.0025247606,0.12722825,-4.1031373e-05,6.308522e-06,8.781798e-06,-5.3487154e-05,-2.6263338e-05,0.00051793974,0.11316734,0.0012507178,0.40500423,0.0,0.0,0.0,0.0,0.0,1.2606373e-10,7.978817e-06,0.0015736816,0.00010249719,0.00032745517,0.0003299979,0.00019996047,0.51257247,0.51259387,0.023776514,2.3019896,2.3020005,0.0900595,5.773806e-09,5.7844587e-09,7.890464e-09,2.1210035e-06,2.1396165e-06,9.9027616e-08,0.0,0.0,0.0,0.0,0.0,0.0,0.0,0.0,131731,2.1456912,0.30009913,0.07616693,0.0,3.3915367e-06,0.013032827,0.0,0.0,0.0,0.024001,0,0,0,165,24,0,0,0
13238300,0.81199145,-0.052222464,0.028602434,0.58062434,0.005844654,-0.0035480235,0.010971972,0.0038509564,-0.0027054395,0.12340996,-4.1591506e-05,6.0497327e-06,1.3931553e-05,-5.4079785e-05,-2.6627564e-05,0.0005222792,0.11316734,0.0012507178,0.40500423,0.0,0.0,0.0,0.0,0.0,1.3494114e-10,8.4667545e-06,0.0014056124,0.00010318968,0.0003452124,0.00034785652,0.00020197249,0.49320993,0.49323365,0.02279648,2.3042526,2.304265,0.08994385,5.7293295e-09,5.743402e-09,7.449261e-09,2.1153232e-06,2.1339233e-06,9.348593e-08,0.0,0.0,0.0,0.0,0.0,0.0,0.0,0.0,131731,2.146746,0.2999064,0.07091763,0.0,3.8344865e-06,0.025454503,0.0,0.0,0.0,0.024001,0,0,0,165,24,0,0,0
13438284,0.81066734,-0.052265845,0.028485563,0.5824735,0.00608714,-0.003728861,0.0031063738,0.0040388405,-0.0028317745,0.10389928,-4.059568e-05,6.518542e-06,4.6531536e-06,-5.5029283e-05,-2.7509244e-05,0.000532741,0.11316734,0.0012507178,0.40500423,0.0,0.0,0.0,0.0,0.0,1.4028238e-10,8.281421e-06,0.001068956,0.000100735815,0.00036269144,0.00036542214,0.00019774844,0.4680519,0.46807796,0.021474296,2.2347481,2.2347612,0.08725244,5.679789e-09,5.6980434e-09,6.9163875e-09,2.1106555e-06,2.1292503e-06,8.7990145e-08,0.0,0.0,0.0,0.0,0.0,0.0,0.0,0.0,131731,2.1141214,0.29538524,0.10415048,0.0,4.0220903e-06,0.010705164,0.0,0.0,0.0,0.024001,0,0,0,165,24,0,0,0
13641470,0.8102318,-0.05230756,0.028404437,0.5830795,0.005896833,-0.0046315948,-0.0019967672,0.004347389,-0.003096653,0.091964796,-4.0291405e-05,6.664918e-06,1.7704398e-06,-5.564037e-05,-2.8042898e-05,0.00053872843,0.11316734,0.0012507178,0.40500423,0.0,0.0,0.0,0.0,0.0,1.3136107e-10,8.046672e-06,0.00083639246,9.9689845e-05,0.0003821626,0.0003850031,0.00019604154,0.4522758,0.45230258,0.0202798,2.1756594,2.1756754,0.08502268,5.630284e-09,5.6519003e-09,6.4743286e-09,2.1074752e-06,2.1260726e-06,8.316434e-08,0.0,0.0,0.0,0.0,0.0,0.0,0.0,0.0,131731,2.0859852,0.2915865,0.021953622,0.0,4.3916284e-06,0.0033603138,0.0,0.0,0.0,0.024001,0,0,0,165,24,0,0,0
13848684,0.81036824,-0.05225846,0.028455928,0.5828917,0.0056141415,-0.0049327086,0.0004259999,0.0047413725,-0.003465181,0.09671339,-4.038009e-05,6.632958e-06,2.4857209e-06,-5.5419827e-05,-2.7929367e-05,0.00053636427,0.11316734,0.0012507178,0.40500423,0.0,0.0,0.0,0.0,0.0,1.1767728e-10,8.018687e-06,0.0011939901,9.894553e-05,0.0004056915,0.00040866545,0.00019494933,0.4536168,0.45364535,0.019523961,2.173765,2.1737843,0.0849701,5.5832596e-09,5.608023e-09,6.059637e-09,2.1056494e-06,2.124255e-06,7.934178e-08,0.0,0.0,0.0,0.0,0.0,0.0,0.0,0.0,131731,2.0850778,0.2914963,0.021749137,0.0,4.7178223e-06,0.014210199,0.0,0.0,0.0,0.024001,0,0,0,165,24,0,0,0
14047880,0.8106043,-0.052163087,0.028552616,0.5825672,0.005739266,-0.005172042,-0.01082938,0.004831293,-0.0037162616,0.069415286,-4.052207e-05,6.5650047e-06,3.7709506e-06,-5.690091e-05,-2.8967248e-05,0.0005495486,0.11316734,0.0012507178,0.40500423,0.0,0.0,0.0,0.0,0.0,1.15501775e-10,8.101267e-06,0.0010499536,9.653652e-05,0.00042778492,0.00043087057,0.000190552,0.45091552,0.45094657,0.01846986,2.1111019,2.1111224,0.08253661,5.5256817e-09,5.5536207e-09,5.6238205e-09,2.1044648e-06,2.1230837e-06,7.549837e-08,0.0,0.0,0.0,0.0,0.0,0.0,0.0,0.0,131731,2.054805,0.28729185,0.041767385,0.0,4.8858947e-06,0.0029053441,0.0,0.0,0.0,0.024001,0,0,0,165,24,0,0,0
14247863,0.81015337,-0.052121237,0.028543178,0.58319837,0.006055906,-0.0053511187,-0.012318591,0.005109012,-0.0041402993,0.062712826,-4.0227973e-05,6.712648e-06,9.408628e-07,-5.7028356e-05,-2.916117e-05,0.000551275,0.11316734,0.0012507178,0.40500423,0.0,0.0,0.0,0.0,0.0,1.1380053e-10,8.29671e-06,0.00090613484,9.540034e-05,0.00045198842,0.00045520705,0.00018860617,0.46322334,0.46325725,0.017764267,2.1001017,2.1001248,0.081969276,5.4694027e-09,5.499816e-09,5.265822e-09,2.103963e-06,2.1225956e-06,7.245796e-08,0.0,0.0,0.0,0.0,0.0,0.0,0.0,0.0,131731,2.0494454,0.28630278,0.03997133,0.0,5.081437e-06,0.019332614,0.0,0.0,0.0,0.024001,0,0,0,165,24,0,0,0
14447909,0.81052405,-0.05199954,0.028645137,0.5826888,0.0065035718,-0.0050511793,-0.014514163,0.0053523425,-0.0043768175,0.056158245,-4.0471692e-05,6.608649e-06,3.0684205e-06,-5.7312056e-05,-2.9309998e-05,0.0005532189,0.11316734,0.0012507178,0.40500423,0.0,0.0,0.0,0.0,0.0,1.4540084e-10,8.564196e-06,0.0009144411,9.4205156e-05,0.0004752672,0.00047860958,0.00018653576,0.4746837,0.47472015,0.016862867,2.0496252,2.0496514,0.07975633,5.3987224e-09,5.431181e-09,4.9307864e-09,2.1037742e-06,2.1224223e-06,6.940236e-08,0.0,0.0,0.0,0.0,0.0,0.0,0.0,0.0,131731,2.024667,0.28241163,0.021872368,0.0,5.422519e-06,0.018649744,0.0,0.0,0.0,0.024001,0,0,0,165,24,0,0,0
14655071,0.81080586,-0.0521679,0.028533624,0.5822871,0.0071186847,-0.0061597726,-0.00036357538,0.0059289546,-0.0048326417,0.08935306,-4.068122e-05,6.538505e-06,4.7472254e-06,-5.5727916e-05,-2.8107928e-05,0.00053823594,0.11316734,0.0012507178,0.40500423,0.0,0.0,0.0,0.0,0.0,1.6685522e-10,8.270479e-06,0.0013503315,9.2185095e-05,0.0005013394,0.0005048347,0.00018283373,0.50275135,0.502791,0.016299196,2.060208,2.0602388,0.07965054,5.325607e-09,5.360208e-09,4.581842e-09,2.1037374e-06,2.1223984e-06,6.6953056e-08,0.0,0.0,0.0,0.0,0.0,0.0,0.0,0.0,131731,2.0298884,0.28222427,0.018099966,0.0,5.91481e-06,0.024838988,0.0,0.0,0.0,0.024001,0,0,0,165,24,0,0,0
14854272,0.8107121,-0.05235473,0.02839837,0.5824074,0.007182256,-0.005805516,-0.00045602684,0.0063781105,-0.005191553,0.09302186,-4.061427e-05,6.587527e-06,3.9347265e-06,-5.552147e-05,-2.795587e-05,0.0005365092,0.11316734,0.0012507178,0.40500423,0.0,0.0,0.0,0.0,0.0,1.3333241e-10,8.118682e-06,0.0011067928,9.09633e-05,0.000525412,0.0005290582,0.00018075171,0.5331978,0.53324074,0.015707672,2.0614276,2.0614612,0.07898949,5.2415e-09,5.277541e-09,4.295128e-09,2.103618e-06,2.12229e-06,6.4717106e-08,0.0,0.0,0.0,0.0,0.0,0.0,0.0,0.0,131731,2.0304897,0.28105068,0.005569849,0.0,6.3316406e-06,0.0052882177,0.0,0.0,0.0,0.024001,0,0,0,165,24,0,0,0
15057464,0.8112246,-0.05212297,0.028554969,0.5817065,0.0074766404,-0.0053567276,-0.01027498,0.0065583703,-0.005313542,0.06786486,-4.090273e-05,6.4629444e-06,6.4657506e-06,-5.6648252e-05,-2.870738e-05,0.0005467015,0.11316734,0.0012507178,0.40500423,0.0,0.0,0.0,0.0,0.0,1.3548507e-10,8.160344e-06,0.0014076093,8.9704685e-05,0.0005466664,0.0005504218,0.00017855955,0.5619085,0.561954,0.014949196,2.0288744,2.0289106,0.07687602,5.133166e-09,5.170116e-09,4.027155e-09,2.1031499e-06,2.1218302e-06,6.2448365e-08,0.0,0.0,0.0,0.0,0.0,0.0,0.0,0.0,131731,2.0143945,0.27726525,0.00824734,0.0,6.6227904e-06,0.0055247457,0.0,0.0,0.0,0.024001,0,0,0,165,24,0,0,0
16067064,0.81031567,-0.052255034,0.028338905,0.5829706,0.007018462,-0.005709653,-0.0001277488,0.007384527,-0.006288085,0.09595204,-4.0496318e-05,6.803666e-06,1.1313401e-06,-5.4835396e-05,-2.6977155e-05,0.00053343055,0.11316734,0.0012507178,0.40500423,0.0,0.0,0.0,0.0,0.0,1.4390451e-10,8.264046e-06,0.001519356,8.366001e-05,0.0006246057,0.0006288171,0.00016759391,0.77972376,0.77977145,0.012355942,2.0995755,2.099623,0.07127945,4.377308e-09,4.413335e-09,2.9444585e-09,2.08903e-06,2.1076219e-06,5.429864e-08,0.0,0.0,0.0,0.0,0.0,0.0,0.0,0.0,131731,2.0491946,0.2669821,0.004924169,0.0,7.411248e-06,0.018375931,0.0,0.0,0.0,0.024001,0,0,0,165,24,0,0,0
16274270,0.8099783,-0.05224444,0.028352214,0.58343977,0.006743685,-0.0051918165,-0.0025462774,0.0073837275,-0.0062397905,0.09024279,-4.034069e-05,6.9098846e-06,-6.7188887e-07,-5.48603e-05,-2.6897298e-05,0.00053486077,0.11316734,0.0012507178,0.40500423,0.0,0.0,0.0,0.0,0.0,1.4380512e-10,8.379195e-06,0.0021290497,8.171468e-05,0.00062924414,0.0006334758,0.00016387705,0.82356,0.8236069,0.011906155,2.1265004,2.1265492,0.07006034,4.164789e-09,4.199556e-09,2.7488503e-09,2.0823848e-06,2.1009225e-06,5.2974816e-08,0.0,0.0,0.0,0.0,0.0,0.0,0.0,0.0,131731,2.0622923,0.26468915,0.14477676,0.0,7.4725995e-06,0.039124236,0.0,0.0,0.0,0.024001,0,0,0,165,24,0,0,0
16473470,0.8094157,-0.0523162,0.028268222,0.5842176,0.0075806384,-0.0052741887,-0.005081759,0.0075045046,-0.006211744,0.08632682,-4.0086627e-05,7.059828e-06,-3.3662081e-06,-5.4773547e-05,-2.675117e-05,0.0005352881,0.11316734,0.0012507178,0.40500423,0.0,0.0,0.0,0.0,0.0,1.3073276e-10,8.1781e-06,0.0019346785,8.048643e-05,0.0006320784,0.0006363274,0.00016148004,0.8696765,0.86972547,0.011589245,2.1843207,2.1843712,0.0696801,3.9617896e-09,3.9951153e-09,2.5881328e-09,2.0752223e-06,2.0937002e-06,5.1873556e-08,0.0,0.0,0.0,0.0,0.0,0.0,0.0,0.0,131731,2.0901415,0.2639699,0.047201317,0.0,7.5320036e-06,0.030200625,0.0,0.0,0.0,0.024001,0,0,0,165,24,0,0,0
16681464,0.8095134,-0.052176733,0.028325394,0.58409196,0.007860131,-0.004239709,-0.006978152,0.0075883465,-0.0060153035,0.08179314,-4.0190273e-05,7.0463675e-06,-2.7959127e-06,-5.480856e-05,-2.6579637e-05,0.0005365094,0.11316734,0.0012507178,0.40500423,0.0,0.0,0.0,0.0,0.0,1.184032e-10,8.186702e-06,0.00160637,7.9499056e-05,0.0006273817,0.0006315938,0.00015948353,0.9044181,0.90446705,0.011187297,2.2135105,2.2135627,0.06846966,3.7206604e-09,3.7518926e-09,2.4383189e-09,2.065804e-06,2.0842024e-06,5.0710256e-08,0.0,0.0,0.0,0.0,0.0,0.0,0.0,0.0,131731,2.1040611,0.26166707,0.007371369,0.0,7.675514e-06,0.0085471105,0.0,0.0,0.0,0.024001,0,0,0,165,24,0,0,0
16880664,0.8088729,-0.05209159,0.028312357,0.5849868,0.0078596715,-0.003976811,-0.012297345,0.0077616484,-0.0057689906,0.062421635,-3.991079e-05,7.2079188e-06,-5.7198076e-06,-5.5079614e-05,-2.6761392e-05,0.0005410041,0.11316734,0.0012507178,0.40500423,0.0,0.0,0.0,0.0,0.0,1.4159203e-10,8.577631e-06,0.0011905977,7.8280405e-05,0.00062179787,0.0006259643,0.00015705165,0.94167924,0.94172543,0.010908263,2.2761912,2.276245,0.06813265,3.4978833e-09,3.52718e-09,2.2985616e-09,2.056334e-06,2.0746518e-06,5.0000036e-08,0.0,0.0,0.0,0.0,0.0,0.0,0.0,0.0,131731,2.1336439,0.2610223,0.1082837,0.0,7.787695e-06,0.0023389384,0.0,0.0,0.0,0.024001,0,0,0,165,24,0,0,0
17080669,0.8085317,-0.052134357,0.02821652,0.58545923,0.007515117,-0.0036186606,-0.0021732429,0.007926479,-0.0054458776,0.09411543,-3.9817583e-05,7.2912057e-06,-7.0115448e-06,-5.3960048e-05,-2.5644122e-05,0.0005310987,0.11316734,0.0012507178,0.40500423,0.0,0.0,0.0,0.0,0.0,1.4151579e-10,8.478938e-06,0.00085590023,7.7109995e-05,0.0006125035,0.0006166111,0.00015462723,0.97288656,0.9729292,0.010643508,2.3374145,2.3374708,0.06776598,3.270803e-09,3.2980163e-09,2.1686046e-09,2.0459863e-06,2.0642149e-06,5.0000075e-08,0.0,0.0,0.0,0.0,0.0,0.0,0.0,0.0,131731,2.1621482,0.260319,0.01633934,0.0,7.8875755e-06,0.045769278,0.0,0.0,0.0,0.024001,32,0,0,165,24,0,0,0
17287919,0.80819464,-0.05209354,0.028190887,0.58592916,0.0070812143,-0.0025844688,-0.0021169782,0.0077443398,-0.0049897097,0.09333427,-3.9728122e-05,7.366596e-06,-8.250204e-06,-5.382022e-05,-2.5338497e-05,0.00053089275,0.11316734,0.0012507178,0.40500423,0.0,0.0,0.0,0.0,0.0,1.3336689e-10,8.3958e-06,0.0012328138,7.540474e-05,0.0005953557,0.0005993502,0.00015109427,0.98821855,0.9882572,0.010307252,2.3631387,2.3631918,0.06665803,3.0141107e-09,3.0388734e-09,2.0328e-09,2.033502e-06,2.0516225e-06,5.0000036e-08,0.0,0.0,0.0,0.0,0.0,0.0,0.0,0.0,131731,2.1740127,0.25818217,0.06738826,0.0,7.77728e-06,0.011739227,0.0,0.0,0.0,0.024001,0,0,0,165,24,0,0,0
17487064,0.80808324,-0.05202424,0.028196063,0.5860888,0.007117303,-0.0014906789,-0.0056909253,0.007711198,-0.0044907946,0.083178796,-3.9734765e-05,7.388308e-06,-8.527341e-06,-5.3997224e-05,-2.5288626e-05,0.00053340703,0.11316734,0.0012507178,0.40500423,0.0,0.0,0.0,0.0,0.0,1.4121868e-10,8.462777e-06,0.0017320366,7.430145e-05,0.0005795537,0.0005834443,0.00014875241,1.0059296,1.0059665,0.010078708,2.418816,2.4188673,0.066309705,2.7886056e-09,2.8111418e-09,1.920966e-09,2.0218827e-06,2.0399016e-06,5.000007e-08,0.0,0.0,0.0,0.0,0.0,0.0,0.0,0.0,131731,2.1994734,0.2575067,0.014973615,0.0,7.694485e-06,0.021348236,0.0,0.0,0.0,0.024001,0,0,0,165,24,0,0,0
17695864,0.80868983,-0.05204011,0.028181797,0.5852507,0.006743063,-0.00013992848,-0.0070245857,0.0074792276,-0.0037467235,0.08266323,-4.0074712e-05,7.2528205e-06,-5.748959e-06,-5.408795e-05,-2.4989757e-05,0.00053397694,0.11316734,0.0012507178,0.40500423,0.0,0.0,0.0,0.0,0.0,1.3992019e-10,8.1493345e-06,0.0014183068,7.336543e-05,0.0005566795,0.00056043064,0.00014671333,1.0052503,1.0052832,0.009784307,2.4306018,2.4306495,0.06519958,2.5419573e-09,2.561905e-09,1.8156842e-09,2.008492e-06,2.026395e-06,5e-08,0.0,0.0,0.0,0.0,0.0,0.0,0.0,0.0,131731,2.2048244,0.25534207,0.044282254,0.0,7.519047e-06,0.004286088,0.0,0.0,0.0,0.024001,0,0,0,165,24,0,0,0
17894268,0.8087587,-0.051985487,0.028173087,0.585161,0.005652434,0.0017011807,-0.0044796634,0.007101814,-0.002856138,0.0886302,-4.0156014e-05,7.236744e-06,-5.3483577e-06,-5.3912892e-05,-2.455725e-05,0.0005322974,0.11316734,0.0012507178,0.40500423,0.0,0.0,0.0,0.0,0.0,1.2392344e-10,8.226413e-06,0.0013095592,7.2234696e-05,0.00053099875,0.0005345886,0.00014433394,0.99304265,0.9930704,0.00949195,2.4195278,2.4195702,0.0638797,2.3062237e-09,2.3236784e-09,1.7171712e-09,1.995046e-06,2.0128334e-06,5e-08,0.0,0.0,0.0,0.0,0.0,0.0,0.0,0.0,131731,2.199795,0.25274435,0.017070163,0.0,7.1929558e-06,0.013359437,0.0,0.0,0.0,0.024001,0,0,0,165,24,0,0,0
18101464,0.8083821,-0.05183721,0.028177934,0.585694,0.005038271,0.0035361096,-0.0062383325,0.006624403,-0.0018407961,0.08347786,-4.003687e-05,7.30884e-06,-6.757407e-06,-5.3921318e-05,-2.4376444e-05,0.0005329047,0.11316734,0.0012507178,0.40500423,0.0,0.0,0.0,0.0,0.0,1.2593561e-10,8.129842e-06,0.001360598,7.1297676e-05,0.0005057635,0.0005091881,0.00014231894,0.98181957,0.9818451,0.009253649,2.4263952,2.426433,0.06296231,2.0857711e-09,2.1008904e-09,1.6251658e-09,1.9819047e-06,1.9995766e-06,5e-08,0.0,0.0,0.0,0.0,0.0,0.0,0.0,0.0,131731,2.2029135,0.25092292,0.01165706,0.0,6.710785e-06,0.017100135,0.0,0.0,0.0,0.024001,0,0,0,165,24,0,0,0
18302287,0.8090351,-0.051860485,0.028164787,0.58479,0.00512016,0.0055929255,-0.0069391355,0.0063731717,-0.0006783724,0.08469902,-4.036061e-05,7.1625514e-06,-3.9877164e-06,-5.4083943e-05,-2.4156914e-05,0.0005331818,0.11316734,0.0012507178,0.40500423,0.0,0.0,0.0,0.0,0.0,1.371772e-10,8.3113055e-06,0.0010328336,7.0205526e-05,0.00048480375,0.0004880994,0.00014000929,0.9778141,0.97783905,0.009108542,2.4673796,2.467415,0.06275536,1.903163e-09,1.9164355e-09,1.5392663e-09,1.9705924e-06,1.9881652e-06,5e-08,0.0,0.0,0.0,0.0,0.0,0.0,0.0,0.0,131731,2.2214396,0.25051022,0.04194014,0.0,6.4148453e-06,0.021487083,0.0,0.0,0.0,0.024001,0,0,0,165,24,0,0,0
18504663,0.808598,-0.051903043,0.028112415,0.58539325,0.0054512215,0.0072899386,-0.011487249,0.0060308785,0.00056937843,0.06856889,-4.0204483e-05,7.2385756e-06,-5.657368e-06,-5.4353546e-05,-2.421833e-05,0.0005360139,0.11316734,0.0012507178,0.40500423,0.0,0.0,0.0,0.0,0.0,1.2352483e-10,8.446369e-06,0.0010131365,6.91211e-05,0.00045851088,0.00046164606,0.0001377343,0.953637,0.9536617,0.008894206,2.448287,2.4483182,0.06167514,1.7129981e-09,1.7242678e-09,1.458799e-09,1.958365e-06,1.9758304e-06,5e-08,0.0,0.0,0.0,0.0,0.0,0.0,0.0,0.0,131731,2.2128274,0.2483448,0.044882607,0.0,6.099501e-06,0.022751924,0.0,0.0,0.0,0.024001,32,0,0,165,24,0,0,0
18703864,0.80839914,-0.051781744,0.028178804,0.58567524,0.005187196,0.008471344,-0.011050887,0.0059021018,0.0019105414,0.071312495,-4.015732e-05,7.2596586e-06,-6.276535e-06,-5.430409e-05,-2.3964343e-05,0.0005346924,0.11316734,0.0012507178,0.40500423,0.0,0.0,0.0,0.0,0.0,1.3397211e-10,8.766665e-06,0.0012908821,6.807367e-05,0.00043726258,0.00044025964,0.00013552609,0.94331616,0.94333935,0.008789258,2.486748,2.4867775,0.0616227,1.5556313e-09,1.5653189e-09,1.3837738e-09,1.947876e-06,1.9652507e-06,5.0000036e-08,0.0,0.0,0.0,0.0,0.0,0.0,0.0,0.0,131731,2.2301402,0.2482392,0.02939444,0.0,5.9509057e-06,0.05422428,0.0,0.0,0.0,0.024001,32,0,0,165,24,0,0,0
18903102,0.80869216,-0.05176936,0.028214013,0.58527,0.0045988434,0.009431647,-0.01233818,0.005754852,0.0031476566,0.06454557,-4.0311697e-05,7.1780264e-06,-4.991166e-06,-5.4611675e-05,-2.3925078e-05,0.00053611025,0.11316734,0.0012507178,0.40500423,0.0,0.0,0.0,0.0,0.0,1.5059486e-10,8.723878e-06,0.000939826,6.706196e-05,0.00041621254,0.00041907848,0.00013338028,0.92708236,0.92710227,0.008689499,2.5111387,2.5111668,0.061455727,1.4103206e-09,1.4185526e-09,1.3137718e-09,1.9378715e-06,1.9551596e-06,5.000007e-08,0.0,0.0,0.0,0.0,0.0,0.0,0.0,0.0,131731,2.24105,0.24790266,0.0071109678,0.0,5.7376774e-06,0.039908916,0.0,0.0,0.0,0.024001,0,0,0,165,24,0,0,0
19107064,0.80905044,-0.051799394,0.028196827,0.5847729,0.0043504797,0.011364953,-0.012442836,0.0054047043,0.004427209,0.063795045,-4.0479295e-05,7.0853653e-06,-3.576717e-06,-5.4850123e-05,-2.3787932e-05,0.00053623813,0.11316734,0.0012507178,0.40500423,0.0,0.0,0.0,0.0,0.0,1.38734e-10,8.77433e-06,0.0013959864,6.606171e-05,0.00039113144,0.0003938442,0.00013127415,0.8938278,0.8938477,0.008529773,2.4779408,2.4779668,0.06051735,1.2612357e-09,1.2679198e-09,1.248112e-09,1.9272602e-06,1.9444562e-06,5.0000036e-08,0.0,0.0,0.0,0.0,0.0,0.0,0.0,0.0,131731,2.2261868,0.24600273,0.06357574,0.0,5.443259e-06,0.015254024,0.0,0.0,0.0,0.024001,0,0,0,165,24,0,0,0
19314291,0.80873483,-0.051729165,0.028264387,0.58521205,0.003636554,0.012691333,-0.015272304,0.005003659,0.005776942,0.055350456,-4.038317e-05,7.11321e-06,-4.575775e-06,-5.5077526e-05,-2.3765346e-05,0.0005370296,0.11316734,0.0012507178,0.40500423,0.0,0.0,0.0,0.0,0.0,2.0272435e-10,1.0220989e-05,0.001201227,6.5750275e-05,0.00036806276,0.00037063294,0.00013051431,0.8621814,0.8621999,0.0084041525,2.454554,2.4545774,0.059803646,1.1276318e-09,1.1328926e-09,1.1933045e-09,1.9174277e-06,1.934537e-06,5e-08,0.0,0.0,0.0,0.0,0.0,0.0,0.0,0.0,131731,2.215656,0.24454784,0.021243827,0.0,5.8501873e-06,0.0014795974,0.0,0.0,0.0,0.024001,0,0,0,165,24,0,0,0
19513464,0.8087247,-0.051688284,0.02829427,0.5852284,0.0034189443,0.013919203,-0.017221984,0.0044965637,0.0071620904,0.051378142,-4.0375442e-05,7.0976484e-06,-4.7155377e-06,-5.5276694e-05,-2.3715013e-05,0.00053712673,0.11316734,0.0012507178,0.40500423,0.0,0.0,0.0,0.0,0.0,2.42398e-10,1.0224209e-05,0.0013128357,6.472449e-05,0.00034956078,0.00035201246,0.0001284316,0.840431,0.8404502,0.008347298,2.4655874,2.4656107,0.059699908,1.0201724e-09,1.0244198e-09,1.1347173e-09,1.9092824e-06,1.9263202e-06,5.000004e-08,0.0,0.0,0.0,0.0,0.0,0.0,0.0,0.0,131731,2.2206302,0.24433565,0.052418333,0.0,7.1320046e-06,0.00715906,0.0,0.0,0.0,0.024001,32,0,0,165,24,0,0,0
19718264,0.8088537,-0.051780753,0.028432874,0.5850351,0.0024562015,0.0135142915,-0.014987007,0.0037605579,0.008747197,0.05430559,-4.0413594e-05,7.057691e-06,-4.4035787e-06,-5.5415876e-05,-2.3594343e-05,0.000535895,0.11316734,0.0012507178,0.40500423,0.0,0.0,0.0,0.0,0.0,3.5969208e-10,1.14205295e-05,0.0014274084,6.3334635e-05,0.00033241915,0.00033476655,0.00012566127,0.8195423,0.8195588,0.008318094,2.484326,2.4843469,0.0597768,9.2281255e-10,9.2621594e-10,1.0735117e-09,1.9017009e-06,1.9186718e-06,5.0000025e-08,0.0,0.0,0.0,0.0,0.0,0.0,0.0,0.0,131731,2.229052,0.24449295,0.0611951,0.0,8.552353e-06,0.026968611,0.0,0.0,0.0,0.024001,32,0,0,165,24,0,0,0
19924664,0.8089249,-0.051604275,0.028140228,0.58496636,-0.0017278857,0.012560188,-0.020883141,0.002797543,0.009583657,0.044496246,-4.0528572e-05,6.9728385e-06,-3.3419908e-06,-5.5868164e-05,-2.3690556e-05,0.00053762493,0.11316734,0.0012507178,0.40500423,0.0,0.0,0.0,0.0,0.0,4.2663045e-10,1.1228707e-05,0.0014252529,6.259308e-05,0.00031272942,0.00031494402,0.00012388163,0.7848704,0.78487617,0.008229637,2.4459803,2.445998,0.059097607,8.245859e-10,8.2704055e-10,1.0225926e-09,1.8938237e-06,1.910725e-06,5.000007e-08,0.0,0.0,0.0,0.0,0.0,0.0,0.0,0.0,131731,2.2117817,0.24309999,0.07284508,0.0,9.495733e-06,0.0005528551,0.0,0.0,0.0,0.024001,0,0,0,165,24,0,0,0
20124700,0.80869323,-0.05148685,0.027034607,0.5853492,-0.0037726986,0.012693683,-0.021603722,0.0018770061,0.009957747,0.03717586,-4.062377e-05,6.897651e-06,-2.435199e-06,-5.6242327e-05,-2.3768887e-05,0.00053864805,0.11316734,0.0012507178,0.40500423,0.0,0.0,0.0,0.0,0.0,5.5939575e-10,1.0423062e-05,0.0009781534,6.181569e-05,0.0002943262,0.00029641495,0.000121801575,0.74796945,0.74797195,0.008135073,2.390308,2.3903227,0.05820872,7.38061e-10,7.3970946e-10,9.748015e-10,1.8866947e-06,1.9035332e-06,5.0000036e-08,0.0,0.0,0.0,0.0,0.0,0.0,0.0,0.0,131731,2.1864653,0.24126484,0.017768107,0.0,9.983482e-06,0.0081843985,0.0,0.0,0.0,0.024001,32,0,0,165,24,0,0,0
20327863,0.8083586,-0.050847247,0.024544986,0.58597654,-0.0021473838,0.019638797,-0.02235925,0.0012617965,0.011790007,0.036089312,-4.0621075e-05,6.868449e-06,-2.4142441e-06,-5.6449993e-05,-2.3774273e-05,0.0005378634,0.11316734,0.0012507178,0.40500423,0.0,0.0,0.0,0.0,0.0,5.493484e-10,1.0644179e-05,0.0009059319,6.0540002e-05,0.00027754394,0.0002794884,0.00011884889,0.7148037,0.71481603,0.00806441,2.3456597,2.3456743,0.057518132,6.616455e-10,6.6266315e-10,9.246468e-10,1.880235e-06,1.8970171e-06,5e-08,0.0,0.0,0.0,0.0,0.0,0.0,0.0,0.0,131731,2.1659486,0.23982938,0.02201351,0.0,1.1939746e-05,0.008057585,0.0,0.0,0.0,0.024001,0,0,0,165,24,0,0,0
20527064,0.80764985,-0.049421553,0.023870893,0.58710265,-0.007910831,0.022946754,-0.023666281,-9.803818e-06,0.013376854,0.028220814,-4.039825e-05,6.9407006e-06,-4.4118165e-06,-5.6729466e-05,-2.3878385e-05,0.0005377189,0.11316734,0.0012507178,0.40500423,0.0,0.0,0.0,0.0,0.0,4.6939097e-10,1.0614289e-05,0.0015216348,5.9722315e-05,0.0002646941,0.00026650532,0.000117060605,0.6936749,0.69367707,0.008069043,2.3489726,2.3489854,0.057589818,6.0107014e-10,6.01604e-10,8.829498e-10,1.8749829e-06,1.8917189e-06,5.0000036e-08,0.0,0.0,0.0,0.0,0.0,0.0,0.0,0.0,131731,2.1674774,0.23997879,0.22129086,0.0,1.336784e-05,0.015798958,0.0,0.0,0.0,0.024001,32,0,0,165,24,0,0,0
20726335,0.8074511,-0.048512172,0.024449222,0.58742803,-0.008989219,0.014311508,-0.016835496,-0.0014316001,0.014609791,0.033378966,-4.0391755e-05,6.912085e-06,-4.3794425e-06,-5.6905556e-05,-2.385999e-05,0.0005357285,0.11316734,0.0012507178,0.40500423,0.0,0.0,0.0,0.0,0.0,4.9533067e-10,9.916912e-06,0.00112525,5.8959908e-05,0.00025251688,0.0002542278,0.00011533679,0.6715773,0.67157257,0.008077653,2.3463924,2.3464022,0.057636686,5.462358e-10,5.4633364e-10,8.437288e-10,1.8701103e-06,1.8868036e-06,5.0000036e-08,0.0,0.0,0.0,0.0,0.0,0.0,0.0,0.0,131731,2.166286,0.24007642,0.020181704,0.0,1.4665246e-05,0.00071957614,0.0,0.0,0.0,0.024001,32,0,0,165,24,0,0,0
20930264,0.8069548,-0.049746543,0.023793617,0.5880334,-0.0084290365,0.019471528,-0.019477606,-0.0024377326,0.014980183,0.034517355,-4.0352374e-05,6.8938357e-06,-4.613148e-06,-5.716083e-05,-2.3938233e-05,0.0005345342,0.11316734,0.0012507178,0.40500423,0.0,0.0,0.0,0.0,0.0,4.46552e-10,9.946936e-06,0.0013498646,5.782777e-05,0.00023877926,0.00024045244,0.0001127521,0.63976157,0.639761,0.00803076,2.2946792,2.2946873,0.05699329,4.908713e-10,4.905469e-10,8.023742e-10,1.865067e-06,1.8817146e-06,5e-08,0.0,0.0,0.0,0.0,0.0,0.0,0.0,0.0,131731,2.1422806,0.23873268,0.047862414,0.0,1.5164792e-05,0.007897535,0.0,0.0,0.0,0.024001,0,0,0,165,24,0,0,0
21137509,0.80746204,-0.04969731,0.023632644,0.5873472,-0.010853952,0.018544698,-0.01701228,-0.0034782733,0.015794555,0.039626904,-4.059823e-05,6.744322e-06,-2.1802596e-06,-5.736538e-05,-2.3998635e-05,0.000533743,0.11316734,0.0012507178,0.40500423,0.0,0.0,0.0,0.0,0.0,3.5576553e-10,9.8739065e-06,0.0015755876,5.6819335e-05,0.00022657076,0.00022817403,0.000110532266,0.61109823,0.6110927,0.008008245,2.2550008,2.2550063,0.056555208,4.420562e-10,4.413846e-10,7.638185e-10,1.8605047e-06,1.877111e-06,5e-08,0.0,0.0,0.0,0.0,0.0,0.0,0.0,0.0,131731,2.1236777,0.23781338,0.018140292,0.0,1.5960592e-05,0.01274463,0.0,0.0,0.0,0.024001,0,0,0,165,24,0,0,0
21337464,0.80772674,-0.048715584,0.024217911,0.58704174,-0.01124264,0.02072744,-0.018769555,-0.004880054,0.016896816,0.033928044,-4.065489e-05,6.6839193e-06,-1.4976391e-06,-5.7627665e-05,-2.4205878e-05,0.0005345267,0.11316734,0.0012507178,0.40500423,0.0,0.0,0.0,0.0,0.0,3.178499e-10,8.920801e-06,0.0010361931,5.607729e-05,0.00021714483,0.00021866265,0.00010908684,0.5916972,0.5916935,0.008038946,2.2504523,2.2504556,0.056682013,4.0362133e-10,4.0268708e-10,7.316313e-10,1.8568251e-06,1.8733972e-06,5e-08,0.0,0.0,0.0,0.0,0.0,0.0,0.0,0.0,131731,2.1215343,0.23807985,0.005822196,0.0,1.6891701e-05,0.026210878,0.0,0.0,0.0,0.024001,0,0,0,165,24,0,0,0
21544687,0.80723494,-0.049361136,0.023865001,0.5876784,-0.00819458,0.019950276,-0.013677002,-0.005838766,0.017741002,0.04674688,-4.051035e-05,6.7180963e-06,-2.6754824e-06,-5.796333e-05,-2.4150842e-05,0.00053039205,0.11316734,0.0012507178,0.40500423,0.0,0.0,0.0,0.0,0.0,3.1013145e-10,9.34637e-06,0.0010183712,5.547357e-05,0.00020681664,0.00020829523,0.000107810854,0.56529164,0.5652943,0.008029175,2.2102036,2.210206,0.05628793,3.649291e-10,3.6371342e-10,7.0110107e-10,1.8530266e-06,1.8695636e-06,5e-08,0.0,0.0,0.0,0.0,0.0,0.0,0.0,0.0,131731,2.102477,0.23725078,0.0018199005,0.0,1.7873033e-05,0.058730006,0.0,0.0,0.0,0.024001,0,0,0,165,24,0,0,0
21747864,0.80717844,-0.049662977,0.023758069,0.58773476,-0.010720905,0.022545932,-0.013252567,-0.0067267506,0.018850354,0.04841273,-4.0502262e-05,6.689242e-06,-2.5820027e-06,-5.8264937e-05,-2.4279152e-05,0.0005294657,0.11316734,0.0012507178,0.40500423,0.0,0.0,0.0,0.0,0.0,2.2159802e-10,8.861256e-06,0.0016636881,5.478793e-05,0.00019872724,0.00020016884,0.00010639567,0.54729974,0.5473009,0.008069496,2.204534,2.204535,0.05647441,3.3410968e-10,3.3271325e-10,6.723286e-10,1.849931e-06,1.8664408e-06,5.0000036e-08,0.0,0.0,0.0,0.0,0.0,0.0,0.0,0.0,131731,2.0997784,0.23764345,0.04718984,0.0,1.8915815e-05,0.034853805,0.0,0.0,0.0,0.024001,0,0,0,165,24,0,0,0
21947932,0.8071367,-0.048998125,0.024182603,0.58783066,-0.011352231,0.021901721,-0.01623704,-0.0075894915,0.019479852,0.04293995,-4.0468753e-05,6.6682114e-06,-2.690135e-06,-5.844674e-05,-2.4541152e-05,0.0005298897,0.11316734,0.0012507178,0.40500423,0.0,0.0,0.0,0.0,0.0,2.1577733e-10,8.550955e-06,0.0011025587,5.41069e-05,0.00018978966,0.0001911585,0.00010503526,0.5222791,0.52227956,0.008054627,2.1572645,2.1572642,0.055999573,3.0320021e-10,3.0160605e-10,6.451166e-10,1.846749e-06,1.8632335e-06,5e-08,0.0,0.0,0.0,0.0,0.0,0.0,0.0,0.0,131731,2.0771444,0.23664229,0.060647808,0.0,1.9661307e-05,0.029572897,0.0,0.0,0.0,0.024001,0,0,0,165,24,0,0,0
22147074,0.8070301,-0.049166955,0.023804722,0.5879783,-0.0103561,0.02204044,-0.0141531555,-0.008412238,0.020303361,0.053350836,-4.0465547e-05,6.637654e-06,-2.5496308e-06,-5.916932e-05,-2.4529036e-05,0.000526917,0.11316734,0.0012507178,0.40500423,0.0,0.0,0.0,0.0,0.0,2.549913e-10,8.834774e-06,0.0015304167,5.3472846e-05,0.00018294292,0.0001842742,0.000103666505,0.50565094,0.50565165,0.008100384,2.1495128,2.149511,0.05620126,2.7853334e-10,2.768171e-10,6.1936983e-10,1.8441484e-06,1.8606156e-06,5.0000036e-08,0.0,0.0,0.0,0.0,0.0,0.0,0.0,0.0,131731,2.0734086,0.23706806,0.04490426,0.0,2.032094e-05,0.02425638,0.0,0.0,0.0,0.024001,0,0,0,165,24,0,0,0
22350264,0.8070805,-0.049145255,0.023175586,0.5879361,-0.009924849,0.022603473,-0.017710013,-0.0087923985,0.021256808,0.045607813,-4.056337e-05,6.5589898e-06,-1.4477531e-06,-5.9240938e-05,-2.4827e-05,0.00052844523,0.11316734,0.0012507178,0.40500423,0.0,0.0,0.0,0.0,0.0,2.609234e-10,9.046801e-06,0.0013116656,5.2546664e-05,0.00017658019,0.00017786954,0.00010159436,0.48979267,0.4897934,0.008150017,2.1423366,2.1423347,0.056445315,2.562208e-10,2.5443256e-10,5.920828e-10,1.8417436e-06,1.858199e-06,5e-08,0.0,0.0,0.0,0.0,0.0,0.0,0.0,0.0,131731,2.0699449,0.23758222,0.0028710573,0.0,2.1124559e-05,0.0047834087,0.0,0.0,0.0,0.024001,0,0,0,165,24,0,0,0
22558304,0.8066443,-0.048308015,0.022972006,0.5886116,-0.009940475,0.023793107,-0.017606685,-0.00925906,0.02209008,0.046875812,-4.0524876e-05,6.5420386e-06,-1.6061211e-06,-5.9670198e-05,-2.4985655e-05,0.0005272573,0.11316734,0.0012507178,0.40500423,0.0,0.0,0.0,0.0,0.0,3.0893751e-10,8.58765e-06,0.0011430961,5.245161e-05,0.00016962356,0.00017084806,0.000101091595,0.46930423,0.4693054,0.008162529,2.1084402,2.108438,0.05626936,2.3370808e-10,2.3178047e-10,5.719046e-10,1.8392425e-06,1.8556931e-06,5.0000036e-08,0.0,0.0,0.0,0.0,0.0,0.0,0.0,0.0,131731,2.0535038,0.23721163,0.11396311,0.0,2.2151411e-05,0.017671298,0.0,0.0,0.0,0.024001,0,0,0,165,24,0,0,0
22757485,0.80541945,-0.047865395,0.022097582,0.59035605,-0.004674221,0.022577757,-0.016939713,-0.009150388,0.022476312,0.04947014,-4.0416868e-05,6.559098e-06,-2.4188973e-06,-6.0191174e-05,-2.5114823e-05,0.0005254267,0.11316734,0.0012507178,0.40500423,0.0,0.0,0.0,0.0,0.0,4.7316495e-10,1.0664282e-05,0.0014083438,5.1699397e-05,0.00016314253,0.000164311,9.893829e-05,0.44739667,0.44740382,0.008145802,2.0559266,2.055925,0.05572839,2.1361247e-10,2.116204e-10,5.4722993e-10,1.8369547e-06,1.8534096e-06,5e-08,0.0,0.0,0.0,0.0,0.0,0.0,0.0,0.0,131731,2.02777,0.23606862,0.012502465,0.0,2.2711802e-05,0.0008863992,0.0,0.0,0.0,0.024001,0,0,0,165,24,0,0,0
22956664,0.8046466,-0.048192993,0.021654876,0.59139884,-0.012331014,0.022357566,-0.013198099,-0.009233806,0.022884397,0.047378328,-4.048821e-05,6.495128e-06,-1.5856295e-06,-6.0463393e-05,-2.5300476e-05,0.00052571297,0.11316734,0.0012507178,0.40500423,0.0,0.0,0.0,0.0,0.0,3.3867678e-10,9.71929e-06,0.0013136419,5.1342813e-05,0.00015819291,0.00015933989,9.7492666e-05,0.43373838,0.4337367,0.008201192,2.0487356,2.048734,0.05602164,1.9758438e-10,1.9555163e-10,5.265369e-10,1.8350769e-06,1.8515456e-06,5.0000036e-08,0.0,0.0,0.0,0.0,0.0,0.0,0.0,0.0,131731,2.0242207,0.23668891,0.14042269,0.0,2.2953032e-05,0.013459578,0.0,0.0,0.0,0.024001,32,0,0,165,24,0,0,0
23155884,0.804425,-0.047820896,0.021624327,0.5917315,-0.013097363,0.023483122,-0.015225179,-0.010152506,0.024038844,0.045361117,-4.038914e-05,6.5132563e-06,-2.344079e-06,-6.070616e-05,-2.5493231e-05,0.0005250492,0.11316734,0.0012507178,0.40500423,0.0,0.0,0.0,0.0,0.0,2.6993102e-10,9.175843e-06,0.0009839531,5.0730454e-05,0.00015360958,0.00015471787,9.634865e-05,0.42067277,0.42067116,0.008255935,2.04039,2.0403874,0.056310963,1.8307919e-10,1.810186e-10,5.0687154e-10,1.8333317e-06,1.8498243e-06,5.0000036e-08,0.0,0.0,0.0,0.0,0.0,0.0,0.0,0.0,131731,2.0200934,0.23729931,0.007759339,0.0,2.3910561e-05,0.013270137,0.0,0.0,0.0,0.024001,0,0,0,165,24,0,0,0
23363912,0.8038701,-0.04765557,0.02186604,0.5924894,-0.010383535,0.020278899,-0.018413208,-0.01071819,0.024064638,0.03338906,-4.033934e-05,6.505301e-06,-2.6140729e-06,-6.016528e-05,-2.5884528e-05,0.0005268373,0.11316734,0.0012507178,0.40500423,0.0,0.0,0.0,0.0,0.0,4.2622805e-10,1.050655e-05,0.0011534927,5.0009246e-05,0.00014855883,0.00014962978,9.466464e-05,0.4031683,0.40316734,0.008264318,2.002824,2.0028212,0.056073006,1.6827907e-10,1.6619761e-10,4.8592685e-10,1.8314965e-06,1.8480317e-06,5e-08,0.0,0.0,0.0,0.0,0.0,0.0,0.0,0.0,131731,2.0014107,0.23679739,0.051617257,0.0,2.4140125e-05,0.0007166881,0.0,0.0,0.0,0.024001,0,0,0,165,24,0,0,0
