timestamp,indicated_airspeed_m_s,true_airspeed_m_s,air_temperature_celsius,confidence
3301120,-1.8719494,-1.8874738,14.49,1.0
3312162,-1.8719318,-1.8874234,14.48,1.0
3323197,-1.8692919,-1.8846349,14.45,1.0
3334312,-1.8665396,-1.882038,14.49,1.0
3346389,-1.8649589,-1.8804157,14.49,1.0
3357676,-1.8635687,-1.8789489,14.469999,1.0
3368116,-1.860936,-1.8763571,14.495,1.0
3379528,-1.8582252,-1.8736358,14.49,1.0
3391119,-1.8567991,-1.8721671,14.495,1.0
3402610,-1.8563119,-1.8717247,14.509999,1.0
3413517,-1.8556088,-1.8710138,14.495,1.0
3424843,-1.854511,-1.8698516,14.474999,1.0
3436880,-1.8547237,-1.8700497,14.469999,1.0
3447095,-1.8580039,-1.8735033,14.514999,1.0
3458697,-1.8619114,-1.877278,14.469999,1.0
3469506,-1.8636565,-1.8791001,14.495,1.0
3480342,-1.8632593,-1.8786361,14.49,1.0
3492716,-1.8623283,-1.8778117,14.525,1.0
3503085,-1.8612955,-1.8767712,14.505,1.0
3513941,-1.8601575,-1.8755051,14.46,1.0
3525112,-1.8579262,-1.8731571,14.45,1.0
3537506,-1.8532001,-1.8686032,14.514999,1.0
3548313,-1.8454258,-1.8606352,14.474999,1.0
3559216,-1.8375987,-1.8528172,14.495,1.0
3570393,-1.8325788,-1.8479053,14.53,1.0
3582574,-1.8300462,-1.8451589,14.469999,1.0
3592954,-1.8281035,-1.8433233,14.5199995,1.0
3604135,-1.8255569,-1.8407059,14.49,1.0
3615518,-1.8232536,-1.8382413,14.46,1.0
3626046,-1.8214967,-1.8366138,14.505,1.0
3638049,-1.8190027,-1.8340169,14.485,1.0
3648944,-1.8160055,-1.8310089,14.474999,1.0
3660216,-1.8136728,-1.8285885,14.465,1.0
3670954,-1.8141046,-1.8290715,14.48,1.0
3683648,-1.8181508,-1.8332196,14.49,1.0
3693880,-1.8234005,-1.8385172,14.5,1.0
3705104,-1.8252461,-1.8403579,14.485,1.0
3716304,-1.8211228,-1.8362645,14.505,1.0
3728291,-1.811441,-1.8263274,14.45,1.0
3738966,-1.7986494,-1.8134441,14.46,1.0
3750052,-1.7862728,-1.8010504,14.49,1.0
3761098,-1.7774163,-1.7920585,14.469999,1.0
3772348,-1.7714828,-1.786103,14.469999,1.0
3784335,-1.7663265,-1.780922,14.469999,1.0
3795578,-1.7630354,-1.7775965,14.485,1.0
3805896,-1.7625017,-1.7770736,14.49,1.0
3817935,-1.7631711,-1.7777536,14.48,1.0
3829931,-1.764271,-1.7788934,14.49,1.0
3842418,-1.7665858,-1.781248,14.485,1.0
3853243,-1.7702179,-1.7849566,14.5,1.0
3865219,-1.7741865,-1.7889109,14.505,1.0
3876329,-1.7776365,-1.7922626,14.469999,1.0
3887225,-1.7793933,-1.794114,14.49,1.0
3898156,-1.7791612,-1.79388,14.49,1.0
3909970,-1.778631,-1.7933505,14.48,1.0
3921009,-1.7784559,-1.7931042,14.474999,1.0
3932093,-1.7786227,-1.793438,14.505,1.0
3944007,-1.7789314,-1.7937024,14.49,1.0
3955663,-1.7799994,-1.7948524,14.525,1.0
3966045,-1.7803198,-1.7950687,14.485,1.0
3977121,-1.778204,-1.7929977,14.505,1.0
3988105,-1.7733892,-1.7880497,14.474999,1.0
4000010,-1.7676835,-1.7822894,14.49,1.0
4012077,-1.7631674,-1.7778425,14.509999,1.0
4024048,-1.7617382,-1.7762975,14.485,1.0
4036030,-1.7638621,-1.778439,14.485,1.0
4048706,-1.76665,-1.7814339,14.53,1.0
4059120,-1.7671461,-1.7817256,14.48,1.0
4070153,-1.7654043,-1.7800207,14.485,1.0
4081136,-1.7620251,-1.7766289,14.49,1.0
4093071,-1.7586205,-1.7731476,14.48,1.0
4104214,-1.7565638,-1.7711006,14.48,1.0
4115490,-1.7559915,-1.7705364,14.49,1.0
4126231,-1.7565382,-1.771026,14.469999,1.0
4137923,-1.7583246,-1.7729417,14.509999,1.0
4150038,-1.7610334,-1.7756356,14.495,1.0
4161935,-1.7646806,-1.7792975,14.49,1.0
4175366,-1.768891,-1.7834964,14.474999,1.0
4186065,-1.7728105,-1.7875234,14.505,1.0
4197144,-1.7751054,-1.7897906,14.49,1.0
4208106,-1.7743617,-1.7890499,14.49,1.0
4220725,-1.7696457,-1.7842638,14.48,1.0
4232050,-1.7618015,-1.7763435,14.485,1.0
4243947,-1.7525443,-1.7670567,14.48,1.0
4256000,-1.7430313,-1.7574601,14.49,1.0
4267170,-1.7333548,-1.7475821,14.45,1.0
4279252,-1.7228826,-1.7371209,14.485,1.0
4290156,-1.7109345,-1.7250289,14.469999,1.0
4301011,-1.6983573,-1.7124164,14.49,1.0
4312294,-1.6876998,-1.7016706,14.49,1.0
4323994,-1.6823034,-1.6962404,14.485,1.0
4335200,-1.6812599,-1.6950766,14.45,1.0
4346008,-1.681213,-1.6951804,14.509999,1.0
4357068,-1.679449,-1.6933136,14.48,1.0
4369021,-1.6756485,-1.6894877,14.485,1.0
4380048,-1.6702017,-1.6841238,14.5199995,1.0
4391737,-1.6631552,-1.6769311,14.49,1.0
4401949,-1.6545982,-1.6683613,14.509999,1.0
4412918,-1.6439695,-1.6576011,14.495,1.0
4424963,-1.6318687,-1.6453855,14.49,1.0
4435994,-1.6196901,-1.6330732,14.49,1.0
4448738,-1.6087139,-1.6221191,14.53,1.0
4461098,-1.599499,-1.6127175,14.485,1.0
4472721,-1.5926603,-1.6058009,14.46,1.0
4483315,-1.5876143,-1.6007829,14.485,1.0
4494694,-1.5839918,-1.5971166,14.48,1.0
4505129,-1.5825251,-1.5957683,14.53,1.0
4516424,-1.5832777,-1.5964497,14.505,1.0
4528064,-1.5857968,-1.5988706,14.465,1.0
4538980,-1.5889426,-1.6020564,14.469999,1.0
4550552,-1.5924989,-1.6057894,14.5199995,1.0
4562303,-1.597429,-1.6105787,14.455,1.0
4573214,-1.6035908,-1.6167952,14.465,1.0
4584034,-1.6070616,-1.6202523,14.45,1.0
4595987,-1.6054763,-1.6187404,14.474999,1.0
4607277,-1.5996641,-1.6128905,14.469999,1.0
4618407,-1.5918015,-1.6049762,14.495,1.0
4629201,-1.5836416,-1.5967628,14.5,1.0
4639972,-1.5763527,-1.5895363,14.53,1.0
4652440,-1.5696201,-1.5825678,14.485,1.0
4663222,-1.5636554,-1.5765833,14.49,1.0
4675206,-1.5585053,-1.5713224,14.465,1.0
4685948,-1.5537533,-1.5665413,14.46,1.0
4698547,-1.5473348,-1.5601493,14.495,1.0
4709219,-1.5378993,-1.5506667,14.495,1.0
4721854,-1.5266666,-1.5393678,14.505,1.0
4732115,-1.5164344,-1.5289719,14.49,1.0
4743256,-1.5101447,-1.5226471,14.505,1.0
4754927,-1.5088545,-1.5212238,14.45,1.0
4767132,-1.5119821,-1.5244828,14.49,1.0
4778943,-1.5176092,-1.5301608,14.48,1.0
4790169,-1.5242511,-1.5369223,14.509999,1.0
4802415,-1.5304593,-1.5430783,14.48,1.0
4813340,-1.5363523,-1.5490198,14.48,1.0
4825652,-1.5434353,-1.5562896,14.509999,1.0
4836024,-1.5530474,-1.5659229,14.5,1.0
4847225,-1.5646962,-1.577692,14.5,1.0
4858416,-1.5761024,-1.5891652,14.49,1.0
4868978,-1.5858942,-1.5989484,14.474999,1.0
4881665,-1.5948524,-1.6080444,14.495,1.0
4892353,-1.6042422,-1.6174822,14.469999,1.0
4903153,-1.6144905,-1.6278434,14.48,1.0
4914393,-1.6243241,-1.6378278,14.49,1.0
4927084,-1.6318642,-1.6453547,14.474999,1.0
4938431,-1.6371907,-1.650834,14.509999,1.0
4949512,-1.6408235,-1.65431,14.445,1.0
4960390,-1.6436843,-1.6573235,14.509999,1.0
4972829,-1.6461098,-1.6597364,14.49,1.0
4983661,-1.6491964,-1.6628567,14.49,1.0
4994393,-1.6536239,-1.667292,14.48,1.0
5006473,-1.6595354,-1.6733356,14.5,1.0
5017703,-1.6652064,-1.6789747,14.469999,1.0
5029391,-1.6685036,-1.6823424,14.505,1.0
5040363,-1.6686125,-1.6824669,14.509999,1.0
5051045,-1.6669884,-1.680796,14.49,1.0
5062960,-1.6657885,-1.6795549,14.485,1.0
5074319,-1.6668866,-1.6805888,14.46,1.0
5085738,-1.670854,-1.6847353,14.509999,1.0
5098393,-1.6762055,-1.6901817,14.53,1.0
5109719,-1.6811347,-1.6949985,14.474999,1.0
5120738,-1.6843588,-1.6982467,14.48,1.0
5132290,-1.6851685,-1.699078,14.485,1.0
5143110,-1.6840825,-1.6979814,14.469999,1.0
5154581,-1.6822,-1.6959816,14.45,1.0
5165214,-1.6812446,-1.6951596,14.495,1.0
5177021,-1.6824462,-1.6963563,14.49,1.0
5188073,-1.6870166,-1.7009326,14.485,1.0
5200513,-1.6944866,-1.7084199,14.469999,1.0
5211754,-1.7028568,-1.7169766,14.495,1.0
5222182,-1.7096184,-1.7238991,14.53,1.0
5233944,-1.7131009,-1.7272283,14.474999,1.0
5244904,-1.714125,-1.7283874,14.5199995,1.0
5258042,-1.7135586,-1.7276486,14.469999,1.0
5268915,-1.7114065,-1.7255237,14.485,1.0
5280935,-1.706262,-1.7203008,14.469999,1.0
5292338,-1.6986303,-1.7127064,14.495,1.0
5304040,-1.6893883,-1.7033964,14.495,1.0
5314954,-1.6787324,-1.6926373,14.49,1.0
5325954,-1.6670063,-1.6807451,14.474999,1.0
5338288,-1.655882,-1.6695253,14.465,1.0
5348889,-1.6468166,-1.6604946,14.5,1.0
5360708,-1.639459,-1.6530327,14.485,1.0
5371622,-1.6324617,-1.6459135,14.48,1.0
5382960,-1.6253984,-1.6389165,14.514999,1.0
5394396,-1.6186436,-1.6319354,14.455,1.0
5405596,-1.6134275,-1.6267186,14.469999,1.0
5417508,-1.6097997,-1.6232228,14.509999,1.0
5429269,-1.6069204,-1.620206,14.49,1.0
5441242,-1.6043407,-1.6176901,14.5,1.0
5452042,-1.6014978,-1.6147254,14.465,1.0
5463104,-1.6000164,-1.613251,14.495,1.0
5473948,-1.6010479,-1.6142371,14.469999,1.0
5485963,-1.604665,-1.618015,14.505,1.0
5497063,-1.6098357,-1.6231583,14.48,1.0
5508545,-1.6157314,-1.6291226,14.49,1.0
5520101,-1.6205597,-1.6338812,14.46,1.0
5531944,-1.6237037,-1.637161,14.49,1.0
5543227,-1.6242095,-1.6376427,14.48,1.0
5554150,-1.621367,-1.6348882,14.525,1.0
5565931,-1.6152645,-1.628597,14.485,1.0
5578154,-1.6078602,-1.6211716,14.505,1.0
5589910,-1.6003169,-1.6135798,14.509999,1.0
5602050,-1.5925937,-1.6057272,14.474999,1.0
5613117,-1.5842673,-1.5973358,14.485,1.0
5624881,-1.5760728,-1.5891988,14.509999,1.0
5637097,-1.568753,-1.5817492,14.485,1.0
5649098,-1.5629944,-1.575909,14.49,1.0
5660054,-1.5591639,-1.5720239,14.469999,1.0
5671761,-1.5571988,-1.570062,14.48,1.0
5682155,-1.5574932,-1.5703589,14.48,1.0
5693936,-1.5608326,-1.5737567,14.5,1.0
5707671,-1.5666052,-1.5795599,14.485,1.0
5718035,-1.573561,-1.5865834,14.48,1.0
5728993,-1.5811568,-1.5942421,14.48,1.0
5740044,-1.5901548,-1.6031941,14.46,1.0
5752024,-1.6017733,-1.6150646,14.509999,1.0
5763908,-1.6151118,-1.628437,14.48,1.0
5776007,-1.6290594,-1.6425996,14.514999,1.0
5787310,-1.6415931,-1.6552231,14.509999,1.0
5797975,-1.6517477,-1.6654375,14.49,1.0
5809108,-1.6595719,-1.6733704,14.505,1.0
5820803,-1.6652727,-1.6790456,14.48,1.0
5832926,-1.6692193,-1.6829448,14.469999,1.0
5844952,-1.6719623,-1.6859117,14.53,1.0
5855993,-1.6733485,-1.6872799,14.5199995,1.0
5867266,-1.6737416,-1.6875882,14.49,1.0
5878970,-1.6732734,-1.6871897,14.514999,1.0
5890703,-1.6715422,-1.6854526,14.514999,1.0
5900879,-1.6686958,-1.6826117,14.525,1.0
5911994,-1.6650106,-1.678852,14.509999,1.0
5923922,-1.6605929,-1.6743455,14.495,1.0
5935225,-1.6553153,-1.669047,14.5,1.0
5947525,-1.6489488,-1.6625866,14.48,1.0
5959111,-1.6415458,-1.6551799,14.5,1.0
5971241,-1.6331528,-1.6466472,14.49,1.0
5983116,-1.624734,-1.6382592,14.505,1.0
5995244,-1.6168482,-1.630322,14.509999,1.0
6006000,-1.6096683,-1.6230822,14.509999,1.0
6018459,-1.6027749,-1.616163,14.53,1.0
6028973,-1.5962114,-1.609449,14.49,1.0
6040024,-1.5910666,-1.6043372,14.5199995,1.0
6051213,-1.5877666,-1.600982,14.509999,1.0
6063156,-1.5859883,-1.5991046,14.5,1.0
6074700,-1.5850866,-1.59821,14.485,1.0
6085142,-1.5846274,-1.5978881,14.53,1.0
6096017,-1.5840234,-1.5972096,14.505,1.0
6108072,-1.5827011,-1.5958282,14.505,1.0
6119159,-1.5799727,-1.5931573,14.505,1.0
6130843,-1.575341,-1.5882925,14.474999,1.0
6143263,-1.5703809,-1.5833879,14.509999,1.0
6155288,-1.5655677,-1.5785412,14.495,1.0
6167244,-1.560746,-1.5736248,14.474999,1.0
6178414,-1.5559664,-1.5688918,14.495,1.0
6189200,-1.5512304,-1.5641574,14.509999,1.0
6199994,-1.5465636,-1.5593345,14.49,1.0
6212009,-1.541527,-1.5542437,14.465,1.0
6223237,-1.5341879,-1.5469033,14.49,1.0
6235784,-1.5233091,-1.5359343,14.49,1.0
6247214,-1.5094333,-1.5219053,14.49,1.0
6258599,-1.4938877,-1.5061755,14.46,1.0
6270045,-1.4783783,-1.4905795,14.469999,1.0
6281628,-1.4649478,-1.4770766,14.485,1.0
6292448,-1.4555037,-1.4675269,14.48,1.0
6303246,-1.4508142,-1.4629405,14.53,1.0
6316284,-1.4504436,-1.4624069,14.469999,1.0
6327232,-1.4546356,-1.4666843,14.49,1.0
6340441,-1.4622188,-1.4743042,14.5,1.0
6351246,-1.4719424,-1.4841387,14.48,1.0
6362393,-1.4820346,-1.4943382,14.495,1.0
6374222,-1.4911975,-1.5035119,14.469999,1.0
6386454,-1.4989623,-1.5114081,14.509999,1.0
6397938,-1.5050634,-1.5175827,14.509999,1.0
6410694,-1.5099812,-1.5225636,14.53,1.0
6421145,-1.5140364,-1.5265465,14.49,1.0
6433599,-1.5167552,-1.5293949,14.509999,1.0
6444377,-1.5161343,-1.5286393,14.469999,1.0
6456852,-1.5126939,-1.5251741,14.48,1.0
6467486,-1.508703,-1.5211105,14.465,1.0
6478445,-1.505824,-1.51821,14.46,1.0
6489599,-1.504473,-1.5169193,14.49,1.0
6501404,-1.5047803,-1.5172368,14.49,1.0
6513631,-1.5065545,-1.5189071,14.445,1.0
6524991,-1.5096223,-1.5220731,14.49,1.0
6536872,-1.513511,-1.5260962,14.5199995,1.0
6547223,-1.5177473,-1.5303322,14.495,1.0
6558397,-1.5222548,-1.534917,14.509999,1.0
6570060,-1.526439,-1.5390805,14.495,1.0
6582351,-1.5298315,-1.542513,14.485,1.0
6594383,-1.5321895,-1.5449054,14.505,1.0
6606510,-1.5337199,-1.5464888,14.5199995,1.0
6619106,-1.5347192,-1.5474157,14.49,1.0
6630306,-1.5356437,-1.5482906,14.46,1.0
6642957,-1.5364748,-1.5490994,14.455,1.0
6654347,-1.537906,-1.5507177,14.5199995,1.0
6665511,-1.5401648,-1.552874,14.474999,1.0
6676291,-1.5435094,-1.5562168,14.469999,1.0
6688094,-1.5472636,-1.5599955,14.485,1.0
6699536,-1.5504793,-1.5633057,14.509999,1.0
6710192,-1.5520808,-1.5649503,14.495,1.0
6721111,-1.55127,-1.5640979,14.485,1.0
6733609,-1.547708,-1.5605414,14.495,1.0
6744685,-1.5412862,-1.5540934,14.505,1.0
6755597,-1.533265,-1.545915,14.48,1.0
6767947,-1.5261282,-1.5388459,14.509999,1.0
6779584,-1.520307,-1.5328332,14.465,1.0
6792230,-1.5160481,-1.5286056,14.49,1.0
6803516,-1.5134803,-1.5260165,14.49,1.0
6813915,-1.5133632,-1.5258434,14.474999,1.0
6826696,-1.515295,-1.5278693,14.49,1.0
6838306,-1.5175711,-1.5302707,14.53,1.0
6849919,-1.519281,-1.5318576,14.49,1.0
6861899,-1.5209098,-1.5336429,14.535,1.0
6873918,-1.5220824,-1.5347875,14.514999,1.0
6886051,-1.5231857,-1.5357798,14.469999,1.0
6897118,-1.5251405,-1.537748,14.495,1.0
6908923,-1.5285274,-1.5412644,14.53,1.0
6921136,-1.5327637,-1.5452597,14.429999,1.0
6933593,-1.5386794,-1.5514393,14.509999,1.0
6944909,-1.5459242,-1.5586516,14.469999,1.0
6957008,-1.554489,-1.5673507,14.505,1.0
6968921,-1.5642179,-1.5772133,14.509999,1.0
6980930,-1.5746616,-1.5876886,14.49,1.0
6992830,-1.5846968,-1.5978705,14.509999,1.0
7005372,-1.59343,-1.6066322,14.5,1.0
7017020,-1.6007429,-1.6139976,14.5,1.0
7028645,-1.605894,-1.6190928,14.465,1.0
7040033,-1.608908,-1.6221702,14.469999,1.0
7052033,-1.610634,-1.6239631,14.48,1.0
7063500,-1.6113362,-1.6247663,14.505,1.0
7073940,-1.6096529,-1.623097,14.514999,1.0
7085649,-1.6048515,-1.6181824,14.514999,1.0
7097097,-1.5977833,-1.6111342,14.5199995,1.0
7108557,-1.5888748,-1.6020671,14.509999,1.0
7119138,-1.5792688,-1.5923814,14.509999,1.0
7129929,-1.5697715,-1.5826952,14.469999,1.0
7141902,-1.5613215,-1.5741756,14.469999,1.0
7153415,-1.5544893,-1.5674038,14.509999,1.0
7164179,-1.5488969,-1.5616972,14.485,1.0
7176065,-1.543861,-1.5566566,14.49,1.0
7187609,-1.5386219,-1.5515133,14.53,1.0
7198050,-1.5327886,-1.5454544,14.469999,1.0
7208893,-1.5274391,-1.5402348,14.535,1.0
7221615,-1.5221282,-1.534734,14.495,1.0
7232075,-1.5165395,-1.5291102,14.505,1.0
7244548,-1.5095447,-1.5221562,14.525,1.0
7255662,-1.49982,-1.512311,14.509999,1.0
7265890,-1.4879208,-1.5004222,14.554999,1.0
7277485,-1.4745923,-1.4868174,14.5,1.0
7288097,-1.4606246,-1.4728073,14.5199995,1.0
7300297,-1.4462752,-1.4583002,14.505,1.0
7311155,-1.432817,-1.4445199,14.429999,1.0
7322707,-1.4224101,-1.4342275,14.509999,1.0
7332952,-1.4153707,-1.4270376,14.469999,1.0
7345041,-1.4120641,-1.4237037,14.469999,1.0
7357193,-1.412934,-1.4246303,14.49,1.0
7368960,-1.4180493,-1.429756,14.48,1.0
7381109,-1.4260762,-1.4379475,14.505,1.0
7392001,-1.4338135,-1.4457743,14.514999,1.0
7405220,-1.4384404,-1.450373,14.5,1.0
7416055,-1.4395384,-1.451478,14.505,1.0
7428448,-1.4389579,-1.4508139,14.465,1.0
7439117,-1.4393507,-1.4513109,14.505,1.0
7451162,-1.4410475,-1.4529299,14.46,1.0
7461969,-1.4436715,-1.4556475,14.5,1.0
7474678,-1.4456216,-1.4576478,14.525,1.0
7485105,-1.4454671,-1.4573907,14.485,1.0
7496035,-1.4433889,-1.4553753,14.505,1.0
7507210,-1.4399085,-1.4517888,14.46,1.0
7518356,-1.437041,-1.4488614,14.46,1.0
7530842,-1.4369146,-1.4488848,14.5199995,1.0
7541104,-1.4388888,-1.4508358,14.509999,1.0
7552034,-1.4411278,-1.4530993,14.495,1.0
7564074,-1.442221,-1.4541092,14.469999,1.0
7575109,-1.4420631,-1.454051,14.509999,1.0
7587101,-1.4398685,-1.4518403,14.505,1.0
7598025,-1.4353154,-1.4472036,14.509999,1.0
7609071,-1.4288213,-1.4406096,14.48,1.0
7620635,-1.4213033,-1.4330046,14.469999,1.0
7632025,-1.4141321,-1.4258013,14.474999,1.0
7643999,-1.4083567,-1.4200592,14.505,1.0
7655246,-1.4040214,-1.4156723,14.49,1.0
7666591,-1.4007807,-1.412466,14.514999,1.0
7678158,-1.3979993,-1.4095913,14.495,1.0
7710707,-1.39582,-1.4073939,14.495,0.99
7722446,-1.3937767,-1.405288,14.485,1.0
7733154,-1.3917211,-1.4032764,14.509999,1.0
7743760,-1.3895538,-1.4010545,14.495,1.0
7754750,-1.387586,-1.3991876,14.5199995,1.0
7765820,-1.3855698,-1.3971182,14.505,1.0
7777537,-1.3834518,-1.3950291,14.53,1.0
7789113,-1.3805892,-1.3921252,14.5199995,1.0
7801561,-1.3768466,-1.3882307,14.469999,1.0
7813141,-1.3730695,-1.3844543,14.514999,1.0
7825677,-1.3697653,-1.3809943,14.45,1.0
7837159,-1.3676044,-1.3789392,14.49,1.0
7849741,-1.3666961,-1.3779875,14.474999,1.0
7861147,-1.3681804,-1.3794376,14.469999,1.0
7873558,-1.37224,-1.3836455,14.514999,1.0
7885148,-1.3783852,-1.389721,14.465,1.0
7897586,-1.3874595,-1.398943,14.495,1.0
7909056,-1.3988119,-1.4104197,14.49,1.0
7921512,-1.4120467,-1.4237642,14.49,1.0
7933037,-1.4280584,-1.4399766,14.5199995,1.0
7943780,-1.4471067,-1.4591224,14.49,1.0
7954685,-1.4680982,-1.4802626,14.48,1.0
7965129,-1.4888893,-1.5011622,14.469999,1.0
7977522,-1.507755,-1.5201,14.45,1.0
7989128,-1.5239971,-1.5366316,14.5,1.0
8001524,-1.5371641,-1.5498406,14.474999,1.0
8013111,-1.5476463,-1.5605469,14.5199995,1.0
8025711,-1.5550358,-1.5679888,14.505,1.0
8037130,-1.5596024,-1.5725402,14.5,1.0
8047754,-1.5619833,-1.5749271,14.495,1.0
8059086,-1.5626503,-1.5756601,14.5199995,1.0
8070732,-1.5619284,-1.5749683,14.509999,1.0
8081657,-1.5600197,-1.5729336,14.49,1.0
8092402,-1.5575488,-1.5705241,14.5199995,1.0
8103104,-1.5542115,-1.5670929,14.49,1.0
8115150,-1.5490736,-1.5618582,14.469999,1.0
8126361,-1.5409687,-1.5537654,14.505,1.0
8137593,-1.5301116,-1.5428314,14.509999,1.0
8149100,-1.5179373,-1.5305098,14.509999,1.0
8160909,-1.5057125,-1.518149,14.465,1.0
8172392,-1.4942775,-1.5065664,14.465,1.0
8183119,-1.4842716,-1.4965955,14.509999,1.0
8195508,-1.4758314,-1.4881817,14.53,1.0
8205904,-1.4689171,-1.4810421,14.465,1.0
8217940,-1.462959,-1.4751172,14.5,1.0
8229144,-1.4565736,-1.4687169,14.514999,1.0
8241107,-1.4503216,-1.4623961,14.5199995,1.0
8252903,-1.4449896,-1.4570198,14.5199995,1.0
8265254,-1.4402791,-1.4523226,14.535,1.0
8276735,-1.4356475,-1.4474635,14.46,1.0
8287768,-1.4312764,-1.4430671,14.469999,1.0
8299976,-1.4265621,-1.4383855,14.49,1.0
8311620,-1.4216344,-1.4334315,14.49,1.0
8322958,-1.4172813,-1.4290174,14.48,1.0
8335574,-1.4138587,-1.4255658,14.5,1.0
8347965,-1.4115195,-1.4231826,14.49,1.0
8359522,-1.4108279,-1.4225861,14.525,1.0
8369939,-1.4111186,-1.4227432,14.469999,1.0
8382371,-1.411924,-1.4236476,14.49,1.0
8393450,-1.4124607,-1.4240912,14.465,1.0
8405688,-1.4137214,-1.4254986,14.5199995,1.0
8416900,-1.4166776,-1.4284545,14.509999,1.0
8430397,-1.4220589,-1.4337862,14.474999,1.0
8441342,-1.4295416,-1.4413722,14.48,1.0
8453628,-1.4382583,-1.4501985,14.495,1.0
8464899,-1.4470543,-1.459131,14.5199995,1.0
8477623,-1.4541061,-1.4662178,14.525,1.0
8488801,-1.4582411,-1.4703326,14.495,1.0
8502742,-1.4592639,-1.4713874,14.509999,1.0
8514189,-1.4574513,-1.4694705,14.474999,1.0
8525612,-1.4539961,-1.4660449,14.495,1.0
8536525,-1.4499027,-1.4620287,14.53,1.0
8548810,-1.4454867,-1.4574668,14.49,1.0
8561489,-1.4411976,-1.4531298,14.485,1.0
8572832,-1.436376,-1.4481366,14.45,1.0
8585485,-1.4304366,-1.4422672,14.48,1.0
8596644,-1.4241241,-1.4359465,14.514999,1.0
8607348,-1.420404,-1.432183,14.509999,1.0
8618021,-1.4206247,-1.4323989,14.49,1.0
8629908,-1.4238857,-1.4357246,14.505,1.0
8641924,-1.4278755,-1.4398034,14.509999,1.0
8653900,-1.4300662,-1.4418995,14.465,1.0
8667933,-1.4301531,-1.441984,14.509999,1.0
8678048,-1.4291836,-1.4410303,14.505,1.0
8689331,-1.4285326,-1.4403527,14.485,1.0
8700292,-1.4288149,-1.4406748,14.5,1.0
8711993,-1.4297074,-1.4415563,14.509999,1.0
8724297,-1.4311507,-1.4430466,14.495,1.0
8736022,-1.4325991,-1.4445335,14.5199995,1.0
8747951,-1.4333601,-1.4452255,14.49,1.0
8759311,-1.4334567,-1.4453802,14.509999,1.0
8772604,-1.432812,-1.4446226,14.469999,1.0
8783295,-1.4314934,-1.4432607,14.46,1.0
8796750,-1.4297742,-1.4416276,14.5,1.0
8807437,-1.4284585,-1.4402548,14.469999,1.0
8820416,-1.4280298,-1.4399406,14.5199995,1.0
8832000,-1.4274006,-1.4392093,14.49,1.0
8844582,-1.4266053,-1.4384325,14.5,1.0
8855425,-1.4256219,-1.4374553,14.5,1.0
8865910,-1.424212,-1.4360356,14.495,1.0
8878504,-1.4219303,-1.4337294,14.509999,1.0
8888912,-1.4187667,-1.4305396,14.509999,1.0
8900690,-1.414922,-1.4265722,14.485,1.0
8911250,-1.410633,-1.4223667,14.509999,1.0
8923515,-1.4052463,-1.4169269,14.495,1.0
8934510,-1.3993201,-1.4110126,14.5199995,1.0
8945051,-1.3935454,-1.4050915,14.5,1.0
8956818,-1.3886117,-1.400129,14.505,1.0
8968554,-1.3847666,-1.3963319,14.535,1.0
8979517,-1.3819733,-1.3934062,14.49,1.0
8990473,-1.3802481,-1.3915942,14.46,1.0
9002838,-1.3801335,-1.3915379,14.469999,1.0
9013355,-1.3823558,-1.3937817,14.48,1.0
9024332,-1.3873134,-1.398841,14.505,1.0
9036123,-1.3946145,-1.4061488,14.48,1.0
9048457,-1.4038485,-1.4154624,14.49,1.0
9060062,-1.4133607,-1.4251562,14.5199995,1.0
9072464,-1.4216486,-1.4334385,14.49,1.0
9084101,-1.4297522,-1.4415429,14.474999,1.0
9096306,-1.4388043,-1.4508084,14.53,1.0
9107649,-1.4481583,-1.46009,14.465,1.0
9118485,-1.4580426,-1.4700686,14.469999,1.0
9130693,-1.4684867,-1.4806483,14.495,1.0
9141680,-1.479243,-1.4915161,14.495,1.0
9153908,-1.489839,-1.502165,14.469999,1.0
9165767,-1.4998236,-1.512311,14.5,1.0
9175972,-1.5082617,-1.5207388,14.509999,1.0
9188138,-1.5150024,-1.5276042,14.509999,1.0
9199813,-1.519948,-1.5324657,14.46,1.0
9210712,-1.5245296,-1.5372186,14.509999,1.0
9221644,-1.5290719,-1.54163,14.45,1.0
9234076,-1.5346733,-1.5473986,14.495,1.0
9245761,-1.5413992,-1.5541667,14.49,1.0
9257988,-1.5489389,-1.5618774,14.53,1.0
9269691,-1.5560642,-1.5689418,14.48,1.0
9280020,-1.5624285,-1.5754445,14.5199995,1.0
9292012,-1.5670321,-1.5800741,14.53,1.0
9303807,-1.5690597,-1.5819536,14.469999,1.0
9315972,-1.5685767,-1.5815477,14.485,1.0
9328016,-1.566011,-1.5790293,14.509999,1.0
9340290,-1.5622848,-1.5751354,14.46,1.0
9354625,-1.558616,-1.5715319,14.495,1.0
9365808,-1.5556626,-1.5685519,14.5,1.0
9376029,-1.5542338,-1.5671327,14.505,1.0
9388844,-1.5539675,-1.5668657,14.5199995,1.0
9399651,-1.5539981,-1.5667604,14.469999,1.0
9411574,-1.5545242,-1.567379,14.485,1.0
9422418,-1.5554591,-1.568341,14.495,1.0
9434167,-1.5557425,-1.568707,14.509999,1.0
9445247,-1.553287,-1.5662037,14.5,1.0
9457242,-1.5474248,-1.5604362,14.549999,1.0
9468035,-1.5384656,-1.5512372,14.514999,1.0
9480452,-1.5285292,-1.5412322,14.5,1.0
9492454,-1.5185987,-1.5313259,14.54,1.0
9505819,-1.5089427,-1.5214219,14.5,1.0
9518057,-1.5006372,-1.5129938,14.465,1.0
9529674,-1.4939212,-1.5062989,14.5,1.0
9541768,-1.4879673,-1.5003086,14.505,1.0
9552871,-1.4814343,-1.4937255,14.495,1.0
9565355,-1.4740247,-1.4862041,14.49,1.0
9576951,-1.4674289,-1.479604,14.495,1.0
9589261,-1.4632349,-1.4753752,14.495,1.0
9600947,-1.4628292,-1.4750357,14.525,1.0
9613780,-1.4660927,-1.4783304,14.514999,1.0
9624879,-1.4719411,-1.4840852,14.48,1.0
9637029,-1.4803649,-1.4926172,14.495,1.0
9648174,-1.4911717,-1.5035701,14.505,1.0
9659779,-1.503632,-1.51616,14.514999,1.0
9670733,-1.517134,-1.5297235,14.49,1.0
9682711,-1.5315478,-1.5442169,14.474999,1.0
9695410,-1.5472659,-1.5601127,14.509999,1.0
9707013,-1.5651639,-1.5781281,14.49,1.0
9719284,-1.5851728,-1.5983446,14.505,1.0
9730946,-1.6062257,-1.6195443,14.495,1.0
9743237,-1.6283958,-1.641892,14.49,1.0
9753905,-1.6510862,-1.6647699,14.509999,1.0
9765575,-1.6724889,-1.6863731,14.514999,1.0
9777378,-1.6907547,-1.70482,14.525,1.0
9789626,-1.7051196,-1.7192777,14.49,1.0
9800864,-1.7153881,-1.7296203,14.495,1.0
9814379,-1.7203573,-1.7345984,14.49,1.0
9825510,-1.7183589,-1.7325835,14.49,1.0
9837620,-1.7086824,-1.7228206,14.485,1.0
9848830,-1.6921474,-1.7061995,14.505,1.0
9861249,-1.6704179,-1.6843002,14.5,1.0
9872920,-1.6448611,-1.6584591,14.474999,1.0
9885553,-1.6173303,-1.630723,14.48,1.0
9896796,-1.5919393,-1.6051292,14.5,1.0
9909506,-1.5740097,-1.5871496,14.53,1.0
9920817,-1.5664266,-1.5793661,14.48,1.0
9934371,-1.5713041,-1.5843229,14.5,1.0
9945248,-1.5863503,-1.5994602,14.485,1.0
9957340,-1.6047772,-1.6180837,14.495,1.0
9968802,-1.6212211,-1.6346496,14.49,1.0
9981508,-1.6346614,-1.6481375,14.485,1.0
9992917,-1.6457949,-1.659386,14.469999,1.0
10005249,-1.6557814,-1.6695383,14.49,1.0
10017517,-1.6657368,-1.6796348,14.509999,1.0
10029242,-1.6759462,-1.6898111,14.49,1.0
10041135,-1.686581,-1.7006443,14.509999,1.0
10055257,-1.6959598,-1.7100966,14.5199995,1.0
10065890,-1.7025089,-1.7166705,14.509999,1.0
10078706,-1.7058694,-1.7198687,14.455,1.0
10089353,-1.7067751,-1.7208738,14.48,1.0
10101941,-1.7051638,-1.719382,14.509999,1.0
10113227,-1.7013019,-1.715488,14.509999,1.0
10124948,-1.6958852,-1.70999,14.495,1.0
10136050,-1.6894323,-1.703468,14.509999,1.0
10157913,-1.6821398,-1.6960621,14.495,1.0
10169266,-1.6740303,-1.687959,14.5199995,1.0
10180444,-1.6651399,-1.6789593,14.505,1.0
10191326,-1.6560323,-1.6698158,14.509999,1.0
10203905,-1.6468406,-1.6604276,14.48,1.0
10214181,-1.6381279,-1.6517147,14.505,1.0
10225127,-1.6297772,-1.6431844,14.474999,1.0
10236976,-1.6225282,-1.63599,14.495,1.0
10248089,-1.616948,-1.6304873,14.53,1.0
10260249,-1.6134636,-1.6269314,14.514999,1.0
10272010,-1.6117749,-1.6251796,14.514999,1.0
10284942,-1.6108282,-1.6242108,14.509999,1.0
10296051,-1.6097224,-1.6231025,14.495,1.0
10308261,-1.6085274,-1.6219541,14.514999,1.0
10319995,-1.608655,-1.6219735,14.485,1.0
10332307,-1.6111804,-1.624437,14.469999,1.0
10343363,-1.6142945,-1.6275936,14.45,1.0
10353892,-1.6164893,-1.629948,14.5,1.0
10367342,-1.6183794,-1.6317196,14.469999,1.0
10378047,-1.6220479,-1.6354408,14.474999,1.0
10390409,-1.6284869,-1.6421372,14.535,1.0
10401147,-1.63722,-1.6508574,14.505,1.0
10412722,-1.6480178,-1.6616389,14.5,1.0
10423346,-1.6604191,-1.6741371,14.474999,1.0
10435779,-1.6738381,-1.6877905,14.5199995,1.0
10447307,-1.6878139,-1.7017498,14.474999,1.0
10459603,-1.7019689,-1.7160231,14.49,1.0
10470044,-1.7146091,-1.728809,14.495,1.0
10482484,-1.7237334,-1.7379961,14.485,1.0
10494843,-1.7290697,-1.7434522,14.509999,1.0
10506566,-1.7314581,-1.7457998,14.49,1.0
10519125,-1.7315924,-1.7458745,14.469999,1.0
10531255,-1.7291582,-1.7434961,14.495,1.0
10542836,-1.7232399,-1.7374684,14.474999,1.0
10554480,-1.7137892,-1.7279997,14.495,1.0
10567144,-1.701119,-1.7153138,14.525,1.0
10579212,-1.68593,-1.6999203,14.49,1.0
10592300,-1.6693431,-1.6831958,14.49,1.0
10603786,-1.6521405,-1.665916,14.53,1.0
10616707,-1.6348566,-1.6484268,14.5,1.0
10627327,-1.6180542,-1.6314281,14.48,1.0
10640077,-1.6023968,-1.6156133,14.469999,1.0
10651129,-1.5884069,-1.6015558,14.49,1.0
10664310,-1.5758023,-1.5888468,14.49,1.0
10675888,-1.5644467,-1.5774362,14.509999,1.0
10687678,-1.5540558,-1.5669044,14.49,1.0
10698417,-1.5443282,-1.5571235,14.5,1.0
10711468,-1.5353445,-1.5480695,14.49,1.0
10722430,-1.5274473,-1.5400783,14.485,1.0
10735420,-1.520447,-1.5330465,14.495,1.0
10746543,-1.5142869,-1.5268368,14.509999,1.0
10758547,-1.5097355,-1.5221573,14.469999,1.0
10770425,-1.5073541,-1.5198737,14.5,1.0
10783219,-1.5061309,-1.5185742,14.474999,1.0
10794393,-1.5058513,-1.5184091,14.525,1.0
10806783,-1.5057287,-1.5181891,14.5,1.0
10818393,-1.5048859,-1.5173453,14.485,1.0
10830697,-1.5018691,-1.514409,14.525,1.0
10842393,-1.4959679,-1.5083888,14.509999,1.0
10855211,-1.4887152,-1.5010443,14.495,1.0
10866583,-1.4828187,-1.4950806,14.485,1.0
10878743,-1.4801242,-1.4923767,14.49,1.0
10890346,-1.4810652,-1.4933178,14.49,1.0
10902878,-1.485887,-1.4981872,14.49,1.0
10914498,-1.4939635,-1.5062594,14.46,1.0
10926608,-1.5043623,-1.5167836,14.474999,1.0
10938399,-1.5158312,-1.5284115,14.505,1.0
10950776,-1.5271106,-1.5397689,14.505,1.0
10962445,-1.5373375,-1.5499883,14.465,1.0
10974028,-1.5457567,-1.5584633,14.46,1.0
10986503,-1.5517837,-1.5646042,14.474999,1.0
10998035,-1.5554893,-1.5684202,14.509999,1.0
11009612,-1.5572435,-1.5701731,14.509999,1.0
11022171,-1.5574439,-1.570266,14.469999,1.0
11033712,-1.556665,-1.5695899,14.509999,1.0
11045899,-1.5554391,-1.5683129,14.495,1.0
11057603,-1.5548886,-1.5678322,14.505,1.0
11069936,-1.5538934,-1.5667744,14.485,1.0
11081624,-1.5511019,-1.5639261,14.49,1.0
11094177,-1.5471214,-1.5599998,14.525,1.0
11105594,-1.5432571,-1.5561076,14.514999,1.0
11118206,-1.5404103,-1.5532101,14.505,1.0
11129696,-1.5384806,-1.5512679,14.514999,1.0
11142703,-1.536566,-1.5494033,14.525,1.0
11153599,-1.5335275,-1.5463219,14.53,1.0
11167174,-1.5287027,-1.5414165,14.514999,1.0
11177746,-1.5218313,-1.5344142,14.469999,1.0
11190729,-1.5138884,-1.5264162,14.5,1.0
11201602,-1.5064535,-1.5189579,14.5,1.0
11214763,-1.5000707,-1.5124695,14.48,1.0
11225544,-1.4948912,-1.5073464,14.514999,1.0
11239154,-1.4900101,-1.5023562,14.48,1.0
11250706,-1.4850239,-1.4972258,14.455,1.0
11262844,-1.480916,-1.493227,14.509999,1.0
11273572,-1.4775276,-1.4897382,14.485,1.0
11286723,-1.4739323,-1.4861518,14.5,1.0
11297710,-1.4690295,-1.4811862,14.5,1.0
11311148,-1.4635352,-1.4755694,14.469999,1.0
11322678,-1.4590995,-1.4712232,14.525,1.0
11335110,-1.4561248,-1.4680946,14.46,1.0
11345709,-1.455338,-1.4674401,14.5,1.0
11359216,-1.4559262,-1.4680078,14.49,1.0
11370711,-1.456237,-1.4682937,14.485,1.0
11382376,-1.4544016,-1.4664868,14.505,1.0
11393697,-1.4496617,-1.4616313,14.474999,1.0
11405951,-1.4433143,-1.4552946,14.5,1.0
11416749,-1.4375527,-1.4495608,14.53,1.0
11429396,-1.4337475,-1.445659,14.509999,1.0
11440813,-1.4322625,-1.444103,14.474999,1.0
11454328,-1.4343966,-1.446242,14.469999,1.0
11464861,-1.4415642,-1.4535406,14.509999,1.0
11477395,-1.4524577,-1.464532,14.509999,1.0
11488891,-1.4646164,-1.4767412,14.469999,1.0
11498714,-1.4766215,-1.4889362,14.505,1.0
11510704,-1.4870527,-1.4993774,14.49,1.0
11520913,-1.4953609,-1.5077994,14.509999,1.0
11533621,-1.5013138,-1.5136814,14.469999,1.0
11544950,-1.5056053,-1.5181139,14.509999,1.0
11557360,-1.5085698,-1.5211413,14.509999,1.0
11568988,-1.5110943,-1.5235238,14.46,1.0
11581360,-1.5146614,-1.5272242,14.505,1.0
11593104,-1.5191969,-1.5318106,14.509999,1.0
11604442,-1.5240742,-1.5366925,14.485,1.0
11615338,-1.5291507,-1.5418704,14.509999,1.0
11625935,-1.5349013,-1.5476553,14.505,1.0
11638025,-1.5417496,-1.5544659,14.469999,1.0
11649515,-1.5496302,-1.5624729,14.509999,1.0
11660282,-1.557822,-1.5706142,14.455,1.0
11671993,-1.566254,-1.5792462,14.5199995,1.0
11683614,-1.5743426,-1.5873606,14.505,1.0
11695296,-1.5823337,-1.5954481,14.49,1.0
11706030,-1.5900862,-1.6031991,14.474999,1.0
11718170,-1.5971471,-1.6104523,14.5199995,1.0
11729519,-1.6021426,-1.6153911,14.485,1.0
11741104,-1.6046575,-1.6179912,14.505,1.0
11752122,-1.6045232,-1.6178099,14.48,1.0
11764310,-1.6027484,-1.6160802,14.509999,1.0
11776100,-1.5998641,-1.6130878,14.48,1.0
11788787,-1.5966023,-1.6098064,14.5,1.0
11799993,-1.5934756,-1.6067642,14.525,1.0
11812805,-1.5897563,-1.6028943,14.485,1.0
11823315,-1.5849578,-1.5981117,14.505,1.0
11834153,-1.5785036,-1.5915487,14.485,1.0
11846038,-1.5705506,-1.5835183,14.474999,1.0
11857473,-1.5605475,-1.5733737,14.465,1.0
11868756,-1.5481148,-1.5609609,14.509999,1.0
11880562,-1.5333555,-1.5460353,14.485,1.0
11891912,-1.5175625,-1.5300927,14.474999,1.0
11902558,-1.50141,-1.5138088,14.469999,1.0
11913493,-1.485174,-1.4974908,14.49,1.0
11927272,-1.4700767,-1.4822406,14.485,1.0
11939613,-1.4572397,-1.4692954,14.49,1.0
11950520,-1.4459734,-1.4579346,14.474999,1.0
11960926,-1.4361119,-1.4481299,14.53,1.0
11974441,-1.4284067,-1.4401666,14.469999,1.0
11984905,-1.4246011,-1.4364116,14.5,1.0
11996949,-1.4246261,-1.4365249,14.514999,1.0
12009137,-1.427699,-1.4395108,14.469999,1.0
12020771,-1.4329045,-1.4447495,14.495,1.0
12032573,-1.4389535,-1.4508705,14.495,1.0
12044000,-1.4462125,-1.4581536,14.474999,1.0
12055910,-1.456195,-1.4681929,14.465,1.0
12067921,-1.4691143,-1.4813563,14.53,1.0
12079273,-1.4845601,-1.4967897,14.469999,1.0
12092034,-1.5022401,-1.5146812,14.495,1.0
12103233,-1.5197338,-1.5323596,14.509999,1.0
12115519,-1.5348512,-1.5475658,14.505,1.0
12127232,-1.5461632,-1.5588847,14.469999,1.0
12140025,-1.5535682,-1.56637,14.48,1.0
12151252,-1.557234,-1.5701069,14.495,1.0
12163906,-1.5563943,-1.5693384,14.514999,1.0
12175198,-1.5512515,-1.564155,14.509999,1.0
12188015,-1.5434762,-1.5562993,14.509999,1.0
12199310,-1.5336192,-1.5463066,14.49,1.0
12210042,-1.5219744,-1.5346056,14.505,1.0
12221603,-1.5096959,-1.522189,14.5,1.0
12233124,-1.4987746,-1.5112396,14.514999,1.0
12245506,-1.4907365,-1.5030823,14.495,1.0
12257248,-1.4864314,-1.4987566,14.495,1.0
12269594,-1.4856337,-1.4979392,14.49,1.0
12281506,-1.4878789,-1.5002182,14.49,1.0
12293544,-1.4920955,-1.504509,14.505,1.0
12305098,-1.4975135,-1.5098755,14.5,1.0
12317528,-1.5047234,-1.5171587,14.485,1.0
12328074,-1.5135227,-1.5260922,14.485,1.0
12340364,-1.5232005,-1.535917,14.509999,1.0
12351269,-1.5330296,-1.5456833,14.485,1.0
12363502,-1.5421647,-1.5549228,14.49,1.0
12375209,-1.5490882,-1.5619873,14.514999,1.0
12387512,-1.5534765,-1.5663849,14.505,1.0
12399525,-1.5559003,-1.5688484,14.514999,1.0
12411241,-1.5569062,-1.5697749,14.48,1.0
12423810,-1.5578768,-1.5709525,14.549999,1.0
12435415,-1.5591524,-1.5721295,14.509999,1.0
12446453,-1.5610999,-1.5740305,14.49,1.0
12458779,-1.563863,-1.5769125,14.525,1.0
12469723,-1.5676471,-1.580583,14.474999,1.0
12480012,-1.5734367,-1.5864892,14.5,1.0
12492422,-1.5805846,-1.5936235,14.465,1.0
12503751,-1.587706,-1.6009009,14.5,1.0
12514842,-1.5933632,-1.606569,14.49,1.0
12526461,-1.5973678,-1.6106629,14.509999,1.0
12538811,-1.5993379,-1.6126009,14.509999,1.0
12551140,-1.5997751,-1.6129761,14.474999,1.0
12563209,-1.5996388,-1.6129285,14.509999,1.0
12574842,-1.599116,-1.6123452,14.49,1.0
12587140,-1.5982351,-1.6115074,14.505,1.0
12599097,-1.5967469,-1.6100007,14.5,1.0
12611491,-1.5951073,-1.6083101,14.474999,1.0
12623085,-1.5934968,-1.60677,14.505,1.0
12635172,-1.591043,-1.6042774,14.509999,1.0
12646994,-1.5870938,-1.6002916,14.5,1.0
12659267,-1.5812654,-1.5943923,14.514999,1.0
12671183,-1.5742137,-1.5872545,14.505,1.0
12683247,-1.56666,-1.579597,14.49,1.0
12694948,-1.5579711,-1.5708737,14.495,1.0
12707117,-1.546703,-1.5594795,14.48,1.0
12718980,-1.533371,-1.5461448,14.5199995,1.0
12731229,-1.5185869,-1.531192,14.5,1.0
12742706,-1.5029969,-1.515533,14.5199995,1.0
12755213,-1.4886876,-1.5010556,14.509999,1.0
12767093,-1.4790312,-1.4913448,14.5199995,1.0
12779201,-1.474645,-1.4869351,14.525,1.0
12790964,-1.4741929,-1.4864738,14.5199995,1.0
12803196,-1.476501,-1.4887882,14.514999,1.0
12814982,-1.4803127,-1.4926445,14.5199995,1.0
12827285,-1.4836785,-1.4959794,14.48,1.0
12838064,-1.485939,-1.4983665,14.53,1.0
12849517,-1.4867407,-1.4990685,14.495,1.0
12860836,-1.4861038,-1.4984653,14.509999,1.0
12874476,-1.4848417,-1.4972264,14.5199995,1.0
12884955,-1.4844321,-1.4967408,14.495,1.0
12897493,-1.4853425,-1.497623,14.49,1.0
12908158,-1.4876263,-1.5000433,14.535,1.0
12921137,-1.491448,-1.5038335,14.505,1.0
12932821,-1.4970009,-1.5093855,14.49,1.0
12945754,-1.5034574,-1.5159295,14.5,1.0
12957158,-1.5100453,-1.5225719,14.5,1.0
12969721,-1.5164952,-1.5290333,14.49,1.0
12980862,-1.5227153,-1.5353125,14.49,1.0
12994806,-1.5285611,-1.5412456,14.49,1.0
13006166,-1.5338622,-1.5465907,14.49,1.0
13017644,-1.5386528,-1.5514706,14.5199995,1.0
13028847,-1.5429053,-1.555834,14.545,1.0
13041522,-1.5463718,-1.5591378,14.48,1.0
13053919,-1.5495679,-1.5624962,14.53,1.0
13065441,-1.5521457,-1.5650766,14.5,1.0
13078134,-1.5539386,-1.566843,14.505,1.0
13089917,-1.5546019,-1.5674629,14.49,1.0
13102158,-1.5544885,-1.5674441,14.525,1.0
13113485,-1.5540216,-1.5668314,14.469999,1.0
13124831,-1.553882,-1.5667528,14.49,1.0
13136721,-1.5540729,-1.5669453,14.49,1.0
13147349,-1.5551566,-1.5681335,14.525,1.0
13158036,-1.5569794,-1.5699304,14.509999,1.0
13169893,-1.5589337,-1.5719191,14.505,1.0
13181923,-1.5595653,-1.5725718,14.505,1.0
13193896,-1.558339,-1.5712941,14.49,1.0
13205928,-1.5563196,-1.5692731,14.509999,1.0
13217571,-1.5550691,-1.5680473,14.5199995,1.0
13229354,-1.5557185,-1.568718,14.5199995,1.0
13240315,-1.5580256,-1.5710033,14.505,1.0
13251314,-1.5606776,-1.5735495,14.49,1.0
13263598,-1.5627625,-1.5757458,14.509999,1.0
13275279,-1.5635716,-1.5765581,14.5,1.0
13286164,-1.5641617,-1.5770708,14.469999,1.0
13299261,-1.5662813,-1.5792606,14.495,1.0
13309904,-1.5704391,-1.5834862,14.509999,1.0
13322021,-1.5757806,-1.5889099,14.514999,1.0
13333354,-1.5807533,-1.5938965,14.505,1.0
13344323,-1.5850692,-1.5981911,14.469999,1.0
13356161,-1.589089,-1.602333,14.525,1.0
13368444,-1.5919249,-1.6052268,14.5199995,1.0
13380037,-1.591676,-1.604962,14.514999,1.0
13392706,-1.5867039,-1.5998029,14.48,1.0
13403302,-1.5774744,-1.5905703,14.495,1.0
13415793,-1.5652921,-1.5783557,14.5199995,1.0
13425923,-1.5507789,-1.5636398,14.49,1.0
13437247,-1.5349817,-1.5476805,14.49,1.0
13448673,-1.5200281,-1.5326777,14.514999,1.0
13462499,-1.5066235,-1.5192162,14.53,1.0
13473109,-1.495243,-1.5076095,14.48,1.0
13486537,-1.4880401,-1.5004473,14.53,1.0
13497068,-1.4854267,-1.4977622,14.505,1.0
13510533,-1.4867864,-1.4990569,14.469999,1.0
13521010,-1.4910762,-1.503539,14.53,1.0
13534460,-1.4962186,-1.5085889,14.49,1.0
13544992,-1.5011107,-1.5135764,14.505,1.0
13558543,-1.5043523,-1.5168033,14.495,1.0
13568879,-1.5055567,-1.5180572,14.509999,1.0
13581030,-1.5048229,-1.5173284,14.5199995,1.0
13592297,-1.5029454,-1.5154734,14.5199995,1.0
13604693,-1.5001272,-1.512577,14.505,1.0
13616446,-1.4964076,-1.5086956,14.455,1.0
13628036,-1.4932405,-1.5056745,14.514999,1.0
13639230,-1.4913658,-1.5038159,14.53,1.0
13652033,-1.491249,-1.5037729,14.549999,1.0
13664319,-1.492789,-1.5051689,14.49,1.0
13676067,-1.4958928,-1.5083619,14.5199995,1.0
13688717,-1.499304,-1.51177,14.505,1.0
13700012,-1.5025451,-1.5148909,14.455,1.0
13712548,-1.5054802,-1.5178634,14.46,1.0
13725710,-1.5075047,-1.5200006,14.505,1.0
13736018,-1.508599,-1.5210325,14.474999,1.0
13747904,-1.5097604,-1.5223355,14.525,1.0
13759219,-1.5111482,-1.5236421,14.49,1.0
13771971,-1.5135515,-1.5261719,14.509999,1.0
13784102,-1.516869,-1.5294375,14.48,1.0
13796593,-1.5210142,-1.5336624,14.5,1.0
13808105,-1.5247589,-1.5374652,14.509999,1.0
13820337,-1.5273278,-1.5401225,14.535,1.0
13832066,-1.5284717,-1.5411576,14.485,1.0
13844793,-1.5291984,-1.5418591,14.485,1.0
13859253,-1.5301446,-1.5428535,14.5,1.0
13870453,-1.5311964,-1.5439831,14.5199995,1.0
13884004,-1.532722,-1.5454848,14.514999,1.0
13895901,-1.5354984,-1.5483177,14.509999,1.0
13908134,-1.539002,-1.5517963,14.49,1.0
13918741,-1.5421877,-1.5549381,14.49,1.0
13932001,-1.5440973,-1.5568985,14.5,1.0
13942694,-1.5438392,-1.5566676,14.505,1.0
13955926,-1.541412,-1.5542606,14.5199995,1.0
13966729,-1.537525,-1.5502561,14.5,1.0
13979515,-1.5331519,-1.5459374,14.525,1.0
13990461,-1.5285386,-1.5412186,14.5,1.0
14003886,-1.5245391,-1.5371325,14.48,1.0
14014313,-1.5209558,-1.5335805,14.5,1.0
14026950,-1.516786,-1.5292852,14.46,1.0
14038361,-1.513078,-1.5256431,14.505,1.0
14051131,-1.5110768,-1.5236914,14.53,1.0
14062693,-1.5111057,-1.5235901,14.474999,1.0
14075906,-1.5132351,-1.5257846,14.49,1.0
14086448,-1.5165523,-1.5292281,14.53,1.0
14098774,-1.5204474,-1.5330224,14.48,1.0
14109510,-1.5256016,-1.5384008,14.545,1.0
14122693,-1.5312707,-1.5438837,14.455,1.0
14133606,-1.5374492,-1.5502648,14.5199995,1.0
14147109,-1.5428679,-1.5556475,14.49,1.0
14157683,-1.5474452,-1.5602279,14.48,1.0
14167738,-1.5515723,-1.5644519,14.48,1.0
14178150,-1.5555496,-1.5684105,14.49,1.0
14189715,-1.5597615,-1.5727257,14.514999,1.0
14201492,-1.5636253,-1.5766238,14.509999,1.0
14212904,-1.5665939,-1.5796034,14.505,1.0
14225411,-1.5691123,-1.5822071,14.54,1.0
14236946,-1.5715103,-1.5844461,14.474999,1.0
14249264,-1.573753,-1.5867015,14.469999,1.0
14260888,-1.575819,-1.5889283,14.525,1.0
14273245,-1.5776883,-1.5907252,14.469999,1.0
14284957,-1.5798498,-1.5929874,14.5,1.0
14297249,-1.5827373,-1.5958413,14.485,1.0
14308871,-1.58653,-1.5997409,14.514999,1.0
14319241,-1.5899019,-1.6030389,14.49,1.0
14331771,-1.5925275,-1.6056862,14.49,1.0
14343110,-1.5942621,-1.6075153,14.509999,1.0
14355994,-1.594856,-1.6081039,14.514999,1.0
14367128,-1.5954676,-1.6087749,14.5199995,1.0
14380893,-1.5969044,-1.6101257,14.485,1.0
14390840,-1.5990654,-1.6122781,14.49,1.0
14404862,-1.6020687,-1.6154289,14.525,1.0
14415119,-1.606885,-1.6202171,14.495,1.0
14428898,-1.6150832,-1.6284691,14.49,1.0
14439114,-1.6264857,-1.6399267,14.505,1.0
14452942,-1.6390102,-1.6525282,14.49,1.0
14465643,-1.6508118,-1.6645449,14.525,1.0
14476836,-1.6609504,-1.6746659,14.49,1.0
14489712,-1.669197,-1.6829329,14.465,1.0
14500838,-1.6767318,-1.6905593,14.474999,1.0
14513658,-1.6859404,-1.6999688,14.5,1.0
14524915,-1.6970817,-1.7111285,14.474999,1.0
14537679,-1.7087498,-1.7228861,14.49,1.0
14548907,-1.7179043,-1.732179,14.505,1.0
14562846,-1.7207617,-1.7350751,14.509999,1.0
14576748,-1.7161772,-1.7304677,14.514999,1.0
14588105,-1.706451,-1.7206541,14.509999,1.0
14600374,-1.6949434,-1.7090758,14.53,1.0
14612071,-1.6839638,-1.6978717,14.485,1.0
14624477,-1.6755832,-1.6894073,14.48,1.0
14636133,-1.6704651,-1.6843411,14.514999,1.0
14647090,-1.6676842,-1.6815708,14.514999,1.0
14658960,-1.6665654,-1.6804594,14.514999,1.0
14670125,-1.6670253,-1.6809818,14.535,1.0
14681951,-1.668979,-1.6827863,14.49,1.0
14693490,-1.6718541,-1.6857421,14.495,1.0
14704820,-1.6731492,-1.6869895,14.474999,1.0
14717485,-1.6711755,-1.6850433,14.49,1.0
14728864,-1.6662133,-1.6801169,14.525,1.0
14741104,-1.6607192,-1.6745331,14.509999,1.0
14752807,-1.6569047,-1.6705375,14.469999,1.0
14765498,-1.6562215,-1.669921,14.495,1.0
14776741,-1.6586449,-1.6725028,14.505,1.0
14788039,-1.6618855,-1.6757262,14.509999,1.0
14800811,-1.6636262,-1.6774315,14.49,1.0
14813488,-1.6632353,-1.6770809,14.505,1.0
14824838,-1.6615769,-1.675356,14.509999,1.0
14837099,-1.6598654,-1.6736188,14.48,1.0
14848810,-1.658178,-1.6720252,14.5199995,1.0
14861147,-1.6562238,-1.6700983,14.535,1.0
14872854,-1.6536825,-1.6673031,14.474999,1.0
14885360,-1.6504517,-1.6640998,14.485,1.0
14896752,-1.6468319,-1.660503,14.514999,1.0
14907342,-1.6444255,-1.6580045,14.49,1.0
14918021,-1.6440135,-1.6577258,14.5199995,1.0
14929889,-1.6453203,-1.6589568,14.49,1.0
14941218,-1.6490918,-1.6627619,14.485,1.0
14952325,-1.6557714,-1.6694825,14.48,1.0
14966587,-1.6666037,-1.6803744,14.49,1.0
14977107,-1.6832268,-1.6971923,14.495,1.0
14990455,-1.7058537,-1.7200321,14.514999,1.0
15001011,-1.7335582,-1.7479365,14.505,1.0
15014451,-1.7652984,-1.7800441,14.53,1.0
15025103,-1.7995641,-1.8145083,14.505,1.0
15038531,-1.8342083,-1.8494562,14.509999,1.0
15049022,-1.8665322,-1.8819834,14.49,1.0
15062462,-1.8948442,-1.9105227,14.485,1.0
15072996,-1.9183745,-1.9342407,14.48,1.0
15085053,-1.9378669,-1.9540275,14.525,1.0
15095993,-1.95372,-1.9698929,14.49,1.0
15107732,-1.9659145,-1.982208,14.49,1.0
15118516,-1.9742912,-1.9906944,14.49,1.0
15130936,-1.9786066,-1.9950647,14.509999,1.0
15142472,-1.9785105,-1.9949507,14.505,1.0
15153069,-1.9732677,-1.9894785,14.46,1.0
15164985,-1.962176,-1.9783157,14.46,1.0
15176312,-1.9448615,-1.9609215,14.49,1.0
15429716,-1.8928021,-1.9084821,14.505,1.0
15965242,-2.0060234,-2.02273,14.509999,1.0
15977129,-2.000946,-2.0175707,14.49,1.0
15989120,-1.994881,-2.0115426,14.514999,1.0
16000934,-1.9876559,-2.0041893,14.509999,1.0
16013593,-1.9798121,-1.9961654,14.5,1.0
16024812,-1.9719839,-1.9883724,14.5,1.0
16037362,-1.9643432,-1.9807029,14.509999,1.0
16048963,-1.9572664,-1.9735122,14.5199995,1.0
16061758,-1.9508435,-1.9670707,14.509999,1.0
16074292,-1.9448586,-1.9608585,14.455,1.0
16086044,-1.9402204,-1.956454,14.535,1.0
16097418,-1.9358953,-1.9520224,14.5199995,1.0
16109696,-1.930949,-1.947033,14.505,1.0
16120793,-1.9249223,-1.9409367,14.505,1.0
16136168,-1.9185352,-1.9345134,14.509999,1.0
16148407,-1.9125954,-1.9284515,14.5,1.0
16159211,-1.908206,-1.9240718,14.505,1.0
16169891,-1.905839,-1.921649,14.5,1.0
16181918,-1.9058566,-1.9217001,14.509999,1.0
16194021,-1.9078273,-1.9236467,14.495,1.0
16207263,-1.9114678,-1.9273192,14.509999,1.0
16218036,-1.9169455,-1.9328235,14.49,1.0
16231345,-1.9244324,-1.9403558,14.485,1.0
16242021,-1.9334728,-1.9495049,14.495,1.0
16255284,-1.9425364,-1.9586945,14.509999,1.0
16266071,-1.9504821,-1.9667406,14.5199995,1.0
16279263,-1.9569485,-1.9733467,14.545,1.0
16289904,-1.9612842,-1.9775784,14.509999,1.0
16303296,-1.9635202,-1.9798828,14.509999,1.0
16313978,-1.9635974,-1.9798448,14.485,1.0
16327300,-1.9626601,-1.9789342,14.495,1.0
16337923,-1.9615818,-1.9776868,14.46,1.0
16351462,-1.9611393,-1.9773393,14.48,1.0
16362039,-1.9609125,-1.9770217,14.46,1.0
16375281,-1.9611101,-1.9773587,14.5,1.0
16385914,-1.9613638,-1.9777627,14.5199995,1.0
16399293,-1.9607327,-1.9769952,14.505,1.0
16410031,-1.9592121,-1.9755533,14.5199995,1.0
16423270,-1.9566084,-1.9728936,14.509999,1.0
16435762,-1.9532954,-1.9695305,14.514999,1.0
16447296,-1.9495957,-1.965747,14.485,1.0
16458997,-1.945816,-1.9621191,14.53,1.0
16471174,-1.9420317,-1.958235,14.509999,1.0
16482729,-1.9391963,-1.9554557,14.545,1.0
16494431,-1.9380302,-1.9541312,14.509999,1.0
16504927,-1.9394631,-1.955586,14.509999,1.0
16518473,-1.9429325,-1.9590842,14.509999,1.0
16529031,-1.947244,-1.963427,14.5,1.0
16542541,-1.9514464,-1.9677154,14.514999,1.0
16554768,-1.9551381,-1.9713768,14.5,1.0
16566603,-1.9583743,-1.9745712,14.48,1.0
16579359,-1.9616714,-1.9779887,14.509999,1.0
16591158,-1.9662356,-1.9825839,14.505,1.0
16602781,-1.9727585,-1.9892255,14.514999,1.0
16614505,-1.9794358,-1.9959757,14.5199995,1.0
16625106,-1.9842842,-2.0007567,14.514999,1.0
16637636,-1.9864126,-2.0029356,14.509999,1.0
16648618,-1.9848609,-2.001471,14.53,1.0
16660324,-1.9800472,-1.9966516,14.54,1.0
16671273,-1.9734637,-1.9899437,14.5199995,1.0
16684201,-1.9666635,-1.9831213,14.53,1.0
16696588,-1.960578,-1.9768937,14.514999,1.0
16708165,-1.9558023,-1.9720783,14.514999,1.0
16720315,-1.9520392,-1.9681324,14.465,1.0
16732443,-1.9493594,-1.965489,14.485,1.0
16744443,-1.947377,-1.9636418,14.514999,1.0
16756165,-1.9455894,-1.9618224,14.509999,1.0
16767322,-1.9439728,-1.9600426,14.495,1.0
16779274,-1.9425915,-1.9586911,14.509999,1.0
16790463,-1.9409565,-1.95686,14.465,1.0
16803788,-1.9396693,-1.955647,14.49,1.0
16814477,-1.9385713,-1.954599,14.49,1.0
16827393,-1.9383055,-1.954477,14.53,1.0
16839754,-1.9398378,-1.9560101,14.514999,1.0
16851302,-1.9420995,-1.9582567,14.505,1.0
16862521,-1.9424955,-1.9585556,14.49,1.0
16875496,-1.939313,-1.9554025,14.514999,1.0
16887743,-1.931897,-1.9479563,14.53,1.0
16900561,-1.9209094,-1.936709,14.48,1.0
16911781,-1.9082239,-1.9240913,14.5199995,1.0
16924635,-1.8949574,-1.9107366,14.514999,1.0
16935744,-1.8818064,-1.8973719,14.495,1.0
16949752,-1.8691248,-1.8846182,14.505,1.0
16960045,-1.8564347,-1.8718023,14.49,1.0
16972859,-1.8430357,-1.8583016,14.49,1.0
16983645,-1.828401,-1.8436233,14.5199995,1.0
16995391,-1.8124093,-1.8273556,14.474999,1.0
17006465,-1.7954577,-1.810424,14.5199995,1.0
17019518,-1.7772515,-1.7919971,14.495,1.0
17030402,-1.7582159,-1.7727413,14.495,1.0
17043426,-1.738558,-1.7530276,14.53,1.0
17054486,-1.7183596,-1.7326853,14.514999,1.0
17066945,-1.6986536,-1.7126704,14.474999,1.0
17078420,-1.6803071,-1.6943601,14.53,1.0
17091931,-1.6622052,-1.6760628,14.514999,1.0
17102417,-1.644468,-1.65812,14.495,1.0
17115779,-1.6273217,-1.6408414,14.509999,1.0
17126517,-1.6103401,-1.6236905,14.5,1.0
17139529,-1.5935261,-1.6067512,14.505,1.0
17149678,-1.5781182,-1.5912771,14.509999,1.0
17160595,-1.5653888,-1.5783529,14.495,1.0
17171633,-1.5561897,-1.5691494,14.53,1.0
17183749,-1.5498496,-1.5627565,14.53,1.0
17194867,-1.5451524,-1.5579795,14.514999,1.0
17207151,-1.5409238,-1.5537726,14.509999,1.0
17219196,-1.5365263,-1.5493383,14.509999,1.0
17230854,-1.5324289,-1.54518,14.5,1.0
17243172,-1.5289272,-1.541597,14.495,1.0
17254994,-1.5260793,-1.5387199,14.49,1.0
17267224,-1.5241203,-1.53681,14.5,1.0
17278858,-1.523412,-1.5362025,14.54,1.0
17291240,-1.5237421,-1.536426,14.525,1.0
17302844,-1.5250845,-1.5377322,14.49,1.0
17315169,-1.5271386,-1.5398259,14.509999,1.0
17326716,-1.5293884,-1.5421348,14.525,1.0
17338157,-1.5310591,-1.5437142,14.48,1.0
17350842,-1.5325078,-1.545309,14.53,1.0
17363225,-1.5337596,-1.5465621,14.514999,1.0
17374943,-1.5345547,-1.5472698,14.48,1.0
17387231,-1.5354233,-1.5481936,14.495,1.0
17398970,-1.5374562,-1.5501946,14.5,1.0
17409931,-1.5421753,-1.5551113,14.549999,1.0
17421930,-1.55076,-1.5636458,14.505,1.0
17434399,-1.5653294,-1.5783024,14.509999,1.0
17446151,-1.5859336,-1.5990778,14.49,1.0
17457281,-1.6106672,-1.6239662,14.474999,1.0
17468836,-1.6373051,-1.6509962,14.535,1.0
17481244,-1.662087,-1.6758556,14.505,1.0
17492831,-1.683026,-1.6969223,14.474999,1.0
17506477,-1.7003603,-1.7143826,14.474999,1.0
17517258,-1.7146821,-1.7288073,14.469999,1.0
17529662,-1.7263682,-1.740683,14.495,1.0
17540903,-1.7359638,-1.7502733,14.469999,1.0
17553618,-1.742929,-1.7573199,14.474999,1.0
17565367,-1.7453057,-1.759762,14.49,1.0
17577380,-1.7427279,-1.7572265,14.505,1.0
17589369,-1.7365694,-1.7510056,14.509999,1.0
17601104,-1.7288355,-1.7431946,14.5,1.0
17612990,-1.7200817,-1.7343378,14.49,1.0
17625443,-1.7094771,-1.7237394,14.53,1.0
17636964,-1.6963744,-1.7104719,14.5199995,1.0
17649506,-1.681844,-1.6957958,14.5,1.0
17660831,-1.6671084,-1.6809819,14.514999,1.0
17674719,-1.6530503,-1.6667677,14.49,1.0
17685184,-1.6416774,-1.6552504,14.49,1.0
17697736,-1.6366385,-1.6502727,14.5199995,1.0
17708857,-1.6394206,-1.653078,14.5199995,1.0
17720180,-1.6483971,-1.662133,14.53,1.0
17731367,-1.6600624,-1.6738939,14.514999,1.0
17741932,-1.6720687,-1.6859394,14.5,1.0
17754021,-1.6847805,-1.6987715,14.505,1.0
17765360,-1.6977751,-1.7118927,14.5199995,1.0
17776520,-1.709543,-1.7236284,14.465,1.0
17787374,-1.7197176,-1.7339472,14.485,1.0
17799656,-1.7283807,-1.7428938,14.554999,1.0
17811318,-1.7353085,-1.7497518,14.509999,1.0
17821926,-1.741187,-1.7556574,14.5,1.0
17834215,-1.7467127,-1.7612243,14.509999,1.0
17845247,-1.7529516,-1.7674843,14.5,1.0
17858215,-1.760952,-1.7755796,14.514999,1.0
17869256,-1.7704912,-1.7852365,14.509999,1.0
17880712,-1.7798359,-1.7945957,14.509999,1.0
17891295,-1.7879425,-1.8027225,14.495,1.0
17904299,-1.7944745,-1.8093829,14.509999,1.0
17916034,-1.798778,-1.8136864,14.49,1.0
17928483,-1.799958,-1.814887,14.505,1.0
17939315,-1.7973837,-1.8123072,14.509999,1.0
17950035,-1.7921942,-1.8073449,14.57,1.0
17961895,-1.784823,-1.7997139,14.53,1.0
17973922,-1.7757633,-1.7905524,14.509999,1.0
17985927,-1.7653614,-1.7801257,14.53,1.0
17998165,-1.7549908,-1.7695801,14.509999,1.0
18009600,-1.7467723,-1.7613239,14.5199995,1.0
18021259,-1.7424266,-1.7568679,14.49,1.0
18032459,-1.7431725,-1.7576354,14.495,1.0
18044336,-1.7481669,-1.7626382,14.49,1.0
18055789,-1.7553536,-1.7698665,14.49,1.0
18066558,-1.7626902,-1.7773768,14.514999,1.0
18077131,-1.7685124,-1.7831391,14.48,1.0
18090466,-1.7727365,-1.7874022,14.49,1.0
18101008,-1.7762663,-1.7909923,14.5,1.0
18112784,-1.7805297,-1.7953272,14.5,1.0
18124557,-1.7860876,-1.8009627,14.509999,1.0
18135745,-1.7928728,-1.8077728,14.5,1.0
18147280,-1.8005897,-1.8154525,14.465,1.0
18159645,-1.8084121,-1.8233728,14.49,1.0
18171218,-1.8156348,-1.8307668,14.525,1.0
18183792,-1.822474,-1.8376243,14.509999,1.0
18194570,-1.829382,-1.8446333,14.514999,1.0
18206848,-1.8357757,-1.8510458,14.509999,1.0
18217097,-1.8418562,-1.8571286,14.495,1.0
18228542,-1.8482692,-1.8636875,14.514999,1.0
18239775,-1.8542362,-1.86956,14.485,1.0
18251214,-1.8591601,-1.8746297,14.5,1.0
18263501,-1.8621895,-1.8776356,14.485,1.0
18275311,-1.8648956,-1.8803614,14.49,1.0
18287647,-1.8695385,-1.8851929,14.53,1.0
18298470,-1.875418,-1.8909711,14.49,1.0
18309890,-1.8816534,-1.8972255,14.48,1.0
18322050,-1.8885981,-1.9043216,14.5199995,1.0
18333979,-1.8961152,-1.9117588,14.48,1.0
18346572,-1.9019341,-1.9177117,14.5,1.0
18358408,-1.9022843,-1.9180981,14.509999,1.0
18371185,-1.8963269,-1.9121174,14.514999,1.0
18383511,-1.8862185,-1.9018553,14.5199995,1.0
18395127,-1.8745306,-1.8901396,14.514999,1.0
18407873,-1.8610607,-1.8765249,14.505,1.0
18419118,-1.8447454,-1.8600901,14.509999,1.0
18431501,-1.825712,-1.8408344,14.49,1.0
18442861,-1.806265,-1.8211988,14.49,1.0
18455647,-1.7880672,-1.8029605,14.525,1.0
18467238,-1.771022,-1.7857913,14.525,1.0
18478419,-1.7554419,-1.7701207,14.535,1.0
18491210,-1.7419252,-1.7565151,14.54,1.0
18503645,-1.7308165,-1.7452224,14.509999,1.0
18515890,-1.7221893,-1.7364193,14.49,1.0
18527754,-1.7147934,-1.7290643,14.495,1.0
18539972,-1.7059915,-1.7202529,14.525,1.0
18551754,-1.6948891,-1.7089982,14.505,1.0
18564096,-1.682413,-1.6963866,14.5,1.0
18575991,-1.6699947,-1.6839129,14.525,1.0
18588027,-1.6581728,-1.6719742,14.509999,1.0
18600015,-1.6464831,-1.6602304,14.525,1.0
18612039,-1.6346796,-1.6483077,14.514999,1.0
18623112,-1.6238832,-1.6373503,14.49,1.0
18635217,-1.6161308,-1.6296409,14.525,1.0
18646757,-1.611525,-1.6249827,14.5199995,1.0
18658048,-1.6082768,-1.6216607,14.514999,1.0
18670843,-1.6052952,-1.6187209,14.53,1.0
18683172,-1.6039885,-1.6174033,14.53,1.0
18695150,-1.6070296,-1.620385,14.5,1.0
18707248,-1.61582,-1.6291511,14.48,1.0
18718971,-1.6297994,-1.643315,14.509999,1.0
18731051,-1.6463357,-1.6600194,14.514999,1.0
18743104,-1.6632285,-1.6770382,14.509999,1.0
18755268,-1.6795532,-1.6934124,14.474999,1.0
18767085,-1.695025,-1.7090055,14.469999,1.0
18779307,-1.7091018,-1.7232395,14.474999,1.0
18790937,-1.7203976,-1.7345833,14.46,1.0
18803220,-1.7280467,-1.7424965,14.535,1.0
18814708,-1.7318454,-1.7461551,14.49,1.0
18826042,-1.7327505,-1.7471333,14.5,1.0
18838842,-1.7304854,-1.744819,14.49,1.0
18852831,-1.7249876,-1.7392926,14.509999,1.0
18863149,-1.7172009,-1.7314824,14.514999,1.0
18875202,-1.7089176,-1.7230465,14.49,1.0
18886967,-1.7009193,-1.7150419,14.509999,1.0
18899109,-1.6916828,-1.7058183,14.5199995,1.0
18911361,-1.6801099,-1.6940519,14.49,1.0
18921892,-1.6672392,-1.6810699,14.5,1.0
18934460,-1.65377,-1.6675614,14.525,1.0
18946051,-1.6404178,-1.6541537,14.53,1.0
18958615,-1.6298987,-1.6434321,14.49,1.0
18970078,-1.625605,-1.6391028,14.49,1.0
18981153,-1.6267054,-1.6402409,14.5,1.0
18993347,-1.6293797,-1.6429555,14.514999,1.0
19005132,-1.6311705,-1.6447387,14.509999,1.0
19017104,-1.6330557,-1.6466991,14.525,1.0
19029506,-1.638079,-1.6517644,14.525,1.0
19040831,-1.6477132,-1.6613408,14.48,1.0
19054372,-1.6602203,-1.6739719,14.49,1.0
19064970,-1.672621,-1.6864293,14.48,1.0
19077532,-1.6841404,-1.6980289,14.474999,1.0
19088834,-1.6950736,-1.7090523,14.474999,1.0
19102372,-1.705551,-1.7197505,14.5199995,1.0
19112992,-1.7151861,-1.7294707,14.509999,1.0
19125726,-1.7234446,-1.7377827,14.505,1.0
19137009,-1.7289399,-1.7432474,14.5,1.0
19149731,-1.7314374,-1.7458397,14.509999,1.0
19160845,-1.7312028,-1.7456877,14.535,1.0
19173976,-1.7278093,-1.7421447,14.495,1.0
19185928,-1.7224717,-1.7366874,14.469999,1.0
19200103,-1.7182599,-1.732555,14.505,1.0
19210958,-1.7167584,-1.7310727,14.53,1.0
19222953,-1.7178217,-1.7320243,14.49,1.0
19234175,-1.7200971,-1.7344049,14.509999,1.0
19247332,-1.720454,-1.7347736,14.509999,1.0
19257923,-1.7170594,-1.7313856,14.509999,1.0
19270158,-1.7110708,-1.725377,14.5199995,1.0
19283913,-1.7048515,-1.7190391,14.514999,1.0
19295318,-1.6997317,-1.7139018,14.535,1.0
19305899,-1.6957712,-1.7098596,14.509999,1.0
19319310,-1.6919899,-1.706136,14.54,1.0
19329933,-1.6871525,-1.701265,14.525,1.0
19343266,-1.6823143,-1.6963289,14.5199995,1.0
19354062,-1.6794341,-1.6934123,14.509999,1.0
19366171,-1.6816788,-1.6956019,14.485,1.0
19377508,-1.6945794,-1.7086518,14.505,1.0
19389246,-1.7180521,-1.7323115,14.485,1.0
19400060,-1.7441248,-1.7586697,14.525,1.0
19412932,-1.7651676,-1.7798105,14.5,1.0
19425110,-1.7789245,-1.7936636,14.5,1.0
19437117,-1.786252,-1.8009844,14.49,1.0
19449386,-1.7907379,-1.8056333,14.509999,1.0
19461157,-1.7962716,-1.8111974,14.505,1.0
19473788,-1.804307,-1.8192813,14.505,1.0
19487312,-1.8138617,-1.8290426,14.545,1.0
19498164,-1.8244781,-1.8396358,14.509999,1.0
19509768,-1.8374982,-1.852764,14.509999,1.0
19520300,-1.8549346,-1.8703778,14.5199995,1.0
19533669,-1.877039,-1.8926809,14.509999,1.0
19545538,-1.9000711,-1.9158665,14.509999,1.0
19557491,-1.9195935,-1.935669,14.545,1.0
19568849,-1.9326051,-1.9485526,14.474999,1.0
19581105,-1.9407257,-1.9568887,14.509999,1.0
19592802,-1.9464874,-1.9627397,14.525,1.0
19605358,-1.9504666,-1.9666494,14.495,1.0
19618042,-1.9521778,-1.9682767,14.474999,1.0
19629337,-1.9532921,-1.9694885,14.495,1.0
19640689,-1.9548773,-1.9712021,14.5199995,1.0
19651996,-1.9553837,-1.9716612,14.505,1.0
19664041,-1.9537374,-1.9700139,14.5,1.0
19676136,-1.9494743,-1.9656309,14.509999,1.0
19688098,-1.9430243,-1.9592305,14.5199995,1.0
19699326,-1.9350103,-1.9511327,14.514999,1.0
19710137,-1.9269813,-1.9430395,14.509999,1.0
19721896,-1.9198016,-1.9358166,14.514999,1.0
19734128,-1.913647,-1.9295243,14.495,1.0
19746530,-1.9083819,-1.9242324,14.5,1.0
19757120,-1.9038591,-1.9196193,14.49,1.0
19768863,-1.900414,-1.9162315,14.509999,1.0
19780882,-1.8971049,-1.9128805,14.5,1.0
19793123,-1.8930712,-1.9089298,14.535,1.0
19804316,-1.8880392,-1.9035832,14.469999,1.0
19816424,-1.8835416,-1.8991597,14.495,1.0
19827545,-1.8802255,-1.8959008,14.514999,1.0
19838704,-1.8784872,-1.8940988,14.5,1.0
19849702,-1.8785135,-1.8941106,14.509999,1.0
19862641,-1.8810128,-1.8966377,14.514999,1.0
19873670,-1.8863689,-1.9020032,14.49,1.0
19883986,-1.8924633,-1.9081982,14.505,1.0
19895971,-1.8963186,-1.9120642,14.49,1.0
19907788,-1.8975048,-1.9132981,14.509999,1.0
19918714,-1.8964622,-1.912342,14.53,1.0
19929680,-1.8925827,-1.9084798,14.545,1.0
19942024,-1.8867149,-1.9023993,14.509999,1.0
19953655,-1.8810971,-1.8967868,14.5199995,1.0
19964086,-1.8751149,-1.8905904,14.469999,1.0
19976059,-1.8676109,-1.8831555,14.509999,1.0
19987784,-1.857249,-1.8725711,14.5,1.0
19998842,-1.8444693,-1.8597124,14.485,1.0
20011517,-1.8301599,-1.84551,14.535,1.0
20022851,-1.8147577,-1.8299148,14.514999,1.0
20035732,-1.7978772,-1.8126879,14.469999,1.0
20046798,-1.7796266,-1.794484,14.509999,1.0
20057644,-1.760794,-1.7754382,14.514999,1.0
20070021,-1.7438812,-1.7583082,14.49,1.0
20081679,-1.7308486,-1.7451136,14.474999,1.0
20092047,-1.7231563,-1.7376415,14.54,1.0
20104455,-1.7201939,-1.7344915,14.514999,1.0
20115651,-1.7215627,-1.7357663,14.48,1.0
20126956,-1.7258613,-1.7402388,14.5199995,1.0
20139630,-1.7310225,-1.7454056,14.525,1.0
20150731,-1.7363757,-1.7507734,14.495,1.0
20162338,-1.7414973,-1.756029,14.525,1.0
20175129,-1.7454828,-1.7600656,14.525,1.0
20187359,-1.747733,-1.7622207,14.485,1.0
20198842,-1.7486913,-1.7631322,14.469999,1.0
20212909,-1.74896,-1.763526,14.509999,1.0
20223084,-1.747975,-1.7624447,14.49,1.0
20235193,-1.7450706,-1.7594984,14.49,1.0
20246990,-1.7406348,-1.7551658,14.53,1.0
20259230,-1.7368295,-1.7513441,14.535,1.0
20271130,-1.7346016,-1.7490736,14.53,1.0
20283327,-1.7325032,-1.7468928,14.5,1.0
20294723,-1.729655,-1.7439929,14.485,1.0
20306361,-1.7239896,-1.7382958,14.49,1.0
20318953,-1.7129732,-1.727207,14.505,1.0
20332871,-1.6979582,-1.7121714,14.54,1.0
20345240,-1.6824518,-1.6964465,14.509999,1.0
20356982,-1.6696213,-1.6835093,14.509999,1.0
20369212,-1.6592505,-1.6730714,14.505,1.0
20380921,-1.64883,-1.6625535,14.509999,1.0
20393228,-1.6374832,-1.6510981,14.505,1.0
20404859,-1.6263217,-1.6399149,14.53,1.0
20415109,-1.6167823,-1.6303017,14.535,1.0
20428885,-1.6105831,-1.6240284,14.53,1.0
20439119,-1.6085964,-1.621882,14.485,1.0
20452821,-1.6101733,-1.6235707,14.5199995,1.0
20465505,-1.6134894,-1.626947,14.5199995,1.0
20477555,-1.6179659,-1.6314079,14.509999,1.0
20488547,-1.6235666,-1.6370835,14.5199995,1.0
20500840,-1.6297824,-1.6433799,14.53,1.0
20513342,-1.6364586,-1.6500542,14.509999,1.0
20524830,-1.6438006,-1.6573995,14.49,1.0
20537633,-1.6517605,-1.6654999,14.509999,1.0
20548811,-1.6597935,-1.6735997,14.509999,1.0
20561252,-1.6676822,-1.6815687,14.514999,1.0
20572856,-1.6751314,-1.6890004,14.485,1.0
20585540,-1.6819279,-1.6959269,14.509999,1.0
20596963,-1.6873614,-1.7013612,14.495,1.0
20610419,-1.6912265,-1.7052983,14.5199995,1.0
20622299,-1.6939806,-1.7081112,14.535,1.0
20634409,-1.6962138,-1.7102746,14.485,1.0
20646161,-1.6969408,-1.7110968,14.514999,1.0
20657512,-1.6951184,-1.7092376,14.525,1.0
20668949,-1.6925182,-1.7066921,14.545,1.0
20681354,-1.6911407,-1.705225,14.509999,1.0
20694066,-1.6922839,-1.7063329,14.495,1.0
20705535,-1.6958306,-1.7099453,14.509999,1.0
20717263,-1.7010688,-1.7152908,14.54,1.0
20729572,-1.7068132,-1.720936,14.485,1.0
20740619,-1.7119992,-1.7261648,14.485,1.0
20752052,-1.7163212,-1.7305549,14.49,1.0
20764719,-1.720254,-1.7345115,14.49,1.0
20775993,-1.7240951,-1.738445,14.509999,1.0
20787995,-1.727672,-1.742082,14.5199995,1.0
