timestamp,accel_inconsistency_m_s_s,gyro_inconsistency_rad_s,mag_inconsistency_ga
3306363,0.27566406,0.032464698,0.12804586
3511468,0.27449864,0.027910685,0.13474233
3711631,0.2824657,0.03248329,0.12569135
3915011,0.27803156,0.032474965,0.12740736
4119384,0.28250945,0.030148521,0.12824543
4321905,0.2870878,0.03249607,0.1260713
4525135,0.27607745,0.033260662,0.12906903
4729985,0.27574304,0.029923325,0.12710789
4932813,0.2800783,0.03316094,0.128473
5131508,0.28351432,0.032018904,0.12678489
5336188,0.27682593,0.029586395,0.12249799
5539268,0.2793881,0.02955021,0.12568557
5742759,0.27674502,0.032757375,0.124369055
5946644,0.2822581,0.030514194,0.12737155
6149052,0.27529234,0.03286073,0.12530066
6354498,0.27232403,0.031910658,0.1271119
6556357,0.27456877,0.03230601,0.1297203
6759987,0.28181395,0.02996846,0.12634847
6960810,0.27818477,0.030641926,0.12771875
7163414,0.27068534,0.03172925,0.12909973
7365865,0.27445063,0.031527605,0.13063784
7570545,0.28367928,0.030503288,0.12700932
7773140,0.2727509,0.029641131,0.12880051
7976816,0.27966398,0.03150156,0.12855795
8180306,0.28156263,0.031737916,0.12350712
8380363,0.27893856,0.030843053,0.12907511
8583177,0.27301753,0.030106978,0.1249728
8783257,0.28388917,0.031053526,0.1253663
8982509,0.28058338,0.029904114,0.1270061
9186036,0.2751287,0.027344016,0.1270621
9386489,0.27720475,0.03140573,0.12761888
9589221,0.2742293,0.03296539,0.12653604
9792089,0.27899057,0.031441927,0.12310858
9997229,0.27657896,0.030743556,0.12611993
10199157,0.27164382,0.031102147,0.12849286
10404442,0.27590108,0.03066961,0.12954196
10606955,0.2790603,0.032002572,0.12474447
10809598,0.28094906,0.03075338,0.12926929
11012873,0.2759604,0.030723412,0.12928842
11213978,0.280631,0.032781076,0.12895633
11415995,0.27411368,0.03158267,0.13005579
11620159,0.27990222,0.030956084,0.12460763
11823277,0.2812572,0.031804513,0.12864183
12026861,0.28141767,0.03092658,0.12399448
12228263,0.28156587,0.030121252,0.12286647
12429681,0.2776553,0.030107139,0.12564622
12633115,0.2751918,0.027650235,0.12603322
12836008,0.27954206,0.02964797,0.12510435
13036018,0.28370675,0.02953542,0.123527974
13239534,0.28952807,0.028756535,0.13057461
13443245,0.2842349,0.029820051,0.1288705
13646490,0.28227928,0.03146395,0.12466511
13849976,0.27662882,0.031119421,0.12627931
14050155,0.28213912,0.030651815,0.12878498
14252873,0.27600804,0.03238581,0.1271144
14456538,0.29189077,0.02977581,0.1244908
14656821,0.27842307,0.028331695,0.12675942
14859164,0.27720034,0.032533355,0.1233428
15059546,0.27438727,0.030971175,0.12552266
16072123,0.27893654,0.030166887,0.12796845
16276389,0.27947733,0.030295167,0.1269379
16477584,0.2780352,0.028266452,0.124096625
16683378,0.2778729,0.030800046,0.12561035
16885595,0.28257266,0.030486902,0.12736171
17085630,0.29250365,0.029583748,0.1255815
17289176,0.2814726,0.029782467,0.1273872
17492007,0.27333012,0.028038943,0.124021664
17697698,0.27961266,0.031811226,0.12744789
17899230,0.27232245,0.0305683,0.1277726
18103377,0.27600616,0.028044455,0.12170433
18304033,0.27611527,0.030162262,0.12456875
18506955,0.27579346,0.029616663,0.12575139
18708840,0.28506175,0.030687148,0.12776345
18911322,0.27359396,0.028343756,0.12884618
19112065,0.27678597,0.029235214,0.13145602
19316422,0.2693043,0.03092641,0.12732884
19518356,0.26959565,0.03044176,0.12221597
19723279,0.2703667,0.030287059,0.12419293
19925916,0.29002073,0.026543092,0.12276899
20125959,0.27597886,0.024818663,0.12482391
20329927,0.27591166,0.031591702,0.12592578
20531986,0.27665567,0.034340452,0.12951656
20734370,0.2834334,0.02229597,0.1283747
20935226,0.28102037,0.029123802,0.122651875
21139955,0.27850282,0.033133667,0.12726815
21342420,0.27379334,0.023683941,0.12605807
21547221,0.27816364,0.028364528,0.1237202
21749198,0.2802295,0.03309312,0.12817805
21949773,0.27550218,0.027575536,0.13062914
22152087,0.2701106,0.02780347,0.12962042
22355317,0.2822535,0.031409837,0.12645745
22559790,0.27508068,0.030700134,0.12771834
22760044,0.28317145,0.028705481,0.12575206
22961600,0.28040254,0.031680733,0.12592293
23160888,0.27939942,0.032003492,0.12579593
23365648,0.28079566,0.026865015,0.1270097
23567384,0.2773363,0.031500753,0.12927751
23768077,0.2716934,0.032456968,0.12762897
23972555,0.27763316,0.030796165,0.13318674
24174391,0.27957958,0.03120632,0.12873305
24378994,0.27582833,0.031012958,0.12686586
24581703,0.26999125,0.02614062,0.1254884
24785544,0.28155783,0.030251369,0.12484109
24985648,0.2805388,0.032102764,0.12689596
25184348,0.27074507,0.031338036,0.12944967
25387338,0.2778054,0.030703655,0.12744145
25586516,0.2748846,0.028648302,0.12725814
25790766,0.2805508,0.028892515,0.12695462
25994999,0.28426802,0.031663503,0.12652108
26197655,0.27885026,0.027863331,0.1294749
26401783,0.28072003,0.030734126,0.123543896
26604038,0.2773866,0.029936971,0.1286185
26804790,0.27474448,0.03248643,0.13129298
27008029,0.27595022,0.028268307,0.12823443
27210378,0.27384165,0.031155176,0.12611234
27413569,0.27993798,0.030862357,0.12738612
27817743,0.2788983,0.029864043,0.13030465
28021651,0.27308095,0.029445436,0.12112843
28225223,0.28383648,0.031217901,0.12461234
28427169,0.28323442,0.030549398,0.1305705
28630459,0.2723514,0.029951906,0.12990077
28834724,0.2728343,0.0295897,0.12732902
29037698,0.27218637,0.028586822,0.12690039
29237673,0.27676326,0.02866753,0.12340787
29441584,0.277449,0.029938336,0.12141205
30857853,0.2833306,0.032231826,0.12292407
31060914,0.2798907,0.030721158,0.12500183
31259999,0.27113414,0.029163504,0.1262591
31463557,0.2761405,0.03020786,0.12636068
31664412,0.27803665,0.031038148,0.12981594
31866443,0.28152782,0.02956472,0.12846515
32070785,0.27421984,0.02982701,0.12348714
32273658,0.27598274,0.030030264,0.12541245
32476806,0.28201166,0.029918745,0.12614653
32680313,0.2763225,0.030471692,0.12753874
32883623,0.28244734,0.030948222,0.12425348
33083838,0.2756661,0.0296566,0.13289832
33286422,0.27851164,0.030991813,0.12987725
33490183,0.28011164,0.029056728,0.12795958
33690172,0.27892184,0.030240834,0.12704681
33892837,0.27506948,0.029641997,0.1234249
34096462,0.27589428,0.029592885,0.12803645
34300063,0.2729749,0.028605353,0.124061614
34503498,0.28092378,0.03104807,0.12344592
34706539,0.28240377,0.03115966,0.122681566
34911380,0.2697088,0.029290654,0.12879662
35113697,0.2753338,0.03057401,0.12989381
35313119,0.27656636,0.029218586,0.124584444
35516950,0.2760582,0.028762242,0.12511358
35720551,0.2760945,0.03077966,0.12424084
35924073,0.28074571,0.031954825,0.12607618
36126053,0.2797944,0.0300907,0.12325056
36330405,0.27989164,0.030541368,0.12595472
36533910,0.27678043,0.02926011,0.13134575
36737265,0.2756824,0.029509138,0.12714477
36937258,0.2684971,0.030936375,0.12675601
37139996,0.27258843,0.029328289,0.12493885
37340050,0.27507603,0.028945187,0.12809485
37544372,0.2687433,0.03061094,0.12474127
37746726,0.27775976,0.029289534,0.1245457
37950350,0.28034398,0.029870313,0.12801184
38153980,0.27071768,0.03028148,0.12945111
38356808,0.2716133,0.030597927,0.12943783
38556954,0.26482597,0.029119037,0.1275002
38761693,0.26949525,0.031400036,0.12668814
38963271,0.2698177,0.029981837,0.12781017
39166443,0.27205667,0.030054122,0.12487018
39366819,0.27476066,0.031912476,0.12703922
39569578,0.27730063,0.031025078,0.12762997
39773153,0.27175525,0.029968241,0.1259352
39976778,0.27839342,0.028165795,0.12693991
40180751,0.27065367,0.031766977,0.1258928
40383245,0.27202633,0.028570578,0.12670976
40587900,0.27285734,0.029588882,0.12540667
40788067,0.27444595,0.031035727,0.12623054
40989603,0.26887366,0.030010216,0.12761249
41189715,0.27178976,0.028593555,0.12852162
41393160,0.27824152,0.027917258,0.13260232
41596007,0.26925954,0.029798955,0.12506123
41800403,0.27658775,0.030929625,0.12523143
42003271,0.27725026,0.028896192,0.12565303
42207766,0.27562192,0.030331638,0.12383369
42409549,0.27180767,0.029794572,0.12524436
42613983,0.27122888,0.029014375,0.12668191
42818508,0.27570182,0.029499078,0.1301774
43016693,0.2764952,0.03157536,0.13238575
43220046,0.2736574,0.029975522,0.12713587
43423648,0.27248567,0.028819555,0.12525108
43627312,0.27624092,0.028037414,0.12628053
43830682,0.27066648,0.030832406,0.12678258
44033611,0.26742572,0.028835755,0.12655696
44237990,0.2688622,0.030332355,0.12388174
44440874,0.2713243,0.027437216,0.13141574
44641221,0.27308422,0.029528007,0.12414364
44840449,0.26366702,0.02897673,0.12680975
45043164,0.27733403,0.028753975,0.12610151
45246577,0.27635244,0.02866843,0.12379606
45451490,0.27591226,0.030333204,0.12744816
45653566,0.28291482,0.02814655,0.12434708
45857173,0.28942525,0.02676071,0.12653059
46059984,0.28099337,0.030148791,0.1263335
46264275,0.27611586,0.030242693,0.12774913
46467218,0.2806051,0.029898023,0.124418385
46671466,0.27781174,0.031524424,0.12419963
46871355,0.2738018,0.030396858,0.1217548
47073588,0.27702066,0.028115612,0.12138052
47277906,0.27582687,0.028935408,0.12324873
47481509,0.27463546,0.030754488,0.121798314
47684157,0.27197576,0.030177897,0.12524955
47887267,0.27059877,0.030997964,0.12188519
48092306,0.2811217,0.027957296,0.12693821
48294383,0.26722747,0.029766038,0.12728776
48498391,0.2705832,0.027569909,0.12329281
48698772,0.28379795,0.02967407,0.12465682
48901563,0.27796978,0.028678786,0.12626898
49104038,0.28058663,0.030258536,0.12756814
49308122,0.28322357,0.027991774,0.12790851
49511204,0.26984778,0.028438475,0.13005637
49715355,0.2777927,0.031212684,0.12948616
50931278,0.27046844,0.030411154,0.1289663
51134841,0.27569896,0.028497789,0.1254665
51338468,0.26212713,0.031215798,0.12501395
51541671,0.27504736,0.028845616,0.12105406
51745158,0.2732771,0.02862555,0.123873964
51945123,0.27514797,0.029205091,0.1253741
52149260,0.2724111,0.030424992,0.12524928
52351241,0.26976484,0.02933425,0.13130516
52551300,0.27245483,0.029234089,0.1294201
52754737,0.27395278,0.029035022,0.12711175
52957727,0.2832194,0.0287433,0.12391303
53162568,0.2758718,0.027748423,0.12762333
53364834,0.28276366,0.02976661,0.12515448
53567807,0.27943274,0.030497655,0.12769336
53768587,0.27885512,0.029864075,0.12772134
53971229,0.27963933,0.028751299,0.12621425
54175641,0.2766051,0.029513927,0.129845
54377568,0.27114537,0.02829346,0.12879314
54577661,0.28104505,0.026555678,0.12426131
54781825,0.27914158,0.029203016,0.12774047
54984130,0.26762083,0.029245142,0.1285441
55188397,0.27637577,0.026224975,0.12495884
55391282,0.26866734,0.030809544,0.13059051
55595541,0.28108278,0.029468438,0.13939115
55798468,0.2689141,0.023345385,0.14756802
55998707,0.27991316,0.0253664,0.15002456
56201208,0.26813516,0.023614122,0.14875896
56401366,0.24971277,0.025418108,0.15077835
56604027,0.29537213,0.026477259,0.15942724
56807536,0.31036437,0.024764769,0.15813947
57011297,0.27876344,0.023555081,0.15618896
57214436,0.26065022,0.02232937,0.15690088
57417930,0.2696585,0.024620233,0.16141161
57617973,0.2643403,0.025442135,0.18312214
57820756,0.27401623,0.02708038,0.19890669
58025021,0.26267448,0.026646145,0.19542384
58224575,0.28379977,0.025032159,0.19625482
58427256,0.27568942,0.02665594,0.19204876
58626542,0.2549302,0.028404485,0.19251119
58830681,0.31649366,0.024998737,0.20041329
59033944,0.3653453,0.028720465,0.20668441
59236889,0.2412023,0.021184303,0.23942041
59441268,0.25437,0.02506268,0.28434116
59644047,0.26433682,0.025710914,0.3273709
59847768,0.278632,0.024161205,0.36585718
60051257,0.27087602,0.025587434,0.36616468
60250812,0.26878366,0.025206512,0.41981825
60453770,0.28963748,0.02567434,0.42153457
60652851,0.25867957,0.02473671,0.42876458
60857615,0.26908755,0.02385277,0.43161365
61060025,0.33861184,0.024937639,0.5093701
61263589,0.28185457,0.021952175,0.58851486
61464787,0.2963758,0.020013597,0.6473953
61666475,0.274764,0.023567483,0.74386513
61870392,0.41342843,0.023187062,0.8539084
62070827,0.49768537,0.030431403,0.92934245
62272926,0.59095216,0.028460817,0.927504
62476102,0.5967235,0.021587463,0.93683493
62676007,0.5391555,0.026235536,0.93626463
62880378,0.4573365,0.023691356,0.9380711
63082386,0.3071105,0.025456773,0.93367183
63286791,0.3404229,0.023008913,0.9347241
63489586,0.2800227,0.027626228,0.92883277
63693683,0.27764153,0.024090055,0.9241015
63896120,0.4669013,0.02303178,0.9280702
64101600,0.3995027,0.020337813,0.9153842
64303637,0.41102594,0.026232144,0.91476923
64506630,0.2671391,0.023312978,0.9221531
65723250,0.9736242,0.030051952,0.87637544
65926821,0.8066605,0.04010745,0.8832739
66126983,0.48646292,0.03444679,0.8553928
66329746,1.0666708,0.029689876,0.84848666
66529684,0.80911195,0.040808205,0.83854485
66732950,1.1434876,0.03714692,0.8417102
66936190,0.4868796,0.035853375,0.8268911
67140349,0.31106025,0.036022197,0.8166433
67343340,0.40906698,0.021994988,0.7988849
67547658,0.3686064,0.024495909,0.78324527
67749687,0.5839494,0.031379156,0.778249
67954890,0.38863778,0.03784169,0.7784454
68156958,0.39268363,0.04273737,0.7774377
68360863,0.46426815,0.03984751,0.7738462
68561119,0.4199261,0.044782966,0.7620809
68764035,0.2659254,0.051426798,0.7558724
68966881,0.21544017,0.04885028,0.7481041
69170026,0.15961958,0.04886293,0.7405964
69373686,0.15005523,0.04518305,0.7400719
69577557,0.19480532,0.043160245,0.73624206
69780832,0.24481773,0.048955195,0.7271605
69984829,0.36793083,0.044652,0.71065813
70188061,0.5151241,0.040219955,0.72041905
70387494,0.46361026,0.032210656,0.7123766
70590536,0.32297722,0.02581208,0.7187114
70794969,0.26365897,0.033776008,0.7115599
70997713,0.285295,0.042767905,0.6940557
71201905,0.38782507,0.045036107,0.69983053
71404293,0.3612707,0.039496448,0.7009507
71608362,0.38356107,0.029950049,0.6853795
71811396,0.28577566,0.029211806,0.6928315
72010481,0.32869244,0.04077247,0.69007903
72214017,0.37700257,0.04268679,0.6798101
72414008,0.32461053,0.04663077,0.6711197
72617504,0.29485646,0.044213828,0.650626
72820113,0.25484556,0.03807718,0.649775
73024459,0.23312937,0.035023734,0.6360415
73227361,0.19932956,0.031963248,0.63752115
73431196,0.23475009,0.02483173,0.644873
73634208,0.4205211,0.03766583,0.63752073
73834165,0.3545794,0.045313537,0.6388613
74037041,0.3161099,0.043528028,0.63266766
74241638,0.21941032,0.033656873,0.6336362
74440423,0.25017905,0.038552485,0.6234698
74643349,0.3473371,0.03974744,0.63807714
74847238,0.31011117,0.039688986,0.6457383
75050446,0.2511612,0.038278922,0.63946605
75254816,0.22976469,0.038286947,0.64971083
75456973,0.2627175,0.041513503,0.64645934
75659242,0.24641715,0.03631678,0.6534216
75860190,0.24116082,0.04253314,0.65019953
76063594,0.28232503,0.05134456,0.64348096
76266545,0.31329632,0.053550094,0.6356353
76466595,0.35432637,0.05332671,0.6181908
76669766,0.3361402,0.043933686,0.62077653
76873523,0.2692232,0.043459456,0.61564857
77077147,0.20595855,0.03512528,0.6168766
77280387,0.35008088,0.036209658,0.61251634
77483316,0.38194227,0.042453784,0.61593556
77688119,0.33865663,0.041972946,0.62505853
77890599,0.33564734,0.03865021,0.6296389
78094775,0.2879556,0.039324906,0.6430934
78294889,0.3174046,0.043188214,0.6395178
78497558,0.38045123,0.039407976,0.64306056
78700165,0.37596747,0.03586836,0.6549786
78904820,0.40204692,0.035542395,0.65848136
79107315,0.2787753,0.034083672,0.6575092
79307440,0.29151165,0.03494737,0.66163856
79507759,0.22571994,0.035816256,0.6626603
79709703,0.26161575,0.04056838,0.66020125
79913506,0.29262823,0.045332927,0.65461737
80113345,0.3052683,0.048805814,0.64918125
80316206,0.36044538,0.04595987,0.6444552
80519892,0.4005545,0.044939734,0.635976
80718641,0.40864393,0.044101644,0.6306606
80922441,0.51251894,0.02697492,0.63133144
81122193,0.36075515,0.028997682,0.64385337
81324947,0.39115316,0.025518388,0.6531299
81530425,0.48190284,0.024123836,0.66863817
81732189,0.45130688,0.028006274,0.67568
81936609,0.36527976,0.03809901,0.67337656
82139259,0.38611668,0.046576545,0.66663176
82340146,0.37013638,0.044253886,0.6569826
82541801,0.4477846,0.054687954,0.6367395
82741983,0.5454229,0.057616778,0.615831
82940901,0.5140636,0.05690422,0.601539
83751270,0.5219855,0.026814455,0.5885915
83953722,0.4501099,0.023900859,0.59321743
84156962,0.36086437,0.02854819,0.59785926
84361365,0.3916827,0.03713531,0.5930584
84564051,0.3261262,0.042647894,0.59319377
84767975,0.31915024,0.041069493,0.58433557
84968722,0.56818074,0.03359906,0.58162117
85170545,0.52449656,0.041457105,0.5724682
85374558,0.61792237,0.048536338,0.57391876
85574339,0.5117948,0.045562632,0.5659694
85776973,0.45706,0.04842523,0.5614049
85980775,0.37283134,0.038145978,0.5614171
86184073,0.2929149,0.032979004,0.5631249
86387894,0.25797537,0.034668572,0.57676816
86590483,0.21198158,0.037727643,0.57973254
86794811,0.24093664,0.03172098,0.58225995
86994986,0.27825892,0.021818237,0.58049166
87197053,0.31222504,0.0340703,0.5759327
87400216,0.20805487,0.042215414,0.56636155
87600116,0.2805209,0.038172655,0.5602402
87804089,0.231355,0.03196157,0.55587447
88006558,0.2995548,0.036164872,0.54884523
88209948,0.3011108,0.03609323,0.5483625
88413733,0.28848043,0.027171202,0.57230705
88617731,0.43746087,0.025623934,0.5759804
88821000,0.31652063,0.024969868,0.5820637
89024886,0.29163167,0.035959437,0.5774919
89227800,0.23288034,0.039200973,0.575759
89427554,0.114356995,0.041444298,0.572834
89630537,0.21655063,0.039875925,0.5645125
89834335,0.18311863,0.04078984,0.5606936
90037938,0.41642314,0.038751975,0.557686
90240994,0.41044337,0.03531248,0.55057955
90445374,0.33389094,0.033123553,0.5559995
90647431,0.3441973,0.025117416,0.57340753
90849247,0.32906684,0.0279141,0.56621546
91050550,0.15141922,0.041547064,0.56852543
91254416,0.18843287,0.043866694,0.5494812
91454885,0.18025506,0.046197798,0.54622626
91657406,0.22899675,0.039135966,0.53635865
91860223,0.2213082,0.0319007,0.529776
92063573,0.2518166,0.02034753,0.5402866
92267330,0.33447054,0.034966815,0.54360044
92467624,0.21762003,0.040087715,0.54126877
92669736,0.2954788,0.047917504,0.5273324
92873982,0.23482037,0.034342293,0.5215874
93077340,0.28293404,0.031753935,0.5164773
93280416,0.3518413,0.023743434,0.51987994
93483331,0.26872945,0.021059832,0.51869935
93683254,0.28507048,0.037050173,0.5319825
93886600,0.32881525,0.042229455,0.53876436
94091781,0.33088237,0.03000539,0.5408596
94293674,0.36600292,0.02542893,0.5468625
94497336,0.34658223,0.033710543,0.55431986
94700107,0.31913832,0.02534814,0.57022494
94903404,0.41597545,0.041095976,0.57885563
95107664,0.20088059,0.04270868,0.5823521
95307290,0.28209436,0.04001666,0.59635955
95509802,0.1019364,0.037264694,0.59110105
95709627,0.3409332,0.033820357,0.5837369
95913617,0.22165932,0.03162279,0.5880488
96116116,0.36451182,0.033489656,0.5873775
96320760,0.31509274,0.035817135,0.5986456
96523515,0.24950999,0.041271146,0.59494406
96727324,0.32386875,0.04478465,0.5954629
96927446,0.47018218,0.04501553,0.59562975
97736107,0.25440338,0.030668896,0.6146507
97940396,0.22680959,0.036368497,0.6184809
98143689,0.17660883,0.032933615,0.6290327
98346563,0.24330914,0.022590784,0.6389502
98549977,0.36446756,0.02627608,0.65043366
98750022,0.24969772,0.02877528,0.64459383
98952117,0.26491746,0.029848848,0.6399663
99157688,0.32239917,0.045193534,0.64067805
99359370,0.19518062,0.047478277,0.6359479
99563982,0.21478234,0.051426657,0.62954473
99763163,0.3908524,0.049525034,0.6333286
99965804,0.24911323,0.0476338,0.6320916
100170442,0.24949187,0.041966353,0.6334887
100373015,0.35327905,0.04181915,0.6240974
100576298,0.31566632,0.030821582,0.62705004
100780018,0.3715106,0.038848586,0.6307284
100982558,0.39997673,0.031947173,0.64096856
101187244,0.3145504,0.026044952,0.64981014
101389820,0.38238844,0.02605174,0.66331154
101591327,0.43794677,0.029585924,0.67744684
101793056,0.21503603,0.036842436,0.68221134
101997333,0.39739227,0.038727164,0.66758597
102199276,0.51918,0.04483126,0.66112584
102404458,0.5057345,0.047879457,0.65975016
102606767,0.16348463,0.047982678,0.64873874
102810172,0.2354216,0.04931893,0.6401679
103012362,0.3998544,0.052317932,0.6395602
103212883,0.24333343,0.041382395,0.62713987
103412970,0.41446212,0.032247063,0.6267631
104221790,0.35469717,0.041540444,0.6389124
104426517,0.5177263,0.036058772,0.6413175
104628931,0.29331863,0.036236648,0.6464885
104832767,0.3998587,0.035113174,0.6530785
105036076,0.23348683,0.045675892,0.6517388
105239634,0.42723677,0.047005873,0.64606
105442583,0.37075588,0.05140456,0.6349135
105646140,0.14509043,0.05264848,0.6316466
105847334,0.45498243,0.04937134,0.6318859
106048922,0.2586626,0.04463042,0.6271192
106252252,0.36601037,0.0396987,0.6215115
106456886,0.2771063,0.02631618,0.614596
106659249,0.4885819,0.03239838,0.6216422
106863252,0.2585604,0.041977134,0.6151576
107066693,0.39722943,0.043414935,0.61565423
107267091,0.28660706,0.04292467,0.6062561
107468940,0.3215442,0.04276006,0.61078763
107668958,0.35204676,0.04123938,0.62091935
107873533,0.3062704,0.035322748,0.6211493
108075294,0.28730944,0.035431117,0.61626416
108279614,0.19039737,0.030630613,0.5403999
108482150,0.14618956,0.024129324,0.21896045
108685729,0.21206208,0.02530574,0.13513239
108889247,0.26102775,0.031053744,0.13010281
109092006,0.3007082,0.033237454,0.13519134
109292103,0.23941319,0.03813812,0.13190798
109495529,0.28361234,0.0392916,0.12842236
109698353,0.29844186,0.035700932,0.13770293
109898465,0.23527732,0.027896037,0.14623663
110103203,0.2002699,0.026675586,0.14854032
110304782,0.22470483,0.024969755,0.16797166
110507181,0.24066994,0.016750138,0.22318906
110707994,0.24639834,0.017176999,0.2857083
110912313,0.27418005,0.038654454,0.28571463
111114518,0.2895609,0.051944986,0.31504714
111319102,0.2773425,0.03922117,0.35947147
111522482,0.24311529,0.026299294,0.35896155
111725031,0.2514847,0.023471683,0.35437825
111927378,0.27698725,0.021659786,0.35014957
112128166,0.27086377,0.019963456,0.3523025
112331947,0.31517696,0.02775951,0.36184096
112535286,0.26201835,0.033036426,0.35481203
112739155,0.30532175,0.036176577,0.36018726
112939172,0.36327052,0.04696105,0.35394755
113140869,0.35884154,0.03882961,0.35106856
113345980,0.31224766,0.03548241,0.34934005
113548044,0.29473603,0.03785844,0.34781826
113751786,0.2992774,0.03674788,0.33169392
113952562,0.19899346,0.030624295,0.3259803
114151249,0.21729627,0.028613176,0.32935303
114353915,0.27826235,0.02454383,0.32347703
114554053,0.2942227,0.026023054,0.32279938
114757004,0.34563473,0.029134164,0.3261872
114960221,0.2821356,0.02725639,0.3276049
115163773,0.24227628,0.025903529,0.32682568
115367405,0.2686608,0.025458422,0.3267142
115571330,0.27709618,0.03132743,0.34695286
115773661,0.27583888,0.03742128,0.3712216
115973810,0.30275273,0.052069355,0.33733413
116177513,0.24274494,0.051245537,0.3224859
116377225,0.21839976,0.0481981,0.32850873
116579289,0.2920675,0.035414744,0.39281565
116779391,0.18816161,0.02949942,0.44465438
116982817,0.1944706,0.037653886,0.45620012
117185900,0.27793458,0.0386297,0.44153595
117390854,0.24395274,0.034407612,0.4367516
117592931,0.2265188,0.033440303,0.43341032
117797253,0.25159484,0.022617454,0.44293627
117999639,0.38871548,0.0239713,0.43497136
118606998,0.2924512,0.040208794,0.42353544
118806058,0.3384999,0.04247768,0.40997204
119008948,0.39037105,0.042709567,0.40817523
119212777,0.18762904,0.039608765,0.4075186
119415407,0.15409797,0.032300398,0.41514698
119619738,0.48231506,0.03644023,0.4032822
119822618,0.34200424,0.04899246,0.41594493
120027241,0.38867268,0.04887035,0.47062045
120229678,0.242318,0.05892322,0.45462108
120433553,0.28067538,0.046331797,0.42812708
120636062,0.7201287,0.04147262,0.45866606
120836044,0.36788934,0.025001852,0.47269762
121039622,0.44822124,0.028219378,0.47911975
121243430,0.38812807,0.033029296,0.48116267
121445690,0.50832504,0.023532467,0.48478493
121649968,0.31113347,0.024924146,0.50034636
121849980,0.50617373,0.03328542,0.5031215
122052143,0.2611412,0.03538357,0.50630033
122257105,0.2537762,0.036797117,0.51625407
122459413,0.29245266,0.031845212,0.51297843
122659361,0.66558576,0.024717875,0.5304645
122865735,0.33558235,0.027978547,0.54113865
123066023,0.29165578,0.038922198,0.5417107
123268881,0.42639348,0.035825133,0.53055394
123472488,0.25064537,0.030080883,0.52537537
123676178,0.29479522,0.028360557,0.6266597
123880263,0.31292337,0.029817551,0.6408611
124080330,0.39280018,0.02499127,0.64533854
124282556,0.40577585,0.025268152,0.64983225
124485768,0.4208581,0.024184687,0.6524097
125498514,0.31419313,0.070713915,0.630429
125702808,0.17621006,0.04710923,0.6494158
125905980,0.30400813,0.04643739,0.65109855
126108990,0.17381987,0.012575344,0.6494264
126313035,0.30183968,0.015669065,0.64329916
126516245,0.26935267,0.017423013,0.6370507
126719333,0.3398241,0.021893412,0.6307185
126918484,0.299133,0.02207384,0.6448207
127122961,0.28445858,0.031378098,0.6441743
127529505,0.3568361,0.040847246,0.63305724
127732057,0.37171504,0.035185333,0.6220954
127936418,0.3242069,0.055223238,0.61239326
128342500,0.2687869,0.06862228,0.56711906
128542603,0.3840643,0.047842868,0.5834176
128746657,0.25018486,0.026027374,0.60503227
128945657,0.30274174,0.03465114,0.6121129
129148904,0.31912032,0.04137975,0.61784697
129353101,0.37981147,0.044093065,0.6354595
129555326,0.47496,0.025823765,0.6592279
129757740,0.4860181,0.054692965,0.6603341
129963239,0.39002836,0.05275376,0.6395859
130165831,0.30154806,0.0491445,0.6179581
130370898,0.27209103,0.04610024,0.60977995
130569652,0.25918308,0.03713667,0.6079416
130772111,0.31593484,0.030183146,0.6195492
130975974,0.23477663,0.022180185,0.62738705
131175606,0.26286557,0.022959167,0.6417573
131378795,0.16600604,0.036872804,0.6530548
131581707,0.27142623,0.036106035,0.63915735
131785206,0.28298864,0.031043943,0.6298671
131988851,0.37802634,0.03661011,0.6326485
132192428,0.36237702,0.03555687,0.62771034
132395340,0.27142787,0.033973835,0.62774324
132599940,0.25240123,0.02439374,0.62643665
132799923,0.3886027,0.024311204,0.63089925
133001989,0.30785948,0.04037584,0.63861686
133201758,0.20470463,0.043859378,0.6294385
133405025,0.20027192,0.04889964,0.6187041
133608396,0.3074454,0.05011584,0.6145378
133811269,0.25650266,0.04850564,0.6138079
134015937,0.15608703,0.048432615,0.6147758
134218514,0.25935268,0.04721595,0.61091965
134421654,0.35683653,0.03748504,0.6128096
134621871,0.28388205,0.034659546,0.61853015
134824878,0.4586444,0.033772077,0.61629105
135028419,0.485228,0.031141112,0.61586773
135231500,0.3339175,0.040720128,0.6075128
135431390,0.28703672,0.050984573,0.5887642
135634762,0.45414585,0.049916413,0.5835441
135837676,0.350679,0.04834682,0.578173
136039371,0.15653072,0.04590892,0.5353041
136241201,0.3762205,0.040639736,0.3655828
136444225,0.23521204,0.040851496,0.3190151
136648574,0.25752372,0.038256895,0.27763066
136851275,0.34582335,0.03703029,0.27588394
137055182,0.46269873,0.043303665,0.2525007
137257980,0.51413476,0.04782481,0.25355834
137458175,0.46208423,0.047027025,0.24914432
137661120,0.4559758,0.04349304,0.23452209
137865069,0.50607723,0.044207506,0.22648688
138067519,0.52384156,0.039947473,0.2228464
138271645,0.48831472,0.032949004,0.2210938
138474592,0.57312626,0.03925109,0.21230988
138678289,0.50630635,0.048880704,0.27521688
138880920,0.62440693,0.050165106,0.31170103
139080838,0.40921238,0.04054544,0.30895174
139284867,0.524133,0.02667717,0.30833063
139487313,0.3551458,0.038740303,0.3267702
139687365,0.34569198,0.03421467,0.3453555
139890471,0.48224723,0.034257215,0.35621768
140093638,0.46643957,0.031108622,0.36092255
140297744,0.31751817,0.035977177,0.44605523
140500885,0.2401319,0.032849528,0.515666
140704899,0.2079013,0.03284171,0.5157981
140907399,0.3454741,0.035855867,0.3396671
141107409,0.36012408,0.036657806,0.23528132
141311330,0.3571405,0.032764416,0.19991377
141514406,0.3042806,0.037326008,0.19266604
141714509,0.44834363,0.042356268,0.18232796
141917130,0.3133374,0.04026267,0.1830821
142121631,0.2212675,0.03175363,0.17848116
142323365,0.29065105,0.028978487,0.18829839
142528201,0.268041,0.035640728,0.19017279
142730517,0.21506363,0.043167148,0.18727975
142934355,0.21472548,0.035528563,0.19559334
143137568,0.25420424,0.01992337,0.19955333
143337766,0.25023225,0.023556009,0.19771245
143540210,0.24042751,0.027177425,0.20170394
143739989,0.24709289,0.028039247,0.20572129
143939647,0.25215337,0.02128754,0.2523646
144142843,0.2618007,0.025777189,0.2963628
144345751,0.23818433,0.024947762,0.29350922
144550548,0.27366805,0.025873423,0.28490582
144752855,0.26366818,0.025257893,0.36004514
144957649,0.2494107,0.026495617,0.35935053
145159311,0.5701972,0.023373166,0.3532264
145359402,0.40212303,0.027958056,0.36241516
145563028,0.2592129,0.04173765,0.43084264
145765864,0.6881098,0.046547186,0.42333072
145969350,0.32650343,0.04922654,0.41599962
146169943,0.2387044,0.040981103,0.41407284
146372092,0.6404802,0.02420508,0.41074124
146574524,0.40967026,0.02465106,0.43260828
146775310,0.5512788,0.043320917,0.4231467
146978843,0.37905422,0.036286674,0.4225153
147181762,0.36866015,0.02843351,0.41828114
147387338,0.3091865,0.02018368,0.43133086
147588929,0.42901266,0.03560078,0.41824365
147792983,0.3067662,0.033302374,0.4132737
147995273,0.38986441,0.022090206,0.40681463
148195283,0.25828534,0.020143492,0.5167961
148398997,0.2967925,0.046563223,0.49972236
148601730,0.3569656,0.06522182,0.48510423
148805338,0.34863856,0.0672146,0.47960454
149008941,0.28396288,0.05500085,0.4932662
149212195,0.24396364,0.04085528,0.49563092
149416871,0.23556215,0.020389128,0.49157432
149619455,0.27000245,0.02761991,0.4743904
149822553,0.34519884,0.031090945,0.46191218
150026370,0.3803804,0.022463977,0.46508577
150227438,0.41639444,0.052096564,0.45755908
150429039,0.47713837,0.053353496,0.4498247
151036603,0.39219758,0.029980566,0.42574754
151238474,0.40233168,0.042871065,0.43609175
151442027,0.31047115,0.036545277,0.45658216
151642456,0.3265006,0.035922427,0.4455932
151845085,0.34542486,0.047444828,0.42472592
152048889,0.48386502,0.036568005,0.5114876
152251321,0.4572809,0.037921708,0.53932714
152451407,0.33397993,0.039228022,0.5761995
152650629,0.3039536,0.046227064,0.63604414
152853692,0.2769488,0.08291126,0.61885446
153053773,0.2170089,0.09042848,0.58731365
153258323,0.24399018,0.07854321,0.5525841
153460295,0.1836056,0.06438889,0.5498194
153664438,0.11465585,0.047074433,0.55557585
154273685,0.32626092,0.03714938,0.53314745
154473830,0.3263272,0.039972603,0.5264117
154677860,0.35866553,0.038543686,0.5234026
154880727,0.3975853,0.043046422,0.5096787
155083367,0.40229395,0.074883915,0.5004421
155283306,0.41064215,0.08548241,0.49374563
155487472,0.45473143,0.070520386,0.52249795
155690017,0.17340805,0.048963077,0.56040424
155893679,0.2729162,0.049665768,0.56588244
156098087,0.23370501,0.008697162,0.54790014
156300419,0.17355779,0.018536333,0.5277513
156500455,0.24372594,0.025001258,0.51659435
156703335,0.35359296,0.033980284,0.51126087
156907741,0.3205866,0.041128077,0.50917554
157109694,0.38627377,0.03726153,0.5016282
158326543,0.38847312,0.048393182,0.53826654
158530476,0.43692407,0.03277965,0.56828684
158731242,0.3720751,0.036192063,0.6110996
158933008,0.31363347,0.04583712,0.64126104
159133093,0.30427933,0.030769408,0.6513414
159335431,0.31698543,0.059856005,0.6466864
159535324,0.3171039,0.058126546,0.62566155
159739348,0.2997333,0.0511678,0.6148031
159941762,0.3111683,0.037282854,0.6298827
160145361,0.3230772,0.037974805,0.6361
160348941,0.31490406,0.034335844,0.642031
160552202,0.2867358,0.045234147,0.66262835
160755963,0.29039916,0.03890376,0.6807286
160956931,0.28972828,0.0347345,0.6951157
161158470,0.31994832,0.034138888,0.6947162
161362169,0.34844026,0.044924997,0.6810636
161562301,0.34311318,0.048898507,0.681075
161764844,0.37992418,0.04856766,0.66297305
161968841,0.38851047,0.041594703,0.6542511
162171397,0.40391913,0.027026327,0.6577273
162376351,0.2100529,0.025483135,0.6687217
162578943,0.29166257,0.023334468,0.674439
162781786,0.2130145,0.027645418,0.6718043
162985386,0.27198276,0.030999865,0.68405235
163189015,0.34678152,0.0344542,0.6877972
163392818,0.29886037,0.037074875,0.6880656
163595254,0.3910074,0.0370623,0.6804426
163795283,0.3999412,0.03792691,0.6875757
163998514,0.32155055,0.03726314,0.6737753
164202761,0.31862128,0.0400926,0.6690505
164405721,0.39230862,0.045603678,0.6612078
164609198,0.48000178,0.050106544,0.6577489
164809234,0.49309462,0.052576628,0.64403856
165011319,0.5421127,0.052977998,0.62171715
165216353,0.5996188,0.05039378,0.6067646
165418515,0.58065367,0.046705678,0.6015618
165623543,0.52236223,0.038955018,0.608853
165825758,0.4551218,0.032982897,0.61763823
166028930,0.47458184,0.045960724,0.6258655
166232043,0.47951898,0.046504155,0.63415766
166436721,0.5875193,0.05006922,0.64413065
166639320,0.4950335,0.05266064,0.65234333
166843940,0.44881326,0.05872548,0.6564215
167045722,0.37514782,0.04752055,0.65477586
167245865,0.53938234,0.043416727,0.65751415
167444896,0.24890177,0.03455484,0.6622307
167648341,0.1986136,0.031727795,0.67260164
167851288,0.3442468,0.02648358,0.6773808
168051398,0.23485948,0.026212947,0.6768869
168254511,0.20790048,0.026695417,0.6801536
168457916,0.3801468,0.027840566,0.677673
168661663,0.34692505,0.0289451,0.6861379
168865378,0.45202392,0.039846785,0.66714567
169068143,0.43269432,0.041840743,0.65750706
169272226,0.16136983,0.042151436,0.6524243
169474853,0.29822576,0.04135493,0.64079815
169675214,0.3252539,0.038678773,0.622451
169877694,0.31586632,0.037329435,0.59287953
170076972,0.3682258,0.03789772,0.5710011
170281212,0.33714032,0.029188199,0.5588585
170484105,0.41661984,0.04160932,0.5462228
170688346,0.5054424,0.046682168,0.53109264
170891338,0.5410483,0.044637654,0.5163972
171094641,0.5770222,0.04427353,0.5111588
171298354,0.5037062,0.047145985,0.50561225
171500877,0.47129515,0.042909138,0.49889436
171700970,0.637854,0.047298204,0.5128329
171904848,0.27664632,0.05801569,0.51969993
172107342,0.2969697,0.060420457,0.51471823
172307323,0.24643295,0.05091137,0.50301695
172511440,0.20674305,0.043291267,0.49645847
172713774,0.17354825,0.04306841,0.4810328
172916977,0.42000678,0.037890904,0.4624046
173121516,0.30555704,0.021704689,0.45444006
173324110,0.2889488,0.026732227,0.46292928
173527615,0.3059389,0.039746292,0.45299783
173728573,0.28641492,0.037182428,0.4522892
173930662,0.32969135,0.028716618,0.45674714
174134885,0.3423703,0.026381573,0.4611621
174333216,0.37984967,0.022823768,0.4520016
174537034,0.29615295,0.04018943,0.4456196
174740116,0.33622044,0.04171725,0.4504281
174944432,0.59757197,0.035813946,0.45158452
175147362,0.23681398,0.028644232,0.46943775
175347526,0.30393407,0.024775991,0.47358236
175549731,0.28938383,0.01917444,0.49349782
175753738,0.5153396,0.057136327,0.5056415
175956909,0.5199069,0.057652812,0.5408181
176161381,0.4499928,0.06863027,0.54688877
176363300,0.3270648,0.05737842,0.5260703
176563427,0.36261284,0.07098931,0.4916259
176766974,0.50083023,0.060153533,0.47304106
176970605,0.19940035,0.053704035,0.4753855
177173734,0.49123052,0.04982118,0.49049526
177580258,0.41959524,0.039299753,0.49803635
177784023,0.47090104,0.0295828,0.5095622
177987753,0.42548877,0.046786427,0.51029503
178187527,0.6573081,0.045669056,0.50537056
178389757,0.37571004,0.046761498,0.5033692
178588980,0.2720422,0.04616243,0.4915584
178793529,0.34124386,0.03564296,0.48759654
178992438,0.6010951,0.035150915,0.48842698
179195609,0.20913988,0.027195957,0.50483197
179399205,0.16798411,0.02733493,0.5223343
179602460,0.4145932,0.024354422,0.52216554
179805923,0.36506543,0.024398306,0.51562953
180009491,0.45215148,0.021960685,0.5294319
180209508,0.35967946,0.032680713,0.5389987
180412273,0.42637634,0.05194105,0.56457806
180616445,0.52803093,0.06452193,0.57575166
180818570,0.4042389,0.064463824,0.56357276
181018522,0.33314553,0.051799968,0.53329426
181221729,0.34499803,0.058068305,0.49347723
181627309,0.24500914,0.052245907,0.46556064
182642421,0.44180247,0.050061874,0.5081972
182844870,0.6066982,0.037533958,0.50279707
183044899,0.31074303,0.041457146,0.5096842
183248427,0.47525907,0.034618024,0.5090897
183451400,0.4760894,0.0349639,0.4964085
183654462,0.42249283,0.04636764,0.50135595
183858745,0.53121513,0.06910915,0.52833533
184061706,0.80679417,0.06690798,0.5695933
184265178,0.47929943,0.06532559,0.6120927
184672556,0.30165198,0.030259449,0.6164744
184875371,0.33027154,0.019089222,0.59308416
185075354,0.20223409,0.05677677,0.5745985
185277769,0.38508865,0.06857174,0.5666002
185477802,0.42956543,0.07966504,0.54409707
185681888,0.40011716,0.08086986,0.50457597
185884149,0.3088272,0.07527909,0.47581086
186088740,0.4068844,0.06755547,0.4594807
186291269,0.33546573,0.037211053,0.4711351
186494504,0.31671548,0.029618464,0.49052826
186694618,0.5037888,0.031688664,0.5164626
186898951,0.6305623,0.037702065,0.5197059
187100903,0.15613273,0.043798026,0.5191077
187305421,0.55026406,0.037069287,0.5084421
187507412,0.49929655,0.03814717,0.4967
187708262,0.20100336,0.0431023,0.48758084
187910610,0.33610454,0.049072735,0.4786724
188114597,0.34646922,0.043909725,0.46444172
188317774,0.36632663,0.040965423,0.4511531
188521843,0.52711844,0.027748212,0.46211106
188724062,0.47125736,0.03723616,0.49407762
188924293,0.40256637,0.03802743,0.53026044
189127638,0.3950154,0.03639138,0.53458494
189330519,0.35662752,0.036625262,0.54560024
189530940,0.31318948,0.046927836,0.54012746
189730196,0.30506337,0.05355621,0.53665614
189933120,0.24396284,0.067237176,0.5303236
190136042,0.23721421,0.048710953,0.5295328
190340456,0.32434607,0.041747127,0.5345817
190543328,0.3815464,0.043210324,0.5370305
190747589,0.2548984,0.04004714,0.5537542
190949697,0.5126624,0.03965565,0.55107224
191154841,0.26837754,0.035078414,0.5526121
191357000,0.30396727,0.03371281,0.5525342
191560097,0.35824904,0.036294617,0.5572615
191762767,0.25475356,0.031087948,0.55359447
191963613,0.30388725,0.035726655,0.34994134
192166674,0.31669742,0.037669964,0.2540648
192370744,0.31934416,0.04082557,0.2380986
192573749,0.3570582,0.041939832,0.24644887
192778210,0.36645523,0.040616963,0.25024217
192980109,0.3346857,0.0408608,0.23228776
193184432,0.33794826,0.04144538,0.23007376
193387308,0.32648513,0.039675947,0.22207685
193586633,0.33658588,0.039060272,0.22523281
193789743,0.34297988,0.04094555,0.22551103
193989724,0.3336591,0.04266291,0.219566
194193659,0.37499127,0.03429341,0.21679975
194396070,0.33422387,0.028962584,0.21953623
194600224,0.39126372,0.02527837,0.2040702
194800568,0.44573823,0.020992378,0.21270356
195002838,0.47475174,0.018690512,0.21961378
195205758,0.433662,0.022513794,0.21021836
195410351,0.3984123,0.031524997,0.22508775
195613007,0.3848804,0.034535304,0.21098742
195816696,0.37297812,0.028868163,0.2088968
196016404,0.35635224,0.034173913,0.21164218
196219342,0.389399,0.041456185,0.2095836
196422644,0.44507775,0.041139368,0.21219274
196626796,0.4918423,0.04576034,0.20524688
196829682,0.43823043,0.04121092,0.1951129
197033912,0.30678967,0.04072131,0.19131875
197236707,0.28291404,0.032421764,0.200513
197440049,0.2778779,0.025554283,0.20260793
197643431,0.37890363,0.02721761,0.20731282
197842512,0.26631182,0.03161436,0.23187222
198046395,0.28345215,0.024141988,0.23955806
198246229,0.28777096,0.02948081,0.24125907
198445733,0.2720066,0.030712403,0.23991112
198648712,0.25084433,0.03268579,0.29652843
198851394,0.313457,0.032011047,0.31806937
199054661,0.28292128,0.028488928,0.3123029
199259110,0.21977942,0.029582772,0.32010755
199461772,0.29451853,0.03435158,0.35541192
199666021,0.22292784,0.041102055,0.3465214
199869021,0.22210498,0.04132309,0.35077223
200072801,0.22558641,0.037828445,0.35428718
200275455,0.19418898,0.032992143,0.34869388
200475324,0.2092647,0.038828503,0.3474583
200679250,0.17926624,0.03664026,0.33762252
200882848,0.1549933,0.035137583,0.32416174
201084895,0.2812703,0.022884848,0.31679752
201287382,0.44764385,0.037373982,0.31255922
201492716,0.35579318,0.03601619,0.3041392
201695309,0.3977963,0.03284938,0.29885417
201898819,0.31036982,0.024530623,0.2949399
202099444,0.32380512,0.03291899,0.29538736
202301760,0.43658137,0.048133902,0.29153174
202500993,0.52195895,0.05433585,0.29629943
202705066,0.44043145,0.039700706,0.3083287
202908572,0.552614,0.035113413,0.33128384
203111517,0.5252057,0.04189649,0.34674105
203316079,0.40888345,0.04211389,0.3732025
203925061,0.20750229,0.033051807,0.40926236
204127324,0.31226435,0.03834254,0.42791942
204328178,0.124126926,0.032783553,0.4421255
204531762,0.11632172,0.03880917,0.44740096
204732355,0.23335847,0.043267075,0.4297413
204933783,0.38524175,0.044183712,0.42990145
205133670,0.13888815,0.036080394,0.42655683
205336996,0.23354113,0.019231074,0.41877326
205542140,0.41642517,0.0315132,0.41806248
205744127,0.35212448,0.035773914,0.39992744
205948199,0.20163895,0.0338809,0.4037639
206150490,0.16973266,0.039211605,0.38611138
206350531,0.36396888,0.045067884,0.39642963
206554040,0.3454055,0.03137681,0.43924132
206754530,0.24405265,0.021329548,0.46147892
206956098,0.23201951,0.020935224,0.42437947
207156132,0.22439943,0.019072985,0.41862735
207359511,0.37617156,0.019684618,0.40155694
207559229,0.29203486,0.04053513,0.38586566
207761796,0.3602176,0.044146437,0.37620598
207961731,0.20982009,0.054084558,0.35512477
208164988,0.35460156,0.051138595,0.33816478
208368794,0.24507561,0.05360429,0.3227488
208572144,0.8450551,0.047398206,0.3113072
208775745,0.5490083,0.03617879,0.2917237
208978677,0.46170044,0.034583952,0.29435587
209182174,0.3919467,0.042635508,0.28198683
210597656,0.37500772,0.029642941,0.45095292
210802842,0.29887468,0.03416854,0.43980417
211004850,0.37367553,0.032793906,0.4384425
211209016,0.39334634,0.023480495,0.42174175
211411257,0.35404426,0.039614987,0.42522687
211611342,0.3534896,0.041878585,0.4266251
211815271,0.37691325,0.038254973,0.43855274
212017986,0.416739,0.03543046,0.44786394
212218362,0.36509866,0.0295242,0.45514593
212417561,0.34985393,0.039411735,0.47457883
212620148,0.33042356,0.031257253,0.47551098
212824043,0.41289288,0.020740805,0.47433904
213027368,0.28572726,0.024283078,0.4785351
213231436,0.330289,0.027627092,0.48711035
213433738,0.367924,0.04303045,0.5017326
213637891,0.32184607,0.041637287,0.5079572
213840874,0.40493456,0.034717977,0.50799906
214044954,0.37765318,0.04572375,0.5103328
214243296,0.30942118,0.0391483,0.5020327
214448267,0.35591152,0.039681695,0.49575707
214650529,0.38435507,0.03828194,0.48849472
214855356,0.33930704,0.025781676,0.49583548
215057389,0.22140834,0.024187172,0.5115565
215258572,0.26617265,0.024584595,0.5177845
215460194,0.24926586,0.03968063,0.53209317
215663628,0.28415856,0.042221427,0.5454142
215867989,0.4890797,0.039499428,0.5536214
216070469,0.36545223,0.032415062,0.56135863
216274328,0.34372613,0.03664439,0.56036174
216473365,0.38084137,0.036109198,0.5479756
216676919,0.40539658,0.029020587,0.54834425
216880551,0.4403963,0.02636767,0.556102
217084340,0.38165557,0.027748516,0.5640305
217286521,0.46521276,0.027122425,0.5718659
217491392,0.35174713,0.027852902,0.5789683
217693866,0.36603802,0.02431856,0.58096814
217897625,0.4358268,0.025697611,0.5814854
218098452,0.36954805,0.030263705,0.59430414
218300135,0.26324147,0.034661792,0.60512286
218504367,0.22036064,0.031105679,0.60394347
218703973,0.5020208,0.031579807,0.6092571
218907247,0.5417876,0.026693115,0.62191725
219109684,0.38337246,0.04097166,0.6164683
219314359,0.36399677,0.046993207,0.61132455
219516103,0.38300538,0.04562248,0.606178
219720451,0.63049024,0.043694172,0.6142048
219923440,0.47013894,0.040868964,0.6144162
220127673,0.36050594,0.038433906,0.61201733
220326955,0.40980172,0.042379927,0.6053883
220529800,0.39045686,0.041291837,0.61439127
220729237,0.68548656,0.040197376,0.61469376
220931381,0.33962396,0.043096304,0.61326224
221136468,0.33241296,0.03977518,0.61282873
221339313,0.45513713,0.03461798,0.6150826
221542850,0.49588892,0.03551488,0.62325037
221745786,0.45806977,0.036129057,0.62641793
221950019,0.39249167,0.032934804,0.6316867
222150016,0.24368665,0.0349177,0.64013994
222352613,0.322372,0.035612363,0.6414798
222553159,0.4449021,0.04831489,0.64222777
222755327,0.5123459,0.050175,0.6396244
222958980,0.5204889,0.046978086,0.62812304
223161722,0.7987626,0.042676248,0.6294299
223361725,0.49060243,0.04170801,0.633558
223564912,0.5122811,0.030924374,0.63700455
223769709,0.35138226,0.029935766,0.6416308
223972137,0.3681847,0.027866483,0.6457603
224176306,0.3249696,0.03259327,0.64988464
224378853,0.47216788,0.022773169,0.66004187
224581724,0.53828883,0.033843018,0.6632316
224781821,0.41025844,0.050928034,0.6578666
224986068,0.35648486,0.048779797,0.6538632
225188130,0.39405933,0.045000628,0.64977545
225392442,0.48812896,0.03543556,0.6471277
225592037,0.5239033,0.0323032,0.6440304
225794498,0.6292788,0.023895724,0.6528842
225997647,0.50449795,0.021319645,0.6611632
226202517,0.39804423,0.025095604,0.6629037
226404950,0.45126864,0.022974335,0.6672329
226608790,0.5485398,0.027960995,0.6768156
226811994,0.5103847,0.0413022,0.67366177
227012117,0.68015075,0.04703656,0.6687628
227214435,0.55249846,0.048620522,0.6626979
227418627,0.4346382,0.046507657,0.66041404
227618011,0.48334944,0.046028383,0.6497636
227820865,0.6688923,0.036417615,0.6548344
228024555,0.3455584,0.038912926,0.6550163
228227394,0.39970362,0.03340075,0.66349506
228431990,0.37879932,0.02345619,0.65912175
228635750,0.34275484,0.034837503,0.66857
228837741,0.39827877,0.040879685,0.6657872
229041579,0.3777929,0.04281409,0.6633582
229241388,0.32269984,0.04367186,0.6692609
229444259,0.18349679,0.041008536,0.6660444
229648122,0.25462815,0.04297875,0.6668727
229848232,0.17519656,0.0447043,0.64803743
230050615,0.38776982,0.03978762,0.6444384
230254657,0.48908746,0.03728252,0.6474122
230457511,0.40156826,0.039827026,0.6396133
230658054,0.48944685,0.037713334,0.6360514
230860462,0.52371764,0.035724733,0.62973714
231063354,0.2632833,0.034731958,0.6149376
231263480,0.3610832,0.034001265,0.6081324
231467361,0.3522935,0.034821864,0.60812813
231669848,0.426035,0.04225184,0.5879112
231873870,0.36358806,0.05560715,0.58142185
232075297,0.5276684,0.06627016,0.57002586
232276100,0.2672835,0.057944015,0.56434876
232479279,0.3431285,0.04251692,0.5640365
232682640,0.19026364,0.03211285,0.5666815
232887891,0.3546149,0.022709748,0.5303851
233089771,0.35376865,0.04882015,0.49707696
233294047,0.57581794,0.048047274,0.48710215
233496136,0.4900459,0.043071084,0.4730158
233696034,0.3801485,0.052980267,0.461373
233900044,0.33021623,0.05001566,0.45873198
234102623,0.27024773,0.037000388,0.4809734
234302563,0.44717094,0.03716102,0.47459427
234506530,0.49723414,0.028217766,0.47957337
234709064,0.5079113,0.037291855,0.47946057
234912119,0.45376092,0.035834927,0.4702121
235117493,0.7286064,0.043850116,0.4644416
235319513,0.8262998,0.028675435,0.4605862
236128865,0.6243197,0.04042833,0.5087428
236332908,1.1687673,0.03904409,0.5215086
236532811,0.53717136,0.028215546,0.53272766
236735373,0.2486316,0.02191719,0.5547959
236939146,0.27130413,0.037147358,0.581847
237141781,0.34341896,0.03728979,0.6289602
237346637,0.18953285,0.044484872,0.62168694
237548843,0.22888559,0.061838955,0.61741996
237752845,0.34228605,0.056725934,0.5978153
237954508,0.1172625,0.0295796,0.5748345
238155546,0.43422812,0.033271097,0.56818134
238359457,0.3053406,0.036784466,0.55383396
238561886,0.2568987,0.041426178,0.549501
238761752,0.39840773,0.035656106,0.53956145
238966578,0.5151753,0.037252042,0.5264046
239169164,0.4431625,0.038264737,0.51217616
239371472,0.35721374,0.032131493,0.49306688
239575772,0.32397756,0.020266453,0.49452522
239776746,0.29530728,0.039836675,0.49105892
241194984,0.25753024,0.04068198,0.4989193
241398305,0.29405385,0.030761167,0.55550164
241601932,0.23906742,0.022786181,0.557588
241805250,0.22256163,0.028121172,0.5669153
242005682,0.31937587,0.02247319,0.5700322
242207436,0.38197184,0.014762677,0.5820852
242412439,0.45833308,0.032287676,0.59175646
242614516,0.49437442,0.045823622,0.58502835
242818695,0.4590055,0.030309383,0.57787734
243018148,0.3652886,0.028801758,0.5724844
243220850,0.3740858,0.030617723,0.55917275
243424548,0.4568847,0.0370322,0.56003296
243627328,0.47246742,0.036529243,0.5648773
243830453,0.5267868,0.035648227,0.5779346
244035513,0.5444643,0.0279157,0.5934257
244237746,0.75404197,0.030448163,0.60466194
244441972,0.6049452,0.034798644,0.6292421
244641436,0.3313909,0.023565453,0.643559
244844159,0.26387417,0.02715648,0.66030854
245048086,0.31545898,0.024010962,0.6779391
245248249,0.24204661,0.030883942,0.73508394
245450777,0.21304563,0.03645565,0.75867015
245653726,0.28543317,0.030705608,0.7624876
245857493,0.2467813,0.032645665,0.7576952
246062102,0.16367915,0.031677008,0.74708986
246264230,0.2627741,0.034870155,0.72886336
246467767,0.19068621,0.031565785,0.68731713
246670445,0.42621216,0.028477076,0.63260806
246870521,0.53132653,0.042288803,0.59380543
247074513,0.6487775,0.048669707,0.55717224
247274050,0.7576173,0.045555614,0.5449346
247476183,0.95245206,0.046104584,0.5425834
247676161,0.8527752,0.050305378,0.5437117
247880457,0.6578225,0.03987273,0.54713506
248083135,0.3609129,0.020573303,0.5682533
248286647,0.17165749,0.01729751,0.6158201
248491317,0.29883614,0.036512576,0.7050513
248693051,0.3872909,0.026657285,0.7348125
248897495,0.183037,0.025467535,0.7403741
249100329,0.43415737,0.030688545,0.7430982
249304402,0.21624622,0.0267578,0.7390215
249502810,0.3403553,0.030953797,0.7298801
249707000,0.42504683,0.03672467,0.6702822
249906358,0.5910352,0.05010837,0.59795517
250108850,0.80451626,0.05057582,0.55089617
250312603,0.8605283,0.046738368,0.52662385
250515276,0.99710053,0.044945575,0.5293662
250719979,0.7672823,0.05573331,0.5308795
250922452,0.6252028,0.052071452,0.5527048
251122651,0.34912482,0.03806749,0.5810447
251325818,0.42542657,0.020154934,0.6310422
251529247,0.3395804,0.04471479,0.69480956
251732219,0.28548548,0.04712841,0.72983986
251936895,0.19694299,0.05041845,0.73641396
252135922,0.15770377,0.042178687,0.71533483
252338451,0.49036068,0.022979118,0.68181473
252542841,0.5348978,0.031216785,0.6686112
252745620,0.29389018,0.04063369,0.64741796
252949094,0.5145447,0.049257703,0.61738545
253152455,0.41006413,0.04001114,0.59255403
253355356,0.38276112,0.036119778,0.5895837
253559622,0.4284727,0.026174534,0.5730296
253758579,0.46456066,0.037758023,0.5754837
253962660,0.31535482,0.045818005,0.57154745
254164068,0.6853459,0.04686727,0.5754502
254364980,0.4106515,0.058191042,0.5687028
254568729,0.38495156,0.05012269,0.5590437
254771588,0.35454518,0.05243832,0.5541234
254975746,0.28856784,0.04049257,0.55364424
255178535,0.6191934,0.045741893,0.55187
255382463,0.2632578,0.03176051,0.5125529
255585871,0.28062135,0.038106844,0.5012025
255785384,0.38125333,0.039264243,0.49784175
255988042,0.42943695,0.041414354,0.4927697
256191959,0.36903873,0.036202148,0.42205
256392405,0.3364747,0.031043917,0.26018575
256594441,0.30494982,0.02854081,0.15366925
256797623,0.30835688,0.029552417,0.14631411
256999186,0.34889612,0.030320408,0.15005651
257201204,0.3475977,0.03285186,0.14785428
257403998,0.37876305,0.03522684,0.14361879
257607586,0.3586167,0.03900304,0.14576434
257807802,0.32965955,0.037589964,0.15099505
258010369,0.3001057,0.036057293,0.15534092
258213783,0.31902862,0.035521585,0.14715263
258417190,0.32032356,0.03705932,0.15440786
258620067,0.3150268,0.03856917,0.21213302
258820093,0.33219644,0.038873486,0.24661177
259023238,0.37116137,0.042026408,0.25106883
259226724,0.35987833,0.042712715,0.24939471
259430429,0.3549503,0.043935563,0.2539802
259633893,0.34138733,0.04216073,0.26476836
259836847,0.324882,0.040116683,0.26463816
260040553,0.28935385,0.0250999,0.26220995
260244008,0.23801869,0.021720763,0.27298468
260447374,0.21411145,0.020056661,0.27439436
260647275,0.17089333,0.029263893,0.2835167
260850726,0.19151042,0.033308417,0.2798935
261053665,0.2637166,0.038727548,0.28648132
261257863,0.2023419,0.03738627,0.291588
261459959,0.11128821,0.03285909,0.29715353
261665267,0.18164979,0.036860395,0.30635214
261867290,0.15819956,0.04771218,0.31725958
262071247,0.32193777,0.04758627,0.3130616
262473679,0.29611102,0.046262927,0.31631926
263083282,0.21503398,0.030888041,0.29347628
263287599,0.2688882,0.03150677,0.28090212
263491364,0.3340557,0.03268463,0.26860264
263693713,0.32786378,0.03824796,0.26555148
263898017,0.370678,0.04262552,0.26885602
264098087,0.32607755,0.041321836,0.27575094
264300480,0.3089374,0.026812065,0.293415
264503332,0.19540916,0.037971027,0.3180665
264703391,0.34720507,0.041872803,0.3221536
264903259,0.29824287,0.029589264,0.3176015
265106847,0.20721786,0.049233288,0.31316602
265305202,0.25365618,0.047891293,0.30858317
265509054,0.15055253,0.039344937,0.30026156
265712457,0.25215977,0.027650934,0.29155353
265915273,0.34035298,0.034195144,0.284483
266119896,0.33221298,0.035381656,0.28803217
266323457,0.28560707,0.03522388,0.2861554
266525680,0.40213323,0.038766302,0.27591097
266730012,0.45179388,0.04407792,0.2747021
266929816,0.3560592,0.039754063,0.27359965
267132158,0.35845187,0.029321069,0.28055426
267331999,0.5229737,0.030727588,0.32311505
267534528,0.35990822,0.028513845,0.38697493
267734513,0.4766239,0.038807508,0.41507822
267938310,0.26305866,0.035633266,0.43153408
268141524,0.51615936,0.023290623,0.4698036
268344894,0.24376951,0.046457604,0.49036598
268549098,0.39385676,0.05592862,0.472746
268751440,0.16145496,0.05332875,0.46309528
268954852,0.3717878,0.044616923,0.46933368
269158611,0.27687183,0.036851432,0.46633
269362999,0.31278443,0.041806478,0.4608911
269561838,0.21691957,0.06799005,0.44428506
269764143,0.31363365,0.034996007,0.4355787
269964179,0.26262116,0.03316079,0.40693057
270167500,0.31461245,0.03896834,0.42125058
270371622,0.3905159,0.042470798,0.43570045
270574484,0.37350225,0.040477287,0.45574144
270778728,0.32735112,0.023794826,0.47991225
270980829,0.46312374,0.08041988,0.46494573
271183629,0.5691387,0.10699593,0.41267136
271385086,0.33411828,0.099776685,0.38894323
271587643,0.2631593,0.06790731,0.41334105
271791578,0.3775073,0.06420151,0.45133564
271993860,0.47022104,0.072642624,0.45031905
272193647,0.4410623,0.060912624,0.4555588
273210496,0.3982219,0.08625267,0.42726806
273413991,0.3040826,0.06126063,0.45645168
273615308,0.3884128,0.06714337,0.46030307
273817065,0.31607908,0.053540196,0.4712331
274021530,0.27875566,0.034371223,0.4849615
274224211,0.33762228,0.024243314,0.51936615
274424406,0.43392125,0.09429537,0.49879533
274626561,0.44022128,0.117483266,0.43993017
274830650,0.36878785,0.09928731,0.40953177
275031079,0.49818397,0.071739525,0.42139044
275233621,0.27611053,0.0556722,0.43340045
275436057,0.22360934,0.052501958,0.4311536
275640468,0.32855996,0.054805066,0.4270841
275843356,0.4379643,0.047559835,0.43154922
276046578,0.4942288,0.03556106,0.47272328
276249966,0.35310203,0.034708496,0.5089156
276452213,0.3566109,0.050174285,0.5139654
276652966,0.36785582,0.06067664,0.5128278
276856710,0.39368075,0.08462216,0.48509306
277059529,0.42190823,0.097778924,0.43893218
277264029,0.32850188,0.086530164,0.4140981
277466523,0.37512225,0.05648603,0.43034148
277670376,0.37794363,0.05718147,0.43741387
277873883,0.12005678,0.047690928,0.4325397
278073177,0.27316436,0.045236528,0.40025187
278276076,0.45559764,0.056640454,0.3956325
278479932,0.4171463,0.051430963,0.40624127
278679687,0.38165614,0.038831055,0.44174546
278883189,0.388426,0.02757027,0.47099563
279085767,0.2977956,0.03093519,0.50694937
279289223,0.3990273,0.057496235,0.50443006
279492931,0.41964948,0.10289148,0.4703635
279696734,0.36864024,0.097604424,0.44003412
279899270,0.25291184,0.07687158,0.44948882
280099312,0.39484194,0.04980048,0.47749588
280302785,0.49514586,0.04503175,0.4773323
280502704,0.11074366,0.033036705,0.45363924
280705271,0.4223416,0.039015874,0.44784853
280907396,0.41037688,0.050390597,0.44539303
281108217,0.43262205,0.045347128,0.46790993
281311372,0.4131733,0.038569868,0.4969047
281514522,0.63878703,0.037996616,0.52495515
281719457,0.5328859,0.04276718,0.5320069
281921791,0.49637648,0.042955063,0.54002285
282125784,0.5128431,0.10599484,0.5191041
282327319,0.37229142,0.09558945,0.48244998
282528231,0.33205426,0.0835435,0.48319376
282732030,0.2828876,0.056736767,0.5066597
282934610,0.4150499,0.055558253,0.5218548
283134530,0.27270696,0.0518008,0.51622826
283338143,0.31513193,0.033554245,0.49490243
283540845,0.30597445,0.030057753,0.49097186
283744426,0.32775518,0.026231464,0.42182606
283948209,0.39344433,0.04285241,0.41927567
284151638,0.54123753,0.056734044,0.4196035
284354540,0.36584052,0.05755107,0.40470454
284558771,0.2461742,0.052477594,0.40123114
284761854,0.23833586,0.044424914,0.41046366
284961753,0.29899892,0.038754307,0.4400008
285164168,0.32296234,0.041972212,0.4375914
285367678,0.35165873,0.0335169,0.4280262
285568258,0.46118617,0.035250504,0.4674018
285771125,0.44511726,0.037770566,0.46980292
285973804,0.49484187,0.0432816,0.47100192
286178407,0.46441787,0.047972012,0.48236394
286381196,0.5109018,0.03749431,0.48927227
286584154,0.40121102,0.020039726,0.49814254
286787767,0.14517957,0.032914575,0.5128691
286988205,0.2729234,0.04345637,0.5257928
287190477,0.43124464,0.045299117,0.5301053
287394379,0.36510357,0.047578976,0.5247896
287596951,0.37278447,0.04189829,0.52720517
287797044,0.39318284,0.046108864,0.5253573
288000699,0.29507247,0.037749387,0.5239134
288203771,0.58195525,0.04698304,0.5240527
288407441,0.3013084,0.04144024,0.52690095
288611363,0.5728548,0.037502155,0.52729785
288813988,0.313733,0.033908404,0.52527356
289014442,0.20119745,0.034636807,0.52501386
289217158,0.37255013,0.038306598,0.5256658
289421034,0.21779503,0.036735095,0.5174285
289623392,0.545333,0.033188213,0.5177977
289823236,0.2310095,0.026522031,0.35840973
290027143,0.2425345,0.023867447,0.15473679
290230554,0.2539863,0.027156105,0.1325645
291044415,0.22157426,0.03332139,0.39506498
291247412,0.25043756,0.04705689,0.41638055
291446563,0.4786459,0.050799873,0.45799538
291650022,0.30961072,0.05440295,0.5279149
291849162,0.31453645,0.056259654,0.5949947
292052114,0.37129194,0.034814,0.5932515
292252124,0.21326314,0.029781701,0.57466584
292456556,0.2834587,0.032056056,0.5379593
292658399,0.35706314,0.045188498,0.49915662
292863388,0.41862342,0.040559456,0.48193598
293875226,0.4981717,0.049936507,0.48470938
294079319,0.455373,0.055583622,0.49431574
294281802,0.2331206,0.04097801,0.48013732
294481746,0.23215744,0.038362786,0.4844052
294685807,0.2634698,0.034878086,0.4858421
294888807,0.34171107,0.0391173,0.49826515
295092182,0.41399413,0.03818183,0.5011917
295296078,0.45918134,0.029944142,0.49449256
295498523,0.4320642,0.028987553,0.4886068
295701868,0.41728976,0.03045782,0.49019584
295906565,0.40005746,0.031831693,0.48582143
296106059,0.3886316,0.04075717,0.48975456
296308104,0.39146864,0.047359195,0.48548245
296508250,0.30427688,0.04873985,0.4903047
296708251,0.27386817,0.042939883,0.49529415
296910501,0.30924976,0.033476755,0.5061904
297114030,0.2293926,0.0334295,0.5136604
297317708,0.25407702,0.030485246,0.51991755
297521171,0.3500591,0.034605417,0.5239774
297724120,0.5297688,0.038587775,0.5258149
297927590,0.3756234,0.031594433,0.5192499
298131319,0.34672657,0.030963505,0.52442527
298331602,0.280495,0.027342115,0.5289713
298533667,0.4376026,0.021418598,0.52641517
298737251,0.251706,0.020902915,0.531787
298937355,0.44302526,0.021719964,0.54080147
299140083,0.27827924,0.030300189,0.5418896
299343562,0.23215343,0.02256711,0.54139304
299547344,0.32778546,0.034739196,0.5348274
299751261,0.29610798,0.051467944,0.52635497
299953672,0.52371293,0.04871935,0.5267698
300156961,0.21789408,0.04504226,0.5305971
300357018,0.54641235,0.03560597,0.52712184
300560690,0.37804854,0.024277028,0.53417426
300763426,0.64253795,0.017514884,0.53648555
300963286,0.20805007,0.032351617,0.5386463
301167408,0.4601075,0.03296133,0.531001
301370191,0.559563,0.039167635,0.532009
301572902,0.49175242,0.037234023,0.5302087
301777781,0.47208524,0.044373076,0.514084
301980184,0.54949707,0.033051226,0.505611
302183593,0.47687712,0.030816695,0.51227593
302383633,0.76874757,0.03103306,0.5034365
302586537,0.6765206,0.02040168,0.51777744
302786672,0.62292355,0.035405573,0.5220519
302988967,0.59663796,0.035231307,0.52462417
303189086,0.5081709,0.036365084,0.52987003
303392261,0.31395438,0.026415493,0.5264214
303596413,0.3061658,0.032678805,0.54550296
303795583,0.30866948,0.041585732,0.53740656
303998579,0.53846,0.043530684,0.5448776
304202019,0.3974461,0.036709033,0.5363497
304404958,0.42084733,0.044270642,0.53760415
304609827,0.13449763,0.051741954,0.52047926
304812080,0.24117894,0.058634054,0.5154929
305015415,0.38177836,0.054634828,0.50609106
305218515,0.33073607,0.049599446,0.5017317
305418469,0.5001133,0.034284562,0.5042179
305622390,0.4470546,0.040371846,0.5054673
