timestamp,ref_timestamp,ref_lat,ref_lon,x,y,z,delta_xy[0],delta_xy[1],delta_z,vx,vy,vz,z_deriv,delta_vxy[0],delta_vxy[1],delta_vz,ax,ay,az,yaw,ref_alt,dist_bottom,dist_bottom_rate,eph,epv,evh,evv,vxy_max,vz_max,hagl_min,hagl_max,xy_valid,z_valid,v_xy_valid,v_z_valid,xy_reset_counter,z_reset_counter,vxy_reset_counter,vz_reset_counter,xy_global,z_global,dist_bottom_valid
9192693,0,0.0,0.0,0.0,0.0,0.067074,1.0644407e-07,2.8483205e-07,0.0,-0.0042161755,-0.000269659,-0.008527558,-0.08210554,2.6741383e-05,7.155686e-05,0.0,-0.0023019016,0.003783145,0.013283101,1.2535261,0.0,0.1,0.008527558,0.50079864,0.35611358,0.5875951,0.27916592,inf,inf,inf,inf,0,1,0,1,1,0,1,1,0,0,0
9200664,0,0.0,0.0,0.0,0.0,0.066903144,1.0644407e-07,2.8483205e-07,0.0,-0.0042404095,-0.00017464752,-0.0084837945,-0.08152493,2.6741383e-05,7.155686e-05,0.0,0.0051918435,3.967399e-05,0.0035364954,1.2534785,0.0,0.1,0.0084837945,0.5048714,0.35798612,0.5913704,0.2799152,inf,inf,inf,inf,0,1,0,1,1,0,1,1,0,0,0
9296676,0,0.0,0.0,0.0,0.0,0.06689609,1.0644407e-07,2.8483205e-07,0.0,-0.00457006,0.0011222309,-0.00857294,-0.07354112,2.6741383e-05,7.155686e-05,0.0,0.008470051,0.01181559,0.0051472317,1.2526138,0.0,0.1,0.00857294,0.5540231,0.35725802,0.6362692,0.27617648,inf,inf,inf,inf,0,1,0,1,1,0,1,1,0,0,0
9400675,0,0.0,0.0,0.0,0.0,0.067068025,1.0644407e-07,2.8483205e-07,0.0,-0.004443951,0.0021528224,-0.008912799,-0.06619342,2.6741383e-05,7.155686e-05,0.0,-0.015022317,0.010352953,-0.014728857,1.2503686,0.0,0.1,0.008912799,0.6116289,0.35298052,0.68654364,0.27016175,inf,inf,inf,inf,0,1,0,1,1,0,1,1,0,0,0
9500664,0,0.0,0.0,0.0,0.0,0.066450976,1.0644407e-07,2.8483205e-07,0.0,-0.004111148,0.0028558099,-0.0089976415,-0.060683444,2.6741383e-05,7.155686e-05,0.0,0.008286688,-9.541009e-05,0.001058333,1.2481394,0.0,0.1,0.0089976415,0.66908985,0.35234624,0.73415023,0.26642665,inf,inf,inf,inf,0,1,0,1,1,0,1,1,0,0,0
9603864,0,0.0,0.0,0.0,0.0,0.07193252,1.0644407e-07,2.8483205e-07,0.0,-0.004266484,0.0028253156,-0.006090267,-0.04641441,2.6741383e-05,7.155686e-05,0.0,-0.013876846,-0.005636161,0.020770999,1.2460616,0.0,0.1,0.006090267,0.73775584,0.35389364,0.787608,0.26331285,inf,inf,inf,inf,0,1,0,1,1,0,1,1,0,0,0
9707870,0,0.0,0.0,0.0,0.0,0.079896435,1.0644407e-07,2.8483205e-07,0.0,-0.0040128483,0.002442315,-0.0013855388,-0.029727567,2.6741383e-05,7.155686e-05,0.0,0.00620991,-0.0014135422,0.0098287705,1.244936,0.0,0.1,0.0013855388,0.8087585,0.34954715,0.8395211,0.25733107,inf,inf,inf,inf,0,1,0,1,1,0,1,1,0,0,0
9811095,0,0.0,0.0,0.0,0.0,0.08788461,1.0644407e-07,2.8483205e-07,0.0,-0.004098281,0.0024322101,0.0026077032,-0.016093526,2.6741383e-05,7.155686e-05,0.0,-0.009205065,0.0028871624,0.003739091,1.244443,0.0,0.1,-0.0026077032,0.8852514,0.35052887,0.8921129,0.25419983,inf,inf,inf,inf,0,1,0,1,1,0,1,1,0,0,0
9907082,0,0.0,0.0,0.0,0.0,0.08924574,1.0644407e-07,2.8483205e-07,0.0,-0.0042610574,0.002673301,0.0033618899,-0.013773098,2.6741383e-05,7.155686e-05,0.0,-0.009550237,-0.006181321,0.00057724694,1.2444255,0.0,0.1,-0.0033618899,0.9574909,0.34932888,0.9388586,0.25041148,inf,inf,inf,inf,0,1,0,1,1,0,1,1,0,0,0
10011113,0,0.0,0.0,0.0,0.0,0.09263586,1.0644407e-07,2.8483205e-07,0.0,-0.0041300226,0.0029161868,0.004334403,-0.009336988,2.6741383e-05,7.155686e-05,0.0,-0.009404828,-0.0050787297,0.023772953,1.2438426,0.0,0.1,-0.004334403,1.0397683,0.34975523,0.9889376,0.24723242,inf,inf,inf,inf,0,1,0,1,1,0,1,1,0,0,0
10114314,0,0.0,0.0,0.0,0.0,0.09417864,1.0644407e-07,2.8483205e-07,0.0,-0.0038963207,0.002851224,0.0039641545,-0.008284165,2.6741383e-05,7.155686e-05,0.0,0.00025121344,0.012759335,-0.007209007,1.2427039,0.0,0.1,-0.0039641545,1.1221863,0.34497505,1.0349061,0.24138418,inf,inf,inf,inf,0,1,0,1,1,0,1,1,0,0,0
10210270,0,0.0,0.0,0.0,0.0,0.09648048,1.0644407e-07,2.8483205e-07,0.0,-0.0032874078,0.0028691622,0.004520081,-0.0057218634,2.6741383e-05,7.155686e-05,0.0,-0.0046158643,-0.0032827915,-0.0020141785,1.2420158,0.0,0.1,-0.004520081,1.2015084,0.34375593,1.0766052,0.2376757,inf,inf,inf,inf,0,1,0,1,1,0,1,1,0,0,0
10314264,0,0.0,0.0,0.0,0.0,0.09173806,1.0644407e-07,2.8483205e-07,0.0,-0.0033541305,0.0023113347,0.0004457468,-0.014653586,2.6741383e-05,7.155686e-05,0.0,0.00014185278,0.0038921672,0.026071638,1.2421188,0.0,0.1,-0.0004457468,1.2892472,0.34394062,1.119992,0.23454425,inf,inf,inf,inf,0,1,0,1,1,0,1,1,0,0,0
10418264,0,0.0,0.0,0.0,0.0,0.09068359,1.0644407e-07,2.8483205e-07,0.0,-0.0031985752,0.00200266,-0.0011805724,-0.01631527,2.6741383e-05,7.155686e-05,0.0,-0.010580788,0.0037460083,-0.0018655022,1.2429794,0.0,0.1,0.0011805724,1.3785424,0.34430847,1.160906,0.23151079,inf,inf,inf,inf,0,1,0,1,1,0,1,1,0,0,0
10517476,0,0.0,0.0,0.0,0.0,0.08873925,1.0644407e-07,2.8483205e-07,0.0,-0.002552869,0.0020489376,-0.0023285267,-0.018208973,2.6741383e-05,7.155686e-05,0.0,0.00464076,0.006977091,0.0036507212,1.2436322,0.0,0.1,0.0023285267,1.4582609,0.34290606,1.1937025,0.22788848,inf,inf,inf,inf,0,1,0,1,1,0,1,1,0,0,0
10621464,0,0.0,0.0,0.0,0.0,0.085811675,1.0644407e-07,2.8483205e-07,0.0,-0.002311971,0.0020775942,-0.004374788,-0.021588111,2.6741383e-05,7.155686e-05,0.0,0.0008387721,-0.0015314323,0.028591538,1.2446551,0.0,0.1,0.004374788,1.5366389,0.3381323,1.2206795,0.22250752,inf,inf,inf,inf,0,1,0,1,1,0,1,1,0,0,0
10724699,0,0.0,0.0,0.0,0.0,0.08480749,1.0644407e-07,2.8483205e-07,0.0,-0.0023765098,0.0015009661,-0.0042606527,-0.020582559,2.6741383e-05,7.155686e-05,0.0,0.008729888,8.882361e-05,-0.01804422,1.2451148,0.0,0.1,0.0042606527,1.6246426,0.33888358,1.2508723,0.21959752,inf,inf,inf,inf,0,1,0,1,1,0,1,1,0,0,0
10820665,0,0.0,0.0,0.0,0.0,0.08245087,1.0644407e-07,2.8483205e-07,0.0,-0.0021703762,0.0012364604,-0.0048265336,-0.021823637,2.6741383e-05,7.155686e-05,0.0,0.021800293,0.00628197,0.017734272,1.24501,0.0,0.1,0.0048265336,1.6841067,0.332795,1.2625628,0.21405405,inf,inf,inf,inf,0,1,0,1,1,0,1,1,0,0,0
10924664,0,0.0,0.0,0.0,0.0,0.082889535,1.0644407e-07,2.8483205e-07,0.0,-0.0017467301,0.0010633112,-0.004546132,-0.019107163,2.6741383e-05,7.155686e-05,0.0,0.001927969,0.0009291549,-0.0050251544,1.2444522,0.0,0.1,0.004546132,1.7594562,0.3328271,1.2816978,0.21130373,inf,inf,inf,inf,0,1,0,1,1,0,1,1,0,0,0
11027933,0,0.0,0.0,0.0,0.0,0.08959205,1.0644407e-07,2.8483205e-07,0.0,-0.0013092917,0.00116379,0.000265965,-0.0062555326,2.6741383e-05,7.155686e-05,0.0,-0.009668905,0.015309513,0.01984713,1.2443221,0.0,0.1,-0.000265965,1.8316829,0.3329697,1.2968756,0.20859961,inf,inf,inf,inf,0,1,0,1,1,0,1,1,0,0,0
11123911,0,0.0,0.0,0.0,0.0,0.0975658,1.0644407e-07,2.8483205e-07,0.0,-0.0011809008,0.00045321105,0.0038039584,0.005035679,2.6741383e-05,7.155686e-05,0.0,0.012462274,-0.017337108,0.0015482719,1.2441933,0.0,0.1,-0.0038039584,1.8890342,0.33164158,1.3036656,0.2054945,inf,inf,inf,inf,0,1,0,1,1,0,1,1,0,0,0
11227864,0,0.0,0.0,0.0,0.0,0.1074935,1.0644407e-07,2.8483205e-07,0.0,-0.0011938652,0.00029932027,0.008726326,0.018049268,2.6741383e-05,7.155686e-05,0.0,0.0029123842,-0.0045346105,-0.005181179,1.2441092,0.0,0.1,-0.008726326,1.9496762,0.33139375,1.3096037,0.20276593,inf,inf,inf,inf,0,1,0,1,1,0,1,1,0,0,0
11331883,0,0.0,0.0,0.0,0.0,0.11782774,1.0644407e-07,2.8483205e-07,0.0,-0.0003993606,6.0085087e-05,0.014291965,0.03039025,2.6741383e-05,7.155686e-05,0.0,0.0007797268,0.016031213,-0.005821705,1.2439809,0.0,0.1,-0.014291965,1.9862053,0.3267951,1.2995234,0.19812228,inf,inf,inf,inf,0,1,0,1,1,0,1,1,0,0,0
11435082,0,0.0,0.0,0.0,0.0,0.123847045,1.0644407e-07,2.8483205e-07,0.0,0.0003088742,-0.00027849898,0.016501548,0.03384689,2.6741383e-05,7.155686e-05,0.0,0.010720729,-0.0023603707,0.028620545,1.2441946,0.0,0.1,-0.016501548,2.0359204,0.32664943,1.2976897,0.19553202,inf,inf,inf,inf,0,1,0,1,1,0,1,1,0,0,0
11539064,0,0.0,0.0,0.0,0.0,0.13023378,1.0644407e-07,2.8483205e-07,0.0,0.0007401185,-0.0011477644,0.019258097,0.03801067,2.6741383e-05,7.155686e-05,0.0,-0.006760195,0.0006997748,0.010041824,1.2446297,0.0,0.1,-0.019258097,2.07945,0.32634088,1.2923644,0.19298239,inf,inf,inf,inf,0,1,0,1,1,0,1,1,0,0,0
11634270,0,0.0,0.0,0.0,0.0,0.1335467,1.0644407e-07,2.8483205e-07,0.0,0.0014249613,-0.0016629709,0.020049887,0.037285708,2.6741383e-05,7.155686e-05,0.0,0.0020820368,0.008805259,-0.0011875674,1.245361,0.0,0.1,-0.020049887,2.108926,0.32484412,1.2810576,0.19012086,inf,inf,inf,inf,0,1,0,1,1,0,1,1,0,0,0
11738289,0,0.0,0.0,0.0,0.0,0.13248646,1.0644407e-07,2.8483205e-07,0.0,0.0015950934,-0.0018916746,0.018749613,0.030016493,2.6741383e-05,7.155686e-05,0.0,0.00774414,-0.0057020374,-0.0058178054,1.2461739,0.0,0.1,-0.018749613,2.1193964,0.3204305,1.2570577,0.18591546,inf,inf,inf,inf,0,1,0,1,1,0,1,1,0,0,0
11842263,0,0.0,0.0,0.0,0.0,0.13082884,1.0644407e-07,2.8483205e-07,0.0,0.002463758,-0.0023319789,0.017315205,0.023202775,2.6741383e-05,7.155686e-05,0.0,0.007717567,-0.015573424,-0.008325984,1.246308,0.0,0.1,-0.017315205,2.1484973,0.32020986,1.2448615,0.18361948,inf,inf,inf,inf,0,1,0,1,1,0,1,1,0,0,0
11944695,0,0.0,0.0,0.0,0.0,0.13273177,1.0644407e-07,2.8483205e-07,0.0,0.0034942199,-0.0023616946,0.018322442,0.023128571,2.6741383e-05,7.155686e-05,0.0,-0.0075097177,-0.014778976,-0.020572457,1.2466358,0.0,0.1,-0.018322442,2.1495295,0.3161142,1.2177179,0.1797402,inf,inf,inf,inf,0,1,0,1,1,0,1,1,0,0,0
12041464,0,0.0,0.0,0.0,0.0,0.13409953,1.0644407e-07,2.8483205e-07,0.0,0.0036249773,-0.0023867018,0.018575016,0.022134636,2.6741383e-05,7.155686e-05,0.0,-0.009419145,0.006367172,0.0006043651,1.2476274,0.0,0.1,-0.018575016,2.1623716,0.3148904,1.2002234,0.17728713,inf,inf,inf,inf,0,1,0,1,1,0,1,1,0,0,0
12145471,0,0.0,0.0,0.0,0.0,0.13460883,1.0644407e-07,2.8483205e-07,0.0,0.00367305,-0.002471496,0.018410053,0.019785736,2.6741383e-05,7.155686e-05,0.0,0.0066041066,-0.008187517,-0.007383059,1.2480693,0.0,0.1,-0.018410053,2.1805413,0.3147599,1.184779,0.17521994,inf,inf,inf,inf,0,1,0,1,1,0,1,1,0,0,0
12250277,0,0.0,0.0,0.0,0.0,0.13567317,1.0644407e-07,2.8483205e-07,0.0,0.003909577,-0.0033293376,0.018890673,0.01893809,2.6741383e-05,7.155686e-05,0.0,0.025353506,-0.01111148,0.003687873,1.2481012,0.0,0.1,-0.018890673,2.1704416,0.31088752,1.1556133,0.1716586,inf,inf,inf,inf,0,1,0,1,1,0,1,1,0,0,0
12353464,0,0.0,0.0,0.0,0.0,0.14160186,1.0644407e-07,2.8483205e-07,0.0,0.004395782,-0.003364475,0.020923253,0.024599958,2.6741383e-05,7.155686e-05,0.0,0.009922303,-0.025367271,0.012379394,1.2478123,0.0,0.1,-0.020923253,2.1832051,0.3108328,1.139532,0.16968514,inf,inf,inf,inf,0,1,0,1,1,0,1,1,0,0,0
12456688,0,0.0,0.0,0.0,0.0,0.15012048,1.0644407e-07,2.8483205e-07,0.0,0.004779905,-0.0036146473,0.025320482,0.034302674,2.6741383e-05,7.155686e-05,0.0,0.012650814,0.0030103165,0.031589143,1.2470813,0.0,0.1,-0.025320482,2.168859,0.3072319,1.1111699,0.16634329,inf,inf,inf,inf,0,1,0,1,1,0,1,1,0,0,0
12559899,0,0.0,0.0,0.0,0.0,0.15785259,1.0644407e-07,2.8483205e-07,0.0,0.0052346075,-0.0030637917,0.028202338,0.040522523,2.6741383e-05,7.155686e-05,0.0,0.008064697,0.005318731,0.015486468,1.2462121,0.0,0.1,-0.028202338,2.1757348,0.3070069,1.095287,0.1644996,inf,inf,inf,inf,0,1,0,1,1,0,1,1,0,0,0
12663869,0,0.0,0.0,0.0,0.0,0.16079831,1.0644407e-07,2.8483205e-07,0.0,0.0054602604,-0.0030798002,0.027834127,0.0381768,2.6741383e-05,7.155686e-05,0.0,-0.0055735186,0.004224569,0.032630697,1.2449044,0.0,0.1,-0.027834127,2.1824834,0.30698997,1.080293,0.16269965,inf,inf,inf,inf,0,1,0,1,1,0,1,1,0,0,0
12767864,0,0.0,0.0,0.0,0.0,0.15971501,1.0644407e-07,2.8483205e-07,0.0,0.0057908306,-0.003466637,0.026456393,0.031347137,2.6741383e-05,7.155686e-05,0.0,0.015810682,0.0009957363,0.034078892,1.2436448,0.0,0.1,-0.026456393,2.160981,0.30328238,1.0538696,0.1595773,inf,inf,inf,inf,0,1,0,1,1,0,1,1,0,0,0
12871068,0,0.0,0.0,0.0,0.0,0.1561783,1.0644407e-07,2.8483205e-07,0.0,0.005707717,-0.0034589677,0.024111602,0.022106871,2.6741383e-05,7.155686e-05,0.0,0.0028269743,0.01078428,0.023245871,1.242624,0.0,0.1,-0.024111602,2.1645813,0.30323502,1.0405818,0.15786119,inf,inf,inf,inf,0,1,0,1,1,0,1,1,0,0,0
12975083,0,0.0,0.0,0.0,0.0,0.15351869,1.0644407e-07,2.8483205e-07,0.0,0.0057024783,-0.0034983773,0.022706235,0.01579325,2.6741383e-05,7.155686e-05,0.0,0.0062360633,-2.4836801e-05,0.00718003,1.2418567,0.0,0.1,-0.022706235,2.1668978,0.30315718,1.0282123,0.1561722,inf,inf,inf,inf,0,1,0,1,1,0,1,1,0,0,0
13079064,0,0.0,0.0,0.0,0.0,0.14706591,1.0644407e-07,2.8483205e-07,0.0,0.005933004,-0.0034596915,0.019518692,0.0048549473,2.6741383e-05,7.155686e-05,0.0,0.01652053,-0.0075807497,0.030881424,1.2412219,0.0,0.1,-0.019518692,2.142433,0.29954478,1.0059327,0.15325266,inf,inf,inf,inf,0,1,0,1,1,0,1,1,0,0,0
13174279,0,0.0,0.0,0.0,0.0,0.1432796,1.0644407e-07,2.8483205e-07,0.0,0.005687727,-0.0031743324,0.017589102,-0.00090163574,2.6741383e-05,7.155686e-05,0.0,-0.004908758,-0.001070781,0.0026105004,1.24009,0.0,0.1,-0.017589102,2.1353412,0.298419,0.9937073,0.15139331,inf,inf,inf,inf,0,1,0,1,1,0,1,1,0,0,0
13278264,0,0.0,0.0,0.0,0.0,0.13819015,1.0644407e-07,2.8483205e-07,0.0,0.006264087,-0.0036826034,0.015333192,-0.007617907,2.6741383e-05,7.155686e-05,0.0,0.0022989477,-0.012329528,0.017247098,1.2390287,0.0,0.1,-0.015333192,2.135353,0.2983235,0.98540264,0.14982547,inf,inf,inf,inf,0,1,0,1,1,0,1,1,0,0,0
13382264,0,0.0,0.0,0.0,0.0,0.13004151,1.0644407e-07,2.8483205e-07,0.0,0.0063775345,-0.004221063,0.010786276,-0.018831166,2.6741383e-05,7.155686e-05,0.0,-0.007967207,-0.0002501717,0.0023738723,1.2384827,0.0,0.1,-0.010786276,2.11055,0.29490188,0.9687787,0.14714842,inf,inf,inf,inf,0,1,0,1,1,0,1,1,0,0,0
13481464,0,0.0,0.0,0.0,0.0,0.12070011,1.0644407e-07,2.8483205e-07,0.0,0.00609524,-0.0045644287,0.007039233,-0.029296687,2.6741383e-05,7.155686e-05,0.0,0.0021164129,-0.0039321403,-0.013158746,1.2395116,0.0,0.1,-0.007039233,2.1031215,0.29388797,0.96151096,0.14545731,inf,inf,inf,inf,0,1,0,1,1,0,1,1,0,0,0
13585464,0,0.0,0.0,0.0,0.0,0.111363545,1.0644407e-07,2.8483205e-07,0.0,0.0055499454,-0.0042400286,0.0039970963,-0.03766839,2.6741383e-05,7.155686e-05,0.0,-0.010745412,0.002879669,-0.0055302302,1.2413263,0.0,0.1,-0.0039970963,2.1027138,0.2938539,0.9584476,0.14404336,inf,inf,inf,inf,0,1,0,1,1,0,1,1,0,0,0
13681470,0,0.0,0.0,0.0,0.0,0.10314236,1.0644407e-07,2.8483205e-07,0.0,0.0057388144,-0.004854476,0.00082381896,-0.044383317,2.6741383e-05,7.155686e-05,0.0,0.011003926,-0.009908972,-0.0126865,1.2429084,0.0,0.1,-0.00082381896,2.098184,0.29326177,0.95560914,0.1424714,inf,inf,inf,inf,0,1,0,1,1,0,1,1,0,0,0
13786359,0,0.0,0.0,0.0,0.0,0.098452166,1.0644407e-07,2.8483205e-07,0.0,0.0060072253,-0.0050351447,-0.0009980603,-0.045211855,2.6741383e-05,7.155686e-05,0.0,0.00410395,-0.001921632,-0.015848178,1.2440854,0.0,0.1,0.0009980603,2.074928,0.29010564,0.9473387,0.14005105,inf,inf,inf,inf,0,1,0,1,1,0,1,1,0,0,0
13888705,0,0.0,0.0,0.0,0.0,0.095198914,1.0644407e-07,2.8483205e-07,0.0,0.0059065823,-0.005207374,-0.0018996116,-0.04388414,2.6741383e-05,7.155686e-05,0.0,9.3369e-05,-0.0075198626,0.010439068,1.2445642,0.0,0.1,0.0018996116,2.073873,0.2899627,0.9494213,0.13873403,inf,inf,inf,inf,0,1,0,1,1,0,1,1,0,0,0
13984691,0,0.0,0.0,0.0,0.0,0.09227655,1.0644407e-07,2.8483205e-07,0.0,0.0058206636,-0.005416594,-0.0022826483,-0.04246332,2.6741383e-05,7.155686e-05,0.0,-0.0018156009,-0.0003960914,0.02554056,1.2447193,0.0,0.1,0.0022826483,2.068055,0.2891396,0.95122224,0.13723893,inf,inf,inf,inf,0,1,0,1,1,0,1,1,0,0,0
14088669,0,0.0,0.0,0.0,0.0,0.08159443,1.0644407e-07,2.8483205e-07,0.0,0.006283171,-0.005346009,-0.0064451573,-0.052103095,2.6741383e-05,7.155686e-05,0.0,0.015875995,0.0027175476,-0.01304304,1.2445126,0.0,0.1,0.0064451573,2.0666666,0.2888787,0.9564403,0.13596739,inf,inf,inf,inf,0,1,0,1,1,0,1,1,0,0,0
14191898,0,0.0,0.0,0.0,0.0,0.07391114,1.0644407e-07,2.8483205e-07,0.0,0.0064313873,-0.0051776557,-0.008735345,-0.055852767,2.6741383e-05,7.155686e-05,0.0,0.021221025,-0.0027029803,0.03574491,1.2446827,0.0,0.1,0.008735345,2.0455217,0.28586397,0.9563684,0.13376339,inf,inf,inf,inf,0,1,0,1,1,0,1,1,0,0,0
14287884,0,0.0,0.0,0.0,0.0,0.065796696,1.0644407e-07,2.8483205e-07,0.0,0.006894768,-0.005247338,-0.012068631,-0.06118554,2.6741383e-05,7.155686e-05,0.0,0.014234896,-0.016385408,0.020186218,1.2448225,0.0,0.1,0.012068631,2.0394661,0.28486297,0.96259046,0.13238756,inf,inf,inf,inf,0,1,0,1,1,0,1,1,0,0,0
14391864,0,0.0,0.0,0.0,0.0,0.054089762,1.0644407e-07,2.8483205e-07,0.0,0.007060936,-0.006042875,-0.015730906,-0.06925636,2.6741383e-05,7.155686e-05,0.0,0.0025071152,-0.015159095,-0.008096436,1.244726,0.0,0.1,0.015730906,2.0412648,0.2848422,0.9738501,0.13124833,inf,inf,inf,inf,0,1,0,1,1,0,1,1,0,0,0
14495109,0,0.0,0.0,0.0,0.0,0.04942161,1.0644407e-07,2.8483205e-07,0.0,0.0075222836,-0.006393008,-0.016552974,-0.06682252,2.6741383e-05,7.155686e-05,0.0,0.017194347,-0.0077571357,-0.029056864,1.2444888,0.0,0.1,0.016552974,2.0225906,0.28195918,0.97937673,0.12920678,inf,inf,inf,inf,0,1,0,1,1,0,1,1,0,0,0
14599064,0,0.0,0.0,0.0,0.0,0.049946863,1.0644407e-07,2.8483205e-07,0.0,0.007795454,-0.006034941,-0.016226226,-0.058430295,2.6741383e-05,7.155686e-05,0.0,-0.002659001,0.014893655,-0.0014696901,1.2443383,0.0,0.1,0.016226226,2.0255737,0.28191984,0.9937596,0.12812072,inf,inf,inf,inf,0,1,0,1,1,0,1,1,0,0,0
14694264,0,0.0,0.0,0.0,0.0,0.05734661,1.0644407e-07,2.8483205e-07,0.0,0.0075720125,-0.0060753864,-0.01380449,-0.042924464,2.6741383e-05,7.155686e-05,0.0,0.0040098643,0.0014945163,-0.024369502,1.2438893,0.0,0.1,0.01380449,2.0215175,0.28088394,1.005571,0.12683566,inf,inf,inf,inf,0,1,0,1,1,0,1,1,0,0,0
14798279,0,0.0,0.0,0.0,0.0,0.06420364,1.0644407e-07,2.8483205e-07,0.0,0.0077144005,-0.0059061134,-0.010775031,-0.028908992,2.6741383e-05,7.155686e-05,0.0,0.0002858843,0.0024661142,-0.020779565,1.2433603,0.0,0.1,0.010775031,2.0254903,0.28077447,1.0223972,0.12576818,inf,inf,inf,inf,0,1,0,1,1,0,1,1,0,0,0
14902264,0,0.0,0.0,0.0,0.0,0.06931573,1.0644407e-07,2.8483205e-07,0.0,0.00797734,-0.0057090186,-0.009458084,-0.020052625,2.6741383e-05,7.155686e-05,0.0,0.0060374094,-0.009012554,-0.0009974381,1.243124,0.0,0.1,0.009458084,2.0295732,0.2805647,1.0400223,0.12471745,inf,inf,inf,inf,0,1,0,1,1,0,1,1,0,0,0
15001464,0,0.0,0.0,0.0,0.0,0.068541355,1.0644407e-07,2.8483205e-07,0.0,0.00765115,-0.0063712187,-0.010839596,-0.020617012,2.6741383e-05,7.155686e-05,0.0,0.007434001,0.004291345,-0.005860473,1.2429657,0.0,0.1,0.010839596,2.028442,0.27961117,1.055465,0.12351356,inf,inf,inf,inf,0,1,0,1,1,0,1,1,0,0,0
15105470,0,0.0,0.0,0.0,0.0,0.06490095,1.0644407e-07,2.8483205e-07,0.0,0.007774671,-0.0066665257,-0.012600052,-0.0240996,2.6741383e-05,7.155686e-05,0.0,-0.0061892094,-0.005751753,-0.008134777,1.2424054,0.0,0.1,0.012600052,2.0145912,0.2768264,1.06851,0.12170095,inf,inf,inf,inf,0,1,0,1,1,0,1,1,0,0,0
16019064,0,0.0,0.0,0.0,0.0,0.083887056,1.0644407e-07,2.8483205e-07,0.0,0.0077217827,-0.006072034,-0.003947357,0.012802313,2.6741383e-05,7.155686e-05,0.0,-0.0051675425,0.0014900351,0.018731834,1.2442445,0.0,0.1,0.003947357,2.041725,0.2670447,1.2378128,0.11155414,inf,inf,inf,inf,0,1,0,1,1,0,1,1,0,0,0
16123064,0,0.0,0.0,0.0,0.0,0.08739248,1.0644407e-07,2.8483205e-07,0.0,0.007881244,-0.0059371786,-0.0034329402,0.014687434,2.6741383e-05,7.155686e-05,0.0,0.0031470545,-0.0067096422,-0.003679497,1.2443352,0.0,0.1,0.0034329402,2.0618074,0.2673681,1.2620505,0.11088613,inf,inf,inf,inf,0,1,0,1,1,0,1,1,0,0,0
16226318,0,0.0,0.0,0.0,0.0,0.088806294,1.0644407e-07,2.8483205e-07,0.0,0.008064538,-0.005710599,-0.004056288,0.013384681,2.6741383e-05,7.155686e-05,0.0,0.00064808445,-0.007949693,-0.0027034194,1.2441425,0.0,0.1,0.004056288,2.0574844,0.26503688,1.2750491,0.10952761,inf,inf,inf,inf,0,1,0,1,1,0,1,1,0,0,0
16330267,0,0.0,0.0,0.0,0.0,0.0891343,1.0644407e-07,2.8483205e-07,0.0,0.0085653495,-0.005921264,-0.0041786763,0.01157615,2.6741383e-05,7.155686e-05,0.0,0.006986601,-0.009999682,0.016914286,1.2444768,0.0,0.1,0.0041786763,2.0746834,0.26499283,1.2954535,0.108851254,inf,inf,inf,inf,0,1,0,1,1,0,1,1,0,0,0
16426332,0,0.0,0.0,0.0,0.0,0.08889889,1.0644407e-07,2.8483205e-07,0.0,0.0087268,-0.00577031,-0.004453853,0.009543156,2.6741383e-05,7.155686e-05,0.0,0.01783937,-0.016513519,0.00918559,1.2453058,0.0,0.1,0.004453853,2.0848968,0.26430663,1.311269,0.108048625,inf,inf,inf,inf,0,1,0,1,1,0,1,1,0,0,0
16529470,0,0.0,0.0,0.0,0.0,0.08809734,1.0644407e-07,2.8483205e-07,0.0,0.008813181,-0.0048654214,-0.0050402503,0.0067841685,2.6741383e-05,7.155686e-05,0.0,0.0061062216,0.0154720675,0.016584836,1.2463975,0.0,0.1,0.0050402503,2.103839,0.26432884,1.3304973,0.107408024,inf,inf,inf,inf,0,1,0,1,1,0,1,1,0,0,0
16633475,0,0.0,0.0,0.0,0.0,0.08711982,1.0644407e-07,2.8483205e-07,0.0,0.009075988,-0.004759249,-0.005350731,0.004451486,2.6741383e-05,7.155686e-05,0.0,0.0026119738,0.0073129013,-0.042768992,1.2471942,0.0,0.1,0.005350731,2.0979836,0.26193127,1.3379601,0.106137425,inf,inf,inf,inf,0,1,0,1,1,0,1,1,0,0,0
16737470,0,0.0,0.0,0.0,0.0,0.083740555,1.0644407e-07,2.8483205e-07,0.0,0.00906979,-0.004698414,-0.006194899,-0.00044102402,2.6741383e-05,7.155686e-05,0.0,-0.0010807447,0.012469584,-0.034015324,1.2475332,0.0,0.1,0.006194899,2.1180296,0.26202533,1.3554753,0.10554072,inf,inf,inf,inf,0,1,0,1,1,0,1,1,0,0,0
16832664,0,0.0,0.0,0.0,0.0,0.079095505,1.0644407e-07,2.8483205e-07,0.0,0.00893403,-0.0043700747,-0.0077965287,-0.0066972696,2.6741383e-05,7.155686e-05,0.0,-0.012033377,-0.0011415228,0.007204214,1.2475767,0.0,0.1,0.0077965287,2.1284711,0.26135525,1.3670261,0.10480473,inf,inf,inf,inf,0,1,0,1,1,0,1,1,0,0,0
16936664,0,0.0,0.0,0.0,0.0,0.0716662,1.0644407e-07,2.8483205e-07,0.0,0.008676514,-0.0043593463,-0.010228935,-0.01567233,2.6741383e-05,7.155686e-05,0.0,0.0067812405,-0.015999531,-0.009886983,1.2481709,0.0,0.1,0.010228935,2.1478357,0.26137683,1.3818527,0.10422545,inf,inf,inf,inf,0,1,0,1,1,0,1,1,0,0,0
17040663,0,0.0,0.0,0.0,0.0,0.0716216,1.0644407e-07,2.8483205e-07,0.0,0.007993765,-0.003709134,-0.009667591,-0.013478345,2.6741383e-05,7.155686e-05,0.0,0.022501653,0.010115422,-0.016874697,1.2491443,0.0,0.1,0.009667591,2.14132,0.2591235,1.384103,0.1030611,inf,inf,inf,inf,0,1,0,1,1,0,1,1,0,0,0
17136698,0,0.0,0.0,0.0,0.0,0.07707436,1.0644407e-07,2.8483205e-07,0.0,0.008366184,-0.0032836697,-0.007611131,-0.004873177,2.6741383e-05,7.155686e-05,0.0,0.028461108,0.012368736,0.0047165854,1.2500176,0.0,0.1,0.007611131,2.150996,0.25848046,1.3920197,0.10237999,inf,inf,inf,inf,0,1,0,1,1,0,1,1,0,0,0
17239867,0,0.0,0.0,0.0,0.0,0.08187685,1.0644407e-07,2.8483205e-07,0.0,0.008652128,-0.0024794096,-0.0059565012,0.0017547815,2.6741383e-05,7.155686e-05,0.0,0.00383751,0.006441078,0.005834363,1.2508137,0.0,0.1,0.0059565012,2.1695669,0.25850797,1.4029982,0.10185193,inf,inf,inf,inf,0,1,0,1,1,0,1,1,0,0,0
17343864,0,0.0,0.0,0.0,0.0,0.08463459,1.0644407e-07,2.8483205e-07,0.0,0.007916363,-0.0018632249,-0.00522549,0.0047007552,2.6741383e-05,7.155686e-05,0.0,-0.011140084,0.0069587384,0.009700593,1.2514746,0.0,0.1,0.00522549,2.1878314,0.25852782,1.4128026,0.101341434,inf,inf,inf,inf,0,1,0,1,1,0,1,1,0,0,0
17446320,0,0.0,0.0,0.0,0.0,0.08624533,1.0644407e-07,2.8483205e-07,0.0,0.008009346,-0.0011843649,-0.0062424256,0.004467639,2.6741383e-05,7.155686e-05,0.0,0.011984554,0.0037275988,-0.03818374,1.25205,0.0,0.1,0.0062424256,2.1785674,0.25635055,1.4090443,0.10027799,inf,inf,inf,inf,0,1,0,1,1,0,1,1,0,0,0
17543109,0,0.0,0.0,0.0,0.0,0.08445447,1.0644407e-07,2.8483205e-07,0.0,0.007921876,-0.00054627296,-0.0065740063,0.0016955759,2.6741383e-05,7.155686e-05,0.0,0.005069489,-0.016383782,0.018215273,1.252439,0.0,0.1,0.0065740063,2.186359,0.25573194,1.4120929,0.099671334,inf,inf,inf,inf,0,1,0,1,1,0,1,1,0,0,0
17647108,0,0.0,0.0,0.0,0.0,0.08220453,1.0644407e-07,2.8483205e-07,0.0,0.0072194315,0.00044849215,-0.0065436945,-0.0008494833,2.6741383e-05,7.155686e-05,0.0,-0.006394078,-0.0056518507,-0.0010965314,1.2522608,0.0,0.1,0.0065436945,2.2023003,0.25570923,1.4178643,0.09921128,inf,inf,inf,inf,0,1,0,1,1,0,1,1,0,0,0
17750264,0,0.0,0.0,0.0,0.0,0.081250414,1.0644407e-07,2.8483205e-07,0.0,0.0065737083,0.0014535828,-0.0072033554,-0.0024831733,2.6741383e-05,7.155686e-05,0.0,-0.0021808045,-0.0059957854,-0.0070102597,1.2517722,0.0,0.1,0.0072033554,2.2185953,0.25574344,1.4227858,0.09877279,inf,inf,inf,inf,0,1,0,1,1,0,1,1,0,0,0
17854272,0,0.0,0.0,0.0,0.0,0.08132531,1.0644407e-07,2.8483205e-07,0.0,0.005999163,0.0023168481,-0.0072674197,-0.0023067158,2.6741383e-05,7.155686e-05,0.0,-0.0016516246,0.006171091,0.019580465,1.2509644,0.0,0.1,0.0072674197,2.2070296,0.2537131,1.414088,0.097823,inf,inf,inf,inf,0,1,0,1,1,0,1,1,0,0,0
17958264,0,0.0,0.0,0.0,0.0,0.0834056,1.0644407e-07,2.8483205e-07,0.0,0.0063528307,0.0037227725,-0.006850669,0.00021838822,2.6741383e-05,7.155686e-05,0.0,0.0012399481,0.013935347,-0.017575007,1.250433,0.0,0.1,0.006850669,2.2219195,0.2537348,1.4168751,0.097433195,inf,inf,inf,inf,0,1,0,1,1,0,1,1,0,0,0
18053480,0,0.0,0.0,0.0,0.0,0.08361181,1.0644407e-07,2.8483205e-07,0.0,0.0062272004,0.004799351,-0.0069528157,0.00013151574,2.6741383e-05,7.155686e-05,0.0,0.014304916,0.016437473,0.0019899774,1.2505113,0.0,0.1,0.0069528157,2.2276511,0.2531966,1.4151083,0.09693965,inf,inf,inf,inf,0,1,0,1,1,0,1,1,0,0,0
18157502,0,0.0,0.0,0.0,0.0,0.08334115,1.0644407e-07,2.8483205e-07,0.0,0.006210199,0.0060481364,-0.007669905,-0.0010176161,2.6741383e-05,7.155686e-05,0.0,0.020189447,0.027806755,0.0037711111,1.2508708,0.0,0.1,0.007669905,2.2151597,0.25129932,1.4040037,0.096098915,inf,inf,inf,inf,0,1,0,1,1,0,1,1,0,0,0
18261464,0,0.0,0.0,0.0,0.0,0.08303595,1.0644407e-07,2.8483205e-07,0.0,0.0062289257,0.0065942784,-0.008060119,-0.0017260116,2.6741383e-05,7.155686e-05,0.0,0.004448252,0.028672466,-0.015501292,1.2509085,0.0,0.1,0.008060119,2.2287524,0.2513701,1.4042516,0.09578043,inf,inf,inf,inf,0,1,0,1,1,0,1,1,0,0,0
18360664,0,0.0,0.0,0.0,0.0,0.082045965,1.0644407e-07,2.8483205e-07,0.0,0.006344324,0.007909989,-0.0079549225,-0.0025816257,2.6741383e-05,7.155686e-05,0.0,0.006256342,0.0076604504,0.00831851,1.2505,0.0,0.1,0.0079549225,2.2057307,0.2489353,1.38765,0.09487444,inf,inf,inf,inf,0,1,0,1,1,0,1,1,0,0,0
18464670,0,0.0,0.0,0.0,0.0,0.0779099,1.0644407e-07,2.8483205e-07,0.0,0.0057954574,0.0082249595,-0.009831604,-0.008305397,2.6741383e-05,7.155686e-05,0.0,-0.0067724367,0.0283239,-0.0061453884,1.2502664,0.0,0.1,0.009831604,2.2195067,0.24911061,1.3869879,0.0946153,inf,inf,inf,inf,0,1,0,1,1,0,1,1,0,0,0
18560673,0,0.0,0.0,0.0,0.0,0.07388697,1.0644407e-07,2.8483205e-07,0.0,0.0061449725,0.009212786,-0.010948538,-0.012508414,2.6741383e-05,7.155686e-05,0.0,0.014298345,-0.0034214796,-0.009547522,1.2503607,0.0,0.1,0.010948538,2.226644,0.24891,1.3832169,0.09428481,inf,inf,inf,inf,0,1,0,1,1,0,1,1,0,0,0
18663864,0,0.0,0.0,0.0,0.0,0.07403584,1.0644407e-07,2.8483205e-07,0.0,0.005866035,0.009785417,-0.010433439,-0.010599523,2.6741383e-05,7.155686e-05,0.0,0.0024094786,0.021074096,-0.0055682585,1.2506351,0.0,0.1,0.010433439,2.2385962,0.24906482,1.3806266,0.094051994,inf,inf,inf,inf,0,1,0,1,1,0,1,1,0,0,0
18767883,0,0.0,0.0,0.0,0.0,0.07164928,1.0644407e-07,2.8483205e-07,0.0,0.0053013656,0.010869533,-0.0105549265,-0.01203023,2.6741383e-05,7.155686e-05,0.0,0.004107989,0.009568122,0.019042915,1.2510248,0.0,0.1,0.0105549265,2.2219138,0.24730718,1.3645557,0.093370855,inf,inf,inf,inf,0,1,0,1,1,0,1,1,0,0,0
18871864,0,0.0,0.0,0.0,0.0,0.06654363,1.0644407e-07,2.8483205e-07,0.0,0.0051512676,0.012022957,-0.012353514,-0.017547203,2.6741383e-05,7.155686e-05,0.0,-0.009299323,-0.007945691,-0.013364541,1.2510021,0.0,0.1,0.012353514,2.2314951,0.2474135,1.3601227,0.093168475,inf,inf,inf,inf,0,1,0,1,1,0,1,1,0,0,0
18971067,0,0.0,0.0,0.0,0.0,0.06409874,1.0644407e-07,2.8483205e-07,0.0,0.0047194315,0.013106491,-0.013516553,-0.019303504,2.6741383e-05,7.155686e-05,0.0,-0.010824143,-0.00081320613,-0.026497941,1.2507534,0.0,0.1,0.013516553,2.2319992,0.24698564,1.3519653,0.09286291,inf,inf,inf,inf,0,1,0,1,1,0,1,1,0,0,0
19075100,0,0.0,0.0,0.0,0.0,0.06401997,1.0644407e-07,2.8483205e-07,0.0,0.0039259735,0.01361953,-0.013123519,-0.016915232,2.6741383e-05,7.155686e-05,0.0,0.0073240437,0.024074225,0.021670341,1.2503903,0.0,0.1,0.013123519,2.240334,0.24709915,1.346449,0.09269215,inf,inf,inf,inf,0,1,0,1,1,0,1,1,0,0,0
19171113,0,0.0,0.0,0.0,0.0,0.060420353,1.0644407e-07,2.8483205e-07,0.0,0.0033434494,0.014783875,-0.01388795,-0.019559154,2.6741383e-05,7.155686e-05,0.0,-0.01830736,0.0123602105,0.025049567,1.2499865,0.0,0.1,0.01388795,2.2168353,0.24512216,1.3270471,0.09203672,inf,inf,inf,inf,0,1,0,1,1,0,1,1,0,0,0
19274285,0,0.0,0.0,0.0,0.0,0.0552789,1.0644407e-07,2.8483205e-07,0.0,0.0006411316,0.015489638,-0.015533501,-0.024098352,2.6741383e-05,7.155686e-05,0.0,-0.091731876,-0.017508864,-0.048512854,1.2497611,0.0,0.1,0.015533501,2.2253,0.24532172,1.3211923,0.091917835,inf,inf,inf,inf,0,1,0,1,1,0,1,1,0,0,0
19378263,0,0.0,0.0,0.0,0.0,0.052062783,1.0644407e-07,2.8483205e-07,0.0,0.0014110105,0.015842885,-0.01597905,-0.025073338,2.6741383e-05,7.155686e-05,0.0,-0.030993782,0.0073255715,0.087380245,1.2499349,0.0,0.1,0.01597905,2.2332346,0.2455281,1.3149066,0.0918145,inf,inf,inf,inf,0,1,0,1,1,0,1,1,0,0,0
19474272,0,0.0,0.0,0.0,0.0,0.048947904,1.0644407e-07,2.8483205e-07,0.0,-0.0019959456,0.01924767,-0.01684966,-0.026522228,2.6741383e-05,7.155686e-05,0.0,0.04625691,0.057823632,-0.016878607,1.2498162,0.0,0.1,0.01684966,2.2306786,0.24510056,1.3046894,0.09159183,inf,inf,inf,inf,0,1,0,1,1,0,1,1,0,0,0
19582322,0,0.0,0.0,0.0,0.0,0.0457925,1.0644407e-07,2.8483205e-07,0.0,0.003257497,0.014101586,-0.018667229,-0.02840653,2.6741383e-05,7.155686e-05,0.0,0.010506447,0.024274064,-0.10735306,1.2505473,0.0,0.1,0.018667229,2.2189023,0.2440624,1.2887421,0.0912172,inf,inf,inf,inf,0,1,0,1,1,0,1,1,0,0,0
19678264,0,0.0,0.0,0.0,0.0,0.04614821,1.0644407e-07,2.8483205e-07,0.0,-0.003431183,0.01705221,-0.016918045,-0.023514807,2.6741383e-05,7.155686e-05,0.0,0.06569063,-0.04693212,0.076292016,1.2507185,0.0,0.1,0.016918045,2.2154536,0.2436532,1.2781001,0.091027625,inf,inf,inf,inf,0,1,0,1,1,0,1,1,0,0,0
19781464,0,0.0,0.0,0.0,0.0,0.045832597,1.0644407e-07,2.8483205e-07,0.0,-0.001876978,0.013466682,-0.020263499,-0.024555983,2.6741383e-05,7.155686e-05,0.0,0.0028451046,-0.048905604,-0.06900543,1.2510422,0.0,0.1,0.020263499,2.2175124,0.24364461,1.269103,0.09094739,inf,inf,inf,inf,0,1,0,1,1,0,1,1,0,0,0
19884675,0,0.0,0.0,0.0,0.0,0.04384155,1.0644407e-07,2.8483205e-07,0.0,-0.001232674,0.016735649,-0.021420918,-0.025244702,2.6741383e-05,7.155686e-05,0.0,-0.040047463,0.07134053,-0.060429696,1.2519844,0.0,0.1,0.021420918,2.1959991,0.2420909,1.2498237,0.09050517,inf,inf,inf,inf,0,1,0,1,1,0,1,1,0,0,0
19988669,0,0.0,0.0,0.0,0.0,0.04044486,1.0644407e-07,2.8483205e-07,0.0,-0.0030669868,0.017721098,-0.02182259,-0.026454117,2.6741383e-05,7.155686e-05,0.0,0.069754064,0.13033885,-0.08263756,1.252172,0.0,0.1,0.02182259,2.2006674,0.242303,1.2419559,0.09049369,inf,inf,inf,inf,0,1,0,1,1,0,1,1,0,0,0
20084664,0,0.0,0.0,0.0,0.0,0.03807604,1.0644407e-07,2.8483205e-07,0.0,-0.0012056071,0.026389496,-0.021726836,-0.0260599,2.6741383e-05,7.155686e-05,0.0,0.0065573067,-0.004474068,0.029621344,1.2522625,0.0,0.1,0.021726836,2.1964002,0.24195653,1.2310846,0.090369694,inf,inf,inf,inf,0,1,0,1,1,0,1,1,0,0,0
20191864,0,0.0,0.0,0.0,0.0,0.035510536,1.0644407e-07,2.8483205e-07,0.0,-0.0037123868,0.021169111,-0.022300007,-0.026283044,2.6741383e-05,7.155686e-05,0.0,-0.04700747,-0.036820833,0.0320174,1.2526091,0.0,0.1,0.022300007,2.1757948,0.24051754,1.2126747,0.09000168,inf,inf,inf,inf,0,1,0,1,1,0,1,1,0,0,0
20295865,0,0.0,0.0,0.0,0.0,0.031228986,1.0644407e-07,2.8483205e-07,0.0,-0.0074931206,0.022871306,-0.020737108,-0.026318144,2.6741383e-05,7.155686e-05,0.0,-0.064274915,-0.03656712,-0.031536203,1.2528942,0.0,0.1,0.020737108,2.180974,0.24084409,1.2050906,0.09005068,inf,inf,inf,inf,0,1,0,1,1,0,1,1,0,0,0
20391875,0,0.0,0.0,0.0,0.0,0.028557057,1.0644407e-07,2.8483205e-07,0.0,-0.008644525,0.023717675,-0.022502976,-0.028014231,2.6741383e-05,7.155686e-05,0.0,-0.010300413,-0.0701004,0.033112936,1.2524538,0.0,0.1,0.022502976,2.1810257,0.24084838,1.1960044,0.0900286,inf,inf,inf,inf,0,1,0,1,1,0,1,1,0,0,0
20495064,0,0.0,0.0,0.0,0.0,0.026822915,1.0644407e-07,2.8483205e-07,0.0,-0.0078906715,0.021823749,-0.020959996,-0.025405642,2.6741383e-05,7.155686e-05,0.0,0.0027736938,-0.07665764,0.034444496,1.2529972,0.0,0.1,0.020959996,2.1601548,0.23946676,1.1777143,0.08970997,inf,inf,inf,inf,0,1,0,1,1,0,1,1,0,0,0
20599065,0,0.0,0.0,0.0,0.0,0.023729688,1.0644407e-07,2.8483205e-07,0.0,-0.008477894,0.017729705,-0.022733677,-0.02766646,2.6741383e-05,7.155686e-05,0.0,0.09355677,0.047864374,-0.051904198,1.2543025,0.0,0.1,0.022733677,2.1645832,0.23982891,1.16997,0.08979854,inf,inf,inf,inf,0,1,0,1,1,0,1,1,0,0,0
20703065,0,0.0,0.0,0.0,0.0,0.022508686,1.0644407e-07,2.8483205e-07,0.0,-0.0072101657,0.020720692,-0.020982992,-0.024257768,2.6741383e-05,7.155686e-05,0.0,-0.0032104964,0.006189686,-0.0020832196,1.2559807,0.0,0.1,0.020982992,2.1675034,0.24012902,1.1616398,0.08988406,inf,inf,inf,inf,0,1,0,1,1,0,1,1,0,0,0
20802264,0,0.0,0.0,0.0,0.0,0.022786822,1.0644407e-07,2.8483205e-07,0.0,-0.009294585,0.021133699,-0.023605948,-0.0240742,2.6741383e-05,7.155686e-05,0.0,0.034656197,-0.002280639,-0.005384686,1.2562671,0.0,0.1,0.023605948,2.1624987,0.23991658,1.1509781,0.08985185,inf,inf,inf,inf,0,1,0,1,1,0,1,1,0,0,0
20906353,0,0.0,0.0,0.0,0.0,0.024265112,1.0644407e-07,2.8483205e-07,0.0,-0.010109442,0.019387651,-0.021680333,-0.018431816,2.6741383e-05,7.155686e-05,0.0,-0.06710069,0.0034452686,-0.013553256,1.257125,0.0,0.1,0.021680333,2.1434863,0.23877862,1.1337575,0.089616075,inf,inf,inf,inf,0,1,0,1,1,0,1,1,0,0,0
21010293,0,0.0,0.0,0.0,0.0,0.026003635,1.0644407e-07,2.8483205e-07,0.0,-0.012728359,0.023112204,-0.02040001,-0.013700961,2.6741383e-05,7.155686e-05,0.0,-0.0053352895,0.02211497,0.03606266,1.2576365,0.0,0.1,0.02040001,2.1465766,0.23916343,1.1258194,0.08974015,inf,inf,inf,inf,0,1,0,1,1,0,1,1,0,0,0
21105464,0,0.0,0.0,0.0,0.0,0.028008135,1.0644407e-07,2.8483205e-07,0.0,-0.011923783,0.023562746,-0.02094192,-0.011136479,2.6741383e-05,7.155686e-05,0.0,0.0034950057,-0.007257853,-0.023034425,1.2572651,0.0,0.1,0.02094192,2.141509,0.23899421,1.1153923,0.08974169,inf,inf,inf,inf,0,1,0,1,1,0,1,1,0,0,0
21209464,0,0.0,0.0,0.0,0.0,0.030273791,1.0644407e-07,2.8483205e-07,0.0,-0.011754677,0.023253093,-0.019056689,-0.0062067173,2.6741383e-05,7.155686e-05,0.0,0.019613607,0.0071440125,0.027833441,1.2562788,0.0,0.1,0.019056689,2.12036,0.23772073,1.0981048,0.089504346,inf,inf,inf,inf,0,1,0,1,1,0,1,1,0,0,0
21313470,0,0.0,0.0,0.0,0.0,0.031144042,1.0644407e-07,2.8483205e-07,0.0,-0.010014314,0.022010278,-0.017432204,-0.0035349326,2.6741383e-05,7.155686e-05,0.0,0.029287517,-0.018034177,0.0048747016,1.2554564,0.0,0.1,0.017432204,2.1226938,0.23810636,1.0903007,0.089652434,inf,inf,inf,inf,0,1,0,1,1,0,1,1,0,0,0
21416669,0,0.0,0.0,0.0,0.0,0.030427063,1.0644407e-07,2.8483205e-07,0.0,-0.010935402,0.022237098,-0.018313227,-0.004948667,2.6741383e-05,7.155686e-05,0.0,-0.026411628,0.009102223,0.00012829661,1.2555369,0.0,0.1,0.018313227,2.1255298,0.23855671,1.0827138,0.08981493,inf,inf,inf,inf,0,1,0,1,1,0,1,1,0,0,0
21512664,0,0.0,0.0,0.0,0.0,0.031118527,1.0644407e-07,2.8483205e-07,0.0,-0.011744243,0.025621053,-0.017865488,-0.003567354,2.6741383e-05,7.155686e-05,0.0,-0.031278312,0.045047037,0.02090999,1.2555293,0.0,0.1,0.017865488,2.1206322,0.23846205,1.0728873,0.08985339,inf,inf,inf,inf,0,1,0,1,1,0,1,1,0,0,0
21616705,0,0.0,0.0,0.0,0.0,0.03399683,1.0644407e-07,2.8483205e-07,0.0,-0.012656387,0.023595627,-0.018021096,-0.0007848663,2.6741383e-05,7.155686e-05,0.0,-0.027922487,-0.01813505,-0.014434259,1.2557173,0.0,0.1,0.018021096,2.0988069,0.23718897,1.0560838,0.08964009,inf,inf,inf,inf,0,1,0,1,1,0,1,1,0,0,0
21715862,0,0.0,0.0,0.0,0.0,0.037768286,1.0644407e-07,2.8483205e-07,0.0,-0.012847783,0.024635267,-0.017345984,0.0034674115,2.6741383e-05,7.155686e-05,0.0,-0.0023277753,-0.015210146,0.010864327,1.2559288,0.0,0.1,0.017345984,2.0937731,0.23710984,1.0464561,0.089686766,inf,inf,inf,inf,0,1,0,1,1,0,1,1,0,0,0
21819864,0,0.0,0.0,0.0,0.0,0.04009214,1.0644407e-07,2.8483205e-07,0.0,-0.013351864,0.024334863,-0.017750062,0.0046077245,2.6741383e-05,7.155686e-05,0.0,-0.015201687,-0.004079711,0.0033377968,1.2561408,0.0,0.1,0.017750062,2.0981965,0.23776463,1.0399066,0.089905165,inf,inf,inf,inf,0,1,0,1,1,0,1,1,0,0,0
21923865,0,0.0,0.0,0.0,0.0,0.03960816,1.0644407e-07,2.8483205e-07,0.0,-0.011497009,0.02302261,-0.017731238,0.0032452056,2.6741383e-05,7.155686e-05,0.0,0.0025033625,0.03880329,0.011039739,1.2564265,0.0,0.1,0.017731238,2.0783632,0.23665221,1.0243155,0.08973144,inf,inf,inf,inf,0,1,0,1,1,0,1,1,0,0,0
22026346,0,0.0,0.0,0.0,0.0,0.03979179,1.0644407e-07,2.8483205e-07,0.0,-0.01154251,0.02416623,-0.018961256,0.0015580374,2.6741383e-05,7.155686e-05,0.0,0.010441643,0.018020853,-0.05052903,1.2567103,0.0,0.1,0.018961256,2.080504,0.2371648,1.0172358,0.08992778,inf,inf,inf,inf,0,1,0,1,1,0,1,1,0,0,0
22123064,0,0.0,0.0,0.0,0.0,0.04075807,1.0644407e-07,2.8483205e-07,0.0,-0.011177703,0.025661802,-0.018946202,0.002162473,2.6741383e-05,7.155686e-05,0.0,-0.007775128,0.00012772804,0.016894123,1.2572552,0.0,0.1,0.018946202,2.0753813,0.23712975,1.0081105,0.0899935,inf,inf,inf,inf,0,1,0,1,1,0,1,1,0,0,0
22227066,0,0.0,0.0,0.0,0.0,0.042585656,1.0644407e-07,2.8483205e-07,0.0,-0.011455545,0.025536668,-0.01859608,0.0037050508,2.6741383e-05,7.155686e-05,0.0,-0.0065570166,0.014145992,-0.03978802,1.2582151,0.0,0.1,0.01859608,2.0765514,0.23760583,1.0009377,0.09018755,inf,inf,inf,inf,0,1,0,1,1,0,1,1,0,0,0
22326324,0,0.0,0.0,0.0,0.0,0.04292498,1.0644407e-07,2.8483205e-07,0.0,-0.011988753,0.025981756,-0.018391607,0.0036553813,2.6741383e-05,7.155686e-05,0.0,-0.030462233,-0.013010037,-0.027813612,1.2589846,0.0,0.1,0.018391607,2.0712724,0.23758605,0.99194664,0.090258926,inf,inf,inf,inf,0,1,0,1,1,0,1,1,0,0,0
22430264,0,0.0,0.0,0.0,0.0,0.04337285,1.0644407e-07,2.8483205e-07,0.0,-0.010339837,0.027068654,-0.019018438,0.002833511,2.6741383e-05,7.155686e-05,0.0,0.020544041,0.01579739,0.0029867154,1.25935,0.0,0.1,0.019018438,2.051583,0.2365145,0.97727907,0.09009645,inf,inf,inf,inf,0,1,0,1,1,0,1,1,0,0,0
22526318,0,0.0,0.0,0.0,0.0,0.044520535,1.0644407e-07,2.8483205e-07,0.0,-0.009396033,0.023854235,-0.018155001,0.004213432,2.6741383e-05,7.155686e-05,0.0,0.026989214,-0.002370272,-0.00982391,1.2602415,0.0,0.1,0.018155001,2.0481176,0.23666014,0.96910167,0.09019766,inf,inf,inf,inf,0,1,0,1,1,0,1,1,0,0,0
22629463,0,0.0,0.0,0.0,0.0,0.0453147,1.0644407e-07,2.8483205e-07,0.0,-0.006390896,0.024056029,-0.016700227,0.005725189,2.6741383e-05,7.155686e-05,0.0,-0.0650467,-0.05433927,0.03663814,1.2627248,0.0,0.1,0.016700227,2.0494652,0.23721085,0.96234745,0.090403125,inf,inf,inf,inf,0,1,0,1,1,0,1,1,0,0,0
22733464,0,0.0,0.0,0.0,0.0,0.045385737,1.0644407e-07,2.8483205e-07,0.0,-0.0112390155,0.022671478,-0.013861925,0.007602611,2.6741383e-05,7.155686e-05,0.0,-0.041711908,0.056270458,0.018099766,1.2649127,0.0,0.1,0.013861925,2.0290174,0.23606236,0.9480011,0.09023373,inf,inf,inf,inf,0,1,0,1,1,0,1,1,0,0,0
22837463,0,0.0,0.0,0.0,0.0,0.04685501,1.0644407e-07,2.8483205e-07,0.0,-0.013709039,0.027415317,-0.014776979,0.0070858477,2.6741383e-05,7.155686e-05,0.0,-0.0022075595,0.07136154,-0.050769433,1.2654165,0.0,0.1,0.014776979,2.0305946,0.23664609,0.9415461,0.090454094,inf,inf,inf,inf,0,1,0,1,1,0,1,1,0,0,0
22932698,0,0.0,0.0,0.0,0.0,0.047560263,1.0644407e-07,2.8483205e-07,0.0,-0.01341189,0.027627502,-0.01480476,0.00684643,2.6741383e-05,7.155686e-05,0.0,-0.019158125,0.0014601147,-0.017090157,1.2656211,0.0,0.1,0.01480476,2.0255172,0.23668125,0.93339646,0.09053989,inf,inf,inf,inf,0,1,0,1,1,0,1,1,0,0,0
23036664,0,0.0,0.0,0.0,0.0,0.046737555,1.0644407e-07,2.8483205e-07,0.0,-0.013467155,0.023510637,-0.013697858,0.006179063,2.6741383e-05,7.155686e-05,0.0,0.032647878,0.0069005666,0.014004905,1.2659111,0.0,0.1,0.013697858,2.026581,0.23724268,0.9271694,0.09075355,inf,inf,inf,inf,0,1,0,1,1,0,1,1,0,0,0
23140687,0,0.0,0.0,0.0,0.0,0.04643857,1.0644407e-07,2.8483205e-07,0.0,-0.013893618,0.023568127,-0.014115856,0.0046683834,2.6741383e-05,7.155686e-05,0.0,-0.0044367253,-0.018318562,0.0010997081,1.2667581,0.0,0.1,0.014115856,2.0073144,0.23618448,0.91381794,0.09059606,inf,inf,inf,inf,0,1,0,1,1,0,1,1,0,0,0
23243877,0,0.0,0.0,0.0,0.0,0.042881254,1.0644407e-07,2.8483205e-07,0.0,-0.010764445,0.02179566,-0.015261368,-0.0005683332,2.6741383e-05,7.155686e-05,0.0,-0.03467312,-0.0042982614,0.0040218504,1.2684046,0.0,0.1,0.015261368,2.0085075,0.23678772,0.90771294,0.09081367,inf,inf,inf,inf,0,1,0,1,1,0,1,1,0,0,0
23339870,0,0.0,0.0,0.0,0.0,0.039522503,1.0644407e-07,2.8483205e-07,0.0,-0.013134434,0.021291548,-0.015013903,-0.0036994894,2.6741383e-05,7.155686e-05,0.0,0.0055290987,0.008544019,-0.018691972,1.2699548,0.0,0.1,0.015013903,2.0026872,0.23678245,0.8998396,0.0908878,inf,inf,inf,inf,0,1,0,1,1,0,1,1,0,0,0
23443870,0,0.0,0.0,0.0,0.0,0.035417166,1.0644407e-07,2.8483205e-07,0.0,-0.01327544,0.022332128,-0.016235301,-0.008485039,2.6741383e-05,7.155686e-05,0.0,-0.023167,0.03154406,0.028588343,1.2715242,0.0,0.1,0.016235301,2.0037806,0.23740013,0.8939203,0.09110443,inf,inf,inf,inf,0,1,0,1,1,0,1,1,0,0,0
23547107,0,0.0,0.0,0.0,0.0,0.03315234,1.0644407e-07,2.8483205e-07,0.0,-0.015903737,0.023626091,-0.018627778,-0.012109976,2.6741383e-05,7.155686e-05,0.0,-0.026813077,0.0155309485,-0.04444326,1.2721595,0.0,0.1,0.018627778,1.9849117,0.23635386,0.88133174,0.09093818,inf,inf,inf,inf,0,1,0,1,1,0,1,1,0,0,0
23643068,0,0.0,0.0,0.0,0.0,0.032504987,1.0644407e-07,2.8483205e-07,0.0,-0.017067498,0.026645154,-0.018435271,-0.0113345245,2.6741383e-05,7.155686e-05,0.0,-0.021572333,0.048017964,-0.011211391,1.2715648,0.0,0.1,0.018435271,1.979182,0.2363593,0.8738221,0.091007404,inf,inf,inf,inf,0,1,0,1,1,0,1,1,0,0,0
23747064,0,0.0,0.0,0.0,0.0,0.03034077,1.0644407e-07,2.8483205e-07,0.0,-0.015434079,0.023860315,-0.01692319,-0.010831639,2.6741383e-05,7.155686e-05,0.0,0.024636565,-0.033108108,0.034851283,1.2705271,0.0,0.1,0.01692319,1.9805022,0.23700938,0.8683958,0.09122634,inf,inf,inf,inf,0,1,0,1,1,0,1,1,0,0,0
23850308,0,0.0,0.0,0.0,0.0,0.025242133,1.0644407e-07,2.8483205e-07,0.0,-0.01475758,0.02276282,-0.020051815,-0.01771332,2.6741383e-05,7.155686e-05,0.0,-0.0039851326,0.032284707,-0.040619276,1.270801,0.0,0.1,0.020051815,1.9626455,0.23600966,0.8566194,0.09106618,inf,inf,inf,inf,0,1,0,1,1,0,1,1,0,0,0
23954264,0,0.0,0.0,0.0,0.0,0.020657826,1.0644407e-07,2.8483205e-07,0.0,-0.015803346,0.0245259,-0.021042002,-0.021212934,2.6741383e-05,7.155686e-05,0.0,-0.018160054,0.0111694075,-0.022266679,1.2701155,0.0,0.1,0.021042002,1.963379,0.23661532,0.85116506,0.0912786,inf,inf,inf,inf,0,1,0,1,1,0,1,1,0,0,0
24050264,0,0.0,0.0,0.0,0.0,0.018315883,1.0644407e-07,2.8483205e-07,0.0,-0.017590843,0.02471535,-0.023862615,-0.02403998,2.6741383e-05,7.155686e-05,0.0,-0.0063923416,0.039037324,0.0046833362,1.2687033,0.0,0.1,0.023862615,1.9586867,0.23671417,0.844479,0.09135773,inf,inf,inf,inf,0,1,0,1,1,0,1,1,0,0,0
24153464,0,0.0,0.0,0.0,0.0,0.01360507,1.0644407e-07,2.8483205e-07,0.0,-0.017211681,0.023085324,-0.022555947,-0.024905844,2.6741383e-05,7.155686e-05,0.0,0.0019421963,-0.019109726,0.0101481015,1.2670426,0.0,0.1,0.022555947,1.9598745,0.23738097,0.8393523,0.09157139,inf,inf,inf,inf,0,1,0,1,1,0,1,1,0,0,0
24257464,0,0.0,0.0,0.0,0.0,0.008446509,1.0644407e-07,2.8483205e-07,0.0,-0.013688229,0.022327099,-0.022772763,-0.02746365,2.6741383e-05,7.155686e-05,0.0,0.003913261,0.04517437,-0.014502617,1.2669945,0.0,0.1,0.022772763,1.9418715,0.2363281,0.82810825,0.09139498,inf,inf,inf,inf,0,1,0,1,1,0,1,1,0,0,0
24353495,0,0.0,0.0,0.0,0.0,0.005931605,1.0644407e-07,2.8483205e-07,0.0,-0.012681662,0.02450768,-0.024351012,-0.028598014,2.6741383e-05,7.155686e-05,0.0,-0.005810892,0.020462774,-0.0076529975,1.2677661,0.0,0.1,0.024351012,1.9376911,0.2364643,0.82184935,0.09148515,inf,inf,inf,inf,0,1,0,1,1,0,1,1,0,0,0
24456670,0,0.0,0.0,0.0,0.0,0.008016805,1.0644407e-07,2.8483205e-07,0.0,-0.012965222,0.023964455,-0.022594536,-0.021780144,2.6741383e-05,7.155686e-05,0.0,-0.021646881,-0.02112898,-0.017923852,1.2682024,0.0,0.1,0.022594536,1.9390892,0.23715623,0.8170955,0.0916979,inf,inf,inf,inf,0,1,0,1,1,0,1,1,0,0,0
24560664,0,0.0,0.0,0.0,0.0,0.010330825,1.0644407e-07,2.8483205e-07,0.0,-0.013234795,0.02240449,-0.020892864,-0.015644107,2.6741383e-05,7.155686e-05,0.0,0.020119397,0.00965871,-0.0020103848,1.2680681,0.0,0.1,0.020892864,1.9226117,0.23620325,0.80672425,0.0915321,inf,inf,inf,inf,0,1,0,1,1,0,1,1,0,0,0
24664685,0,0.0,0.0,0.0,0.0,0.011284332,1.0644407e-07,2.8483205e-07,0.0,-0.012000892,0.022135265,-0.020523202,-0.012786619,2.6741383e-05,7.155686e-05,0.0,0.011427854,0.03083362,-0.000579722,1.2681226,0.0,0.1,0.020523202,1.923376,0.23683934,0.80195016,0.09173644,inf,inf,inf,inf,0,1,0,1,1,0,1,1,0,0,0
24759880,0,0.0,0.0,0.0,0.0,0.010750717,1.0644407e-07,2.8483205e-07,0.0,-0.012248935,0.021985292,-0.019309098,-0.011063535,2.6741383e-05,7.155686e-05,0.0,0.008690152,-0.034802936,0.01362634,1.2684047,0.0,0.1,0.019309098,1.9192555,0.23698092,0.7960859,0.09181471,inf,inf,inf,inf,0,1,0,1,1,0,1,1,0,0,0
24863864,0,0.0,0.0,0.0,0.0,0.010586246,1.0644407e-07,2.8483205e-07,0.0,-0.013443802,0.021283733,-0.019542312,-0.010368669,2.6741383e-05,7.155686e-05,0.0,-0.018555444,-0.007988163,0.008772995,1.2685819,0.0,0.1,0.019542312,1.9033498,0.2360428,0.7862525,0.09164497,inf,inf,inf,inf,0,1,0,1,1,0,1,1,0,0,0
24967864,0,0.0,0.0,0.0,0.0,0.010877859,1.0644407e-07,2.8483205e-07,0.0,-0.013355066,0.021523625,-0.01952498,-0.009124585,2.6741383e-05,7.155686e-05,0.0,0.012929365,0.0047293217,-0.0032000875,1.268431,0.0,0.1,0.01952498,1.9043247,0.23670082,0.7818346,0.09184613,inf,inf,inf,inf,0,1,0,1,1,0,1,1,0,0,0
25071120,0,0.0,0.0,0.0,0.0,0.011153015,1.0644407e-07,2.8483205e-07,0.0,-0.011453269,0.022794498,-0.019431949,-0.007946584,2.6741383e-05,7.155686e-05,0.0,-0.0077725435,0.025718426,-0.033929262,1.2687538,0.0,0.1,0.019431949,1.9057634,0.23741591,0.7775865,0.09205223,inf,inf,inf,inf,0,1,0,1,1,0,1,1,0,0,0
25167064,0,0.0,0.0,0.0,0.0,0.015040403,1.0644407e-07,2.8483205e-07,0.0,-0.011278496,0.022129495,-0.017641142,-0.0017742107,2.6741383e-05,7.155686e-05,0.0,0.012887532,0.031933505,-0.03494608,1.2692058,0.0,0.1,0.017641142,1.9017469,0.2375622,0.7720824,0.09211837,inf,inf,inf,inf,0,1,0,1,1,0,1,1,0,0,0
25271113,0,0.0,0.0,0.0,0.0,0.018927976,1.0644407e-07,2.8483205e-07,0.0,-0.010654295,0.023010205,-0.017085189,0.0024901435,2.6741383e-05,7.155686e-05,0.0,0.0017576076,0.04500672,0.01853499,1.2696638,0.0,0.1,0.017085189,1.8855251,0.23654489,0.76258993,0.09191634,inf,inf,inf,inf,0,1,0,1,1,0,1,1,0,0,0
25374263,0,0.0,0.0,0.0,0.0,0.021544486,1.0644407e-07,2.8483205e-07,0.0,-0.010626402,0.023093354,-0.015876241,0.0056867553,2.6741383e-05,7.155686e-05,0.0,-0.001704488,-0.0042098705,-0.02502198,1.2699556,0.0,0.1,0.015876241,1.8868432,0.23725206,0.75854254,0.09210882,inf,inf,inf,inf,0,1,0,1,1,0,1,1,0,0,0
25470270,0,0.0,0.0,0.0,0.0,0.023346951,1.0644407e-07,2.8483205e-07,0.0,-0.011062089,0.022209113,-0.015041807,0.0074857995,2.6741383e-05,7.155686e-05,0.0,-0.010813526,-0.009893033,0.0107528595,1.2701554,0.0,0.1,0.015041807,1.8822712,0.23732556,0.75312585,0.092151895,inf,inf,inf,inf,0,1,0,1,1,0,1,1,0,0,0
25574270,0,0.0,0.0,0.0,0.0,0.02634515,1.0644407e-07,2.8483205e-07,0.0,-0.0110511705,0.02188396,-0.01400521,0.010412044,2.6741383e-05,7.155686e-05,0.0,-0.001238429,0.023980923,-0.011701199,1.2700971,0.0,0.1,0.01400521,1.8671987,0.2363787,0.7442935,0.09195902,inf,inf,inf,inf,0,1,0,1,1,0,1,1,0,0,0
25677476,0,0.0,0.0,0.0,0.0,0.032094773,1.0644407e-07,2.8483205e-07,0.0,-0.010692761,0.022302695,-0.011298229,0.01722123,2.6741383e-05,7.155686e-05,0.0,0.001047513,0.025160339,-0.010296516,1.2698681,0.0,0.1,0.011298229,1.8686874,0.23709816,0.74052244,0.0921516,inf,inf,inf,inf,0,1,0,1,1,0,1,1,0,0,0
25781489,0,0.0,0.0,0.0,0.0,0.03594803,1.0644407e-07,2.8483205e-07,0.0,-0.010858343,0.021806758,-0.011078823,0.01905816,2.6741383e-05,7.155686e-05,0.0,0.0001562708,0.02019048,-0.019827463,1.2695292,0.0,0.1,0.011078823,1.853689,0.23611818,0.73194623,0.09195044,inf,inf,inf,inf,0,1,0,1,1,0,1,1,0,0,0
25885469,0,0.0,0.0,0.0,0.0,0.039608125,1.0644407e-07,2.8483205e-07,0.0,-0.010233838,0.021409962,-0.010425435,0.020990368,2.6741383e-05,7.155686e-05,0.0,0.008330346,-0.009537866,0.0038532778,1.2693679,0.0,0.1,0.010425435,1.855431,0.2368595,0.7284407,0.09214483,inf,inf,inf,inf,0,1,0,1,1,0,1,1,0,0,0
25984704,0,0.0,0.0,0.0,0.0,0.042331126,1.0644407e-07,2.8483205e-07,0.0,-0.010853429,0.021982353,-0.008207623,0.02352209,2.6741383e-05,7.155686e-05,0.0,-0.018741539,-0.030297983,0.054030184,1.269464,0.0,0.1,0.008207623,1.8521417,0.23703541,0.7238194,0.092203744,inf,inf,inf,inf,0,1,0,1,1,0,1,1,0,0,0
26088663,0,0.0,0.0,0.0,0.0,0.043876417,1.0644407e-07,2.8483205e-07,0.0,-0.009757007,0.020311395,-0.006790621,0.02358707,2.6741383e-05,7.155686e-05,0.0,-0.013785044,0.009263964,-0.007635296,1.2696606,0.0,0.1,0.006790621,1.8402501,0.2363568,0.7163656,0.0920535,inf,inf,inf,inf,0,1,0,1,1,0,1,1,0,0,0
26184684,0,0.0,0.0,0.0,0.0,0.042899136,1.0644407e-07,2.8483205e-07,0.0,-0.009517612,0.020718472,-0.0071002315,0.019667637,2.6741383e-05,7.155686e-05,0.0,0.013658031,0.014575523,0.010430895,1.2700737,0.0,0.1,0.0071002315,1.8372868,0.23655006,0.7119398,0.09211788,inf,inf,inf,inf,0,1,0,1,1,0,1,1,0,0,0
26287864,0,0.0,0.0,0.0,0.0,0.040565163,1.0644407e-07,2.8483205e-07,0.0,-0.009953354,0.020215346,-0.008126665,0.014162451,2.6741383e-05,7.155686e-05,0.0,0.023626463,-0.021409648,-0.010686989,1.2704277,0.0,0.1,0.008126665,1.8392228,0.23730996,0.7087422,0.092312515,inf,inf,inf,inf,0,1,0,1,1,0,1,1,0,0,0
26391864,0,0.0,0.0,0.0,0.0,0.04011167,1.0644407e-07,2.8483205e-07,0.0,-0.009170291,0.019693267,-0.007443762,0.0126907695,2.6741383e-05,7.155686e-05,0.0,0.006246599,-0.0020418148,-0.010551304,1.2710538,0.0,0.1,0.007443762,1.8403437,0.23798595,0.7053556,0.09248419,inf,inf,inf,inf,0,1,0,1,1,0,1,1,0,0,0
26495084,0,0.0,0.0,0.0,0.0,0.040325787,1.0644407e-07,2.8483205e-07,0.0,-0.009196913,0.020344775,-0.007813099,0.011149679,2.6741383e-05,7.155686e-05,0.0,-0.0015601446,0.04414726,0.010587675,1.2718341,0.0,0.1,0.007813099,1.8263924,0.23702696,0.69763845,0.09226827,inf,inf,inf,inf,0,1,0,1,1,0,1,1,0,0,0
26599082,0,0.0,0.0,0.0,0.0,0.04022674,1.0644407e-07,2.8483205e-07,0.0,-0.009707525,0.019359209,-0.007177302,0.010341066,2.6741383e-05,7.155686e-05,0.0,-0.004032725,-0.016277704,-0.0014001171,1.2721739,0.0,0.1,0.007177302,1.8278313,0.2377384,0.6944282,0.092439264,inf,inf,inf,inf,0,1,0,1,1,0,1,1,0,0,0
26695103,0,0.0,0.0,0.0,0.0,0.0390355,1.0644407e-07,2.8483205e-07,0.0,-0.009462762,0.01948288,-0.0074578896,0.007889967,2.6741383e-05,7.155686e-05,0.0,-0.0073370296,0.011513762,0.0010449891,1.2722523,0.0,0.1,0.0074578896,1.8235028,0.23776329,0.68994665,0.09245633,inf,inf,inf,inf,0,1,0,1,1,0,1,1,0,0,0
26799064,0,0.0,0.0,0.0,0.0,0.040212482,1.0644407e-07,2.8483205e-07,0.0,-0.008748091,0.01931803,-0.0065025347,0.009145613,2.6741383e-05,7.155686e-05,0.0,0.0040123565,0.021085566,0.027609924,1.2722898,0.0,0.1,0.0065025347,1.8252968,0.23852046,0.6869241,0.09263315,inf,inf,inf,inf,0,1,0,1,1,0,1,1,0,0,0
26902264,0,0.0,0.0,0.0,0.0,0.03846399,1.0644407e-07,2.8483205e-07,0.0,-0.00870614,0.018859426,-0.0073408107,0.005664096,2.6741383e-05,7.155686e-05,0.0,-0.008873291,0.013480665,0.015232955,1.2725654,0.0,0.1,0.0073408107,1.8115404,0.23752744,0.67957956,0.09240066,inf,inf,inf,inf,0,1,0,1,1,0,1,1,0,0,0
27006324,0,0.0,0.0,0.0,0.0,0.036726397,1.0644407e-07,2.8483205e-07,0.0,-0.009320239,0.019133097,-0.008718481,0.0020526676,2.6741383e-05,7.155686e-05,0.0,-0.0015809828,0.022815403,-0.011527278,1.2727765,0.0,0.1,0.008718481,1.8123465,0.23815875,0.6764251,0.092554584,inf,inf,inf,inf,0,1,0,1,1,0,1,1,0,0,0
27110270,0,0.0,0.0,0.0,0.0,0.03506701,1.0644407e-07,2.8483205e-07,0.0,-0.008207613,0.01957151,-0.008394058,0.00058987556,2.6741383e-05,7.155686e-05,0.0,-0.0031845532,0.003984675,0.014818629,1.2729812,0.0,0.1,0.008394058,1.7991552,0.23719287,0.66944563,0.0923332,inf,inf,inf,inf,0,1,0,1,1,0,1,1,0,0,0
27205463,0,0.0,0.0,0.0,0.0,0.03497122,1.0644407e-07,2.8483205e-07,0.0,-0.008424056,0.017230492,-0.008276026,0.00059970253,2.6741383e-05,7.155686e-05,0.0,0.008961439,0.0074341064,-0.0027718002,1.2731324,0.0,0.1,0.008276026,1.7961683,0.23734038,0.66563314,0.092369206,inf,inf,inf,inf,0,1,0,1,1,0,1,1,0,0,0
27309480,0,0.0,0.0,0.0,0.0,0.035918478,1.0644407e-07,2.8483205e-07,0.0,-0.007854087,0.018715614,-0.0087873945,0.0010813243,2.6741383e-05,7.155686e-05,0.0,-0.003315737,-0.014776329,-0.0041596605,1.273315,0.0,0.1,0.0087873945,1.7978231,0.23806196,0.66289765,0.092544235,inf,inf,inf,inf,0,1,0,1,1,0,1,1,0,0,0
27407887,0,0.0,0.0,0.0,0.0,0.036664736,1.0644407e-07,2.8483205e-07,0.0,-0.0075053754,0.017857227,-0.009021123,0.0015233177,2.6741383e-05,7.155686e-05,0.0,-0.0012766911,0.012973166,-0.0065547954,1.2733777,0.0,0.1,0.009021123,1.7944882,0.23815893,0.6591187,0.092577875,inf,inf,inf,inf,0,1,0,1,1,0,1,1,0,0,0
27719915,0,0.0,0.0,0.0,0.0,0.040773794,1.0644407e-07,2.8483205e-07,0.0,-0.008729799,0.017410658,-0.006714471,0.0067996,2.6741383e-05,7.155686e-05,0.0,-0.0052698613,-0.031054933,0.007371678,1.2728162,0.0,0.1,0.006714471,1.7866038,0.23882039,0.6477924,0.09272654,inf,inf,inf,inf,0,1,0,1,1,0,1,1,0,0,0
27815864,0,0.0,0.0,0.0,0.0,0.04241045,1.0644407e-07,2.8483205e-07,0.0,-0.0085944785,0.01661068,-0.00724321,0.007205121,2.6741383e-05,7.155686e-05,0.0,-0.009738463,-0.03509397,0.005811389,1.2724657,0.0,0.1,0.00724321,1.7696214,0.23725775,0.6404708,0.09236422,inf,inf,inf,inf,0,1,0,1,1,0,1,1,0,0,0
27919900,0,0.0,0.0,0.0,0.0,0.04196942,1.0644407e-07,2.8483205e-07,0.0,-0.008744835,0.016231919,-0.0071353195,0.0059467303,2.6741383e-05,7.155686e-05,0.0,-0.014449817,-0.0012134202,-0.017848605,1.2722794,0.0,0.1,0.0071353195,1.7708361,0.23790877,0.6379358,0.0925275,inf,inf,inf,inf,0,1,0,1,1,0,1,1,0,0,0
28024664,0,0.0,0.0,0.0,0.0,0.04118867,1.0644407e-07,2.8483205e-07,0.0,-0.008249047,0.015983326,-0.0070338394,0.00464667,2.6741383e-05,7.155686e-05,0.0,-0.002810777,-0.01640608,0.022947839,1.2724056,0.0,0.1,0.0070338394,1.7724416,0.23861372,0.63554317,0.092697814,inf,inf,inf,inf,0,1,0,1,1,0,1,1,0,0,0
28127064,0,0.0,0.0,0.0,0.0,0.04282751,1.0644407e-07,2.8483205e-07,0.0,-0.008253406,0.014822391,-0.0075282855,0.0052170907,2.6741383e-05,7.155686e-05,0.0,-0.011221283,0.01508357,0.016442953,1.2726384,0.0,0.1,0.0075282855,1.7601962,0.23761946,0.62948674,0.09246917,inf,inf,inf,inf,0,1,0,1,1,0,1,1,0,0,0
28231115,0,0.0,0.0,0.0,0.0,0.043484014,1.0644407e-07,2.8483205e-07,0.0,-0.008503419,0.013934853,-0.0059171026,0.006801765,2.6741383e-05,7.155686e-05,0.0,-0.014628095,-0.022440292,0.009145355,1.272552,0.0,0.1,0.0059171026,1.7612906,0.23825182,0.62704045,0.0926277,inf,inf,inf,inf,0,1,0,1,1,0,1,1,0,0,0
28326318,0,0.0,0.0,0.0,0.0,0.042115454,1.0644407e-07,2.8483205e-07,0.0,-0.0089365775,0.014102821,-0.008089335,0.0026845867,2.6741383e-05,7.155686e-05,0.0,0.004471071,0.034372374,-0.0036507943,1.2724037,0.0,0.1,0.008089335,1.7581964,0.23833038,0.62372684,0.092646584,inf,inf,inf,inf,0,1,0,1,1,0,1,1,0,0,0
28430263,0,0.0,0.0,0.0,0.0,0.040512465,1.0644407e-07,2.8483205e-07,0.0,-0.009640271,0.01204569,-0.006079874,0.002787356,2.6741383e-05,7.155686e-05,0.0,-0.0045860424,-0.032398,-0.01980443,1.272009,0.0,0.1,0.006079874,1.7594281,0.23898447,0.621368,0.09280091,inf,inf,inf,inf,0,1,0,1,1,0,1,1,0,0,0
28534270,0,0.0,0.0,0.0,0.0,0.03904167,1.0644407e-07,2.8483205e-07,0.0,-0.008259673,0.012219838,-0.008443705,-0.0011457797,2.6741383e-05,7.155686e-05,0.0,0.011704438,-0.01131576,0.021395354,1.2718933,0.0,0.1,0.008443705,1.7602664,0.2395865,0.6189798,0.09294794,inf,inf,inf,inf,0,1,0,1,1,0,1,1,0,0,0
28633465,0,0.0,0.0,0.0,0.0,0.03408392,1.0644407e-07,2.8483205e-07,0.0,-0.009231318,0.011505278,-0.009174779,-0.0065332633,2.6741383e-05,7.155686e-05,0.0,-0.0079646455,0.010254031,0.0079708155,1.2718054,0.0,0.1,0.009174779,1.7438711,0.23796733,0.6122937,0.09257558,inf,inf,inf,inf,0,1,0,1,1,0,1,1,0,0,0
28737464,0,0.0,0.0,0.0,0.0,0.02795283,1.0644407e-07,2.8483205e-07,0.0,-0.008597536,0.011261343,-0.011830242,-0.014297821,2.6741383e-05,7.155686e-05,0.0,0.012442893,0.008398828,-0.03836668,1.271781,0.0,0.1,0.011830242,1.7453308,0.23864135,0.61016804,0.09273997,inf,inf,inf,inf,0,1,0,1,1,0,1,1,0,0,0
28833464,0,0.0,0.0,0.0,0.0,0.022456415,1.0644407e-07,2.8483205e-07,0.0,-0.008775787,0.011037728,-0.0132895,-0.019442512,2.6741383e-05,7.155686e-05,0.0,-0.034088198,-0.019213492,0.008192781,1.2718557,0.0,0.1,0.0132895,1.7442997,0.23897275,0.60758114,0.09281261,inf,inf,inf,inf,0,1,0,1,1,0,1,1,0,0,0
28936694,0,0.0,0.0,0.0,0.0,0.01861503,1.0644407e-07,2.8483205e-07,0.0,-0.008775178,0.010497843,-0.016731257,-0.024239544,2.6741383e-05,7.155686e-05,0.0,0.010158102,0.012404234,-0.047605515,1.2717261,0.0,0.1,0.016731257,1.7326593,0.23795098,0.6021616,0.09258452,inf,inf,inf,inf,0,1,0,1,1,0,1,1,0,0,0
29040675,0,0.0,0.0,0.0,0.0,0.015914483,1.0644407e-07,2.8483205e-07,0.0,-0.010269411,0.00989945,-0.016600255,-0.023940774,2.6741383e-05,7.155686e-05,0.0,-0.012393551,0.004474243,0.027890677,1.2716856,0.0,0.1,0.016600255,1.7343353,0.23864534,0.60022104,0.092762955,inf,inf,inf,inf,0,1,0,1,1,0,1,1,0,0,0
29144696,0,0.0,0.0,0.0,0.0,0.01811999,1.0644407e-07,2.8483205e-07,0.0,-0.010104334,0.0096861245,-0.015342714,-0.017862862,2.6741383e-05,7.155686e-05,0.0,-0.0016847637,-0.006940242,-0.015141538,1.2715285,0.0,0.1,0.015342714,1.7227181,0.2375967,0.59495234,0.092537455,inf,inf,inf,inf,0,1,0,1,1,0,1,1,0,0,0
29248667,0,0.0,0.0,0.0,0.0,0.021731528,1.0644407e-07,2.8483205e-07,0.0,-0.009438147,0.008379541,-0.014945503,-0.011946036,2.6741383e-05,7.155686e-05,0.0,-0.003895987,0.033143874,-0.018672297,1.2712277,0.0,0.1,0.014945503,1.724619,0.23831753,0.5931751,0.0927284,inf,inf,inf,inf,0,1,0,1,1,0,1,1,0,0,0
29343870,0,0.0,0.0,0.0,0.0,0.026501447,1.0644407e-07,2.8483205e-07,0.0,-0.010315554,0.0072042723,-0.012675872,-0.003992589,2.6741383e-05,7.155686e-05,0.0,-0.0030788535,0.011408201,0.028307984,1.2711394,0.0,0.1,0.012675872,1.7224348,0.23846383,0.59055805,0.09278163,inf,inf,inf,inf,0,1,0,1,1,0,1,1,0,0,0
29447910,0,0.0,0.0,0.0,0.0,0.028888803,1.0644407e-07,2.8483205e-07,0.0,-0.00989548,0.0057636066,-0.011901027,-0.00064826437,2.6741383e-05,7.155686e-05,0.0,0.02255835,0.0106987795,-0.015059226,1.2709168,0.0,0.1,0.011901027,1.7111855,0.2374291,0.5855243,0.09256463,inf,inf,inf,inf,0,1,0,1,1,0,1,1,0,0,0
29551087,0,0.0,0.0,0.0,0.0,0.031983748,1.0644407e-07,2.8483205e-07,0.0,-0.0100337975,0.005395156,-0.010615743,0.0035265833,2.6741383e-05,7.155686e-05,0.0,0.019878803,-0.018549869,-0.02215501,1.2706765,0.0,0.1,0.010615743,1.7129817,0.23813336,0.583812,0.09275005,inf,inf,inf,inf,0,1,0,1,1,0,1,1,0,0,0
30767887,0,0.0,0.0,0.0,0.0,0.039000962,1.0644407e-07,2.8483205e-07,0.0,-0.0070228283,-0.0038230163,-0.0092232255,0.002397417,2.6741383e-05,7.155686e-05,0.0,-0.016273918,0.018743595,0.026758298,1.2679132,0.0,0.1,0.0092232255,1.6813929,0.23902218,0.5533218,0.093207516,inf,inf,inf,inf,0,1,0,1,1,0,1,1,0,0,0
30871875,0,0.0,0.0,0.0,0.0,0.03655517,1.0644407e-07,2.8483205e-07,0.0,-0.007045345,-0.0057189493,-0.009392878,-0.00047445868,2.6741383e-05,7.155686e-05,0.0,-0.008444074,0.019710137,-0.018687364,1.2678132,0.0,0.1,0.009392878,1.6830066,0.23969205,0.55196524,0.09338605,inf,inf,inf,inf,0,1,0,1,1,0,1,1,0,0,0
30967864,0,0.0,0.0,0.0,0.0,0.03340892,1.0644407e-07,2.8483205e-07,0.0,-0.0070462516,-0.006592982,-0.009385796,-0.0035447092,2.6741383e-05,7.155686e-05,0.0,-0.004733956,-0.026208771,-0.017567601,1.2679329,0.0,0.1,0.009385796,1.6804587,0.23972319,0.54977393,0.09341828,inf,inf,inf,inf,0,1,0,1,1,0,1,1,0,0,0
31070330,0,0.0,0.0,0.0,0.0,0.030755816,1.0644407e-07,2.8483205e-07,0.0,-0.0075480035,-0.00640074,-0.010503559,-0.0067563867,2.6741383e-05,7.155686e-05,0.0,-0.0043818997,0.0053147036,0.0021418093,1.2679225,0.0,0.1,0.010503559,1.6702783,0.23867336,0.5456535,0.0931925,inf,inf,inf,inf,0,1,0,1,1,0,1,1,0,0,0
31175064,0,0.0,0.0,0.0,0.0,0.029443854,1.0644407e-07,2.8483205e-07,0.0,-0.007033108,-0.0075540375,-0.010824257,-0.0075402255,2.6741383e-05,7.155686e-05,0.0,0.005253508,-0.0021148887,-0.02391247,1.2676904,0.0,0.1,0.010824257,1.671867,0.2393337,0.5443872,0.09336932,inf,inf,inf,inf,0,1,0,1,1,0,1,1,0,0,0
31279070,0,0.0,0.0,0.0,0.0,0.027937882,1.0644407e-07,2.8483205e-07,0.0,-0.0072425157,-0.006988865,-0.010657108,-0.007978177,2.6741383e-05,7.155686e-05,0.0,-0.0093827015,-0.012436411,-0.016299283,1.2674599,0.0,0.1,0.010657108,1.6730908,0.23993914,0.54306334,0.09353933,inf,inf,inf,inf,0,1,0,1,1,0,1,1,0,0,0
