timestamp,ref_timestamp,ref_lat,ref_lon,x,y,z,delta_xy[0],delta_xy[1],delta_z,vx,vy,vz,z_deriv,delta_vxy[0],delta_vxy[1],delta_vz,ax,ay,az,yaw,ref_alt,dist_bottom,dist_bottom_rate,eph,epv,evh,evv,vxy_max,vz_max,hagl_min,hagl_max,xy_valid,z_valid,v_xy_valid,v_z_valid,xy_reset_counter,z_reset_counter,vxy_reset_counter,vz_reset_counter,xy_global,z_global,dist_bottom_valid
273391065,36228709,49.089340799999995,2.11074,37.498714,-24.003874,1.5567528,0.042987414,0.0071393196,0.0,-0.013557944,0.019432588,-0.02001964,-0.018326791,0.044909026,-0.043034274,0.24053308,0.0537781,0.08777114,0.13737625,0.7603405,87.44591,0.1,0.02001964,0.3313981,0.23292722,0.15750806,0.09409127,inf,inf,inf,inf,1,1,1,1,2,0,2,2,1,1,0
273495136,36228709,49.089340799999995,2.11074,37.497223,-24.006319,1.5581971,0.042987414,0.0071393196,0.0,-0.010986085,0.0152893,-0.018550837,-0.013469829,0.044909026,-0.043034274,0.24053308,0.14945935,-0.17287007,0.30533072,0.76033705,87.44591,0.1,0.018550837,0.34374377,0.23243277,0.1621552,0.09423581,inf,inf,inf,inf,1,1,1,1,2,0,2,2,1,1,0
273590271,36228709,49.089340799999995,2.11074,37.49754,-24.009462,1.5605595,0.042987414,0.0071393196,0.0,-0.011427858,0.016484478,-0.019520408,-0.010741232,0.044909026,-0.043034274,0.24053308,-0.0010059053,0.17143086,-0.044675875,0.7603031,87.44591,0.1,0.019520408,0.33157223,0.2319354,0.15749836,0.09386636,inf,inf,inf,inf,1,1,1,1,2,0,2,2,1,1,0
273694265,36228709,49.089340799999995,2.11074,37.498245,-24.01207,1.5641868,0.042987414,0.0071393196,0.0,-0.008871713,0.013338228,-0.018625481,-0.0053983564,0.044909026,-0.043034274,0.24053308,0.15700306,-0.13582303,0.15036009,0.76018345,87.44591,0.1,0.018625481,0.3440059,0.2330649,0.16218984,0.09438458,inf,inf,inf,inf,1,1,1,1,2,0,2,2,1,1,0
273798319,36228709,49.089340799999995,2.11074,37.4997,-24.014523,1.5662825,0.042987414,0.0071393196,0.0,-0.009082749,0.0142119,-0.016236039,-0.0007899085,0.044909026,-0.043034274,0.24053308,-0.10973089,0.014262548,-0.069980435,0.75997424,87.44591,0.1,0.016236039,0.3326965,0.23307915,0.15785368,0.0941585,inf,inf,inf,inf,1,1,1,1,2,0,2,2,1,1,0
273901476,36228709,49.089340799999995,2.11074,37.50115,-24.016031,1.5677071,0.042987414,0.0071393196,0.0,-0.0059284656,0.013269908,-0.014619758,0.0020044383,0.044909026,-0.043034274,0.24053308,-0.026623912,0.17688988,0.049052965,0.7599861,87.44591,0.1,0.014619758,0.34517342,0.23262712,0.16255996,0.09430358,inf,inf,inf,inf,1,1,1,1,2,0,2,2,1,1,0
274005474,36228709,49.089340799999995,2.11074,37.50043,-24.019392,1.5691873,0.042987414,0.0071393196,0.0,-0.0056125117,0.012046669,-0.01477821,0.0029149468,0.044909026,-0.043034274,0.24053308,0.18316637,-0.2236146,-0.015409851,0.75978243,87.44591,0.1,0.01477821,0.3340383,0.23271652,0.15833375,0.09409509,inf,inf,inf,inf,1,1,1,1,2,0,2,2,1,1,0
274101471,36228709,49.089340799999995,2.11074,37.4998,-24.021431,1.5724167,0.042987414,0.0071393196,0.0,-0.0062566856,0.011879729,-0.010879348,0.009309389,0.044909026,-0.043034274,0.24053308,-0.043892115,0.25160998,0.073572665,0.7597801,87.44591,0.1,0.010879348,0.3454827,0.23323806,0.16262817,0.09445997,inf,inf,inf,inf,1,1,1,1,2,0,2,2,1,1,0
274204671,36228709,49.089340799999995,2.11074,37.499714,-24.022875,1.5770727,0.042987414,0.0071393196,0.0,-0.0066210018,0.01188276,-0.00940265,0.014120902,0.044909026,-0.043034274,0.24053308,0.14775987,-0.23319322,0.0804934,0.75939655,87.44591,0.1,0.00940265,0.3342295,0.23175915,0.15833263,0.093881935,inf,inf,inf,inf,1,1,1,1,2,0,2,2,1,1,0
274308665,36228709,49.089340799999995,2.11074,37.499702,-24.023453,1.5815691,0.042987414,0.0071393196,0.0,-0.0063388404,0.013335605,-0.008341687,0.017729264,0.044909026,-0.043034274,0.24053308,-0.08093093,0.17835094,-0.09698628,0.7593771,87.44591,0.1,0.008341687,0.34676027,0.23293443,0.16303132,0.09441542,inf,inf,inf,inf,1,1,1,1,2,0,2,2,1,1,0
274412705,36228709,49.089340799999995,2.11074,37.501392,-24.024187,1.5854558,0.042987414,0.0071393196,0.0,-0.003853858,0.01140217,-0.006033361,0.021571483,0.044909026,-0.043034274,0.24053308,0.013383867,0.09850453,0.102634326,0.7591845,87.44591,0.1,0.006033361,0.33526334,0.23143141,0.15863578,0.09383978,inf,inf,inf,inf,1,1,1,1,2,0,2,2,1,1,0
274511906,36228709,49.089340799999995,2.11074,37.502884,-24.024176,1.5885242,0.042987414,0.0071393196,0.0,-0.005339941,0.014427795,-0.004977937,0.02333481,0.044909026,-0.043034274,0.24053308,-0.012154869,-0.021960218,-0.23957697,0.75919646,87.44591,0.1,0.004977937,0.34683675,0.2320195,0.1629759,0.09421244,inf,inf,inf,inf,1,1,1,1,2,0,2,2,1,1,0
274615865,36228709,49.089340799999995,2.11074,37.5031,-24.026728,1.5928552,0.042987414,0.0071393196,0.0,-0.0034050248,0.012772768,-0.0044322633,0.025413305,0.044909026,-0.043034274,0.24053308,-0.21811187,0.25542358,-0.07217133,0.7592135,87.44591,0.1,0.0044322633,0.3355744,0.23213196,0.15870245,0.094010614,inf,inf,inf,inf,1,1,1,1,2,0,2,2,1,1,0
274719865,36228709,49.089340799999995,2.11074,37.503124,-24.028282,1.5968517,0.042987414,0.0071393196,0.0,-0.0018467683,0.011024841,-0.0031402335,0.02756774,0.044909026,-0.043034274,0.24053308,0.21481664,-0.15871158,0.030390024,0.75906426,87.44591,0.1,0.0031402335,0.34854043,0.23351128,0.16357054,0.094569094,inf,inf,inf,inf,1,1,1,1,2,0,2,2,1,1,0
274815068,36228709,49.089340799999995,2.11074,37.503338,-24.0306,1.5983257,0.042987414,0.0071393196,0.0,-0.0038698316,0.010432864,-0.002162848,0.026942732,0.044909026,-0.043034274,0.24053308,-0.15745704,0.21597987,0.043534376,0.759172,87.44591,0.1,0.002162848,0.33617508,0.2330212,0.15889116,0.09420156,inf,inf,inf,inf,1,1,1,1,2,0,2,2,1,1,0
274919065,36228709,49.089340799999995,2.11074,37.503403,-24.031979,1.6004343,0.042987414,0.0071393196,0.0,-0.0024922625,0.00835129,-0.0010047555,0.027068961,0.044909026,-0.043034274,0.24053308,0.19242045,-0.1798785,-0.065152965,0.75902605,87.44591,0.1,0.0010047555,0.34876737,0.2325832,0.16359587,0.094345905,inf,inf,inf,inf,1,1,1,1,2,0,2,2,1,1,0
275023072,36228709,49.089340799999995,2.11074,37.505863,-24.035734,1.6014884,0.042987414,0.0071393196,0.0,-0.0021600705,0.007807791,-0.0007226954,0.025310434,0.044909026,-0.043034274,0.24053308,-0.05250054,0.034418732,-0.25003085,0.75923693,87.44591,0.1,0.0007226954,0.33726144,0.2326075,0.15924205,0.094125494,inf,inf,inf,inf,1,1,1,1,2,0,2,2,1,1,0
275122273,36228709,49.089340799999995,2.11074,37.507565,-24.037962,1.5995553,0.042987414,0.0071393196,0.0,0.0003682794,0.005287973,-0.0015136692,0.020050235,0.044909026,-0.043034274,0.24053308,0.0637577,-0.07980626,0.07311802,0.7590276,87.44591,0.1,0.0015136692,0.34889778,0.23317045,0.16358456,0.09448563,inf,inf,inf,inf,1,1,1,1,2,0,2,2,1,1,0
275226264,36228709,49.089340799999995,2.11074,37.50676,-24.041376,1.5970806,0.042987414,0.0071393196,0.0,-0.0014420071,0.005330976,-0.002020956,0.014814708,0.044909026,-0.043034274,0.24053308,-0.02956361,-0.10005523,-0.22720931,0.75928223,87.44591,0.1,0.002020956,0.33751783,0.23324656,0.15928423,0.094268985,inf,inf,inf,inf,1,1,1,1,2,0,2,2,1,1,0
275322265,36228709,49.089340799999995,2.11074,37.506157,-24.043465,1.5929539,0.042987414,0.0071393196,0.0,-0.000773126,0.002405697,-0.0018492214,0.009373176,0.044909026,-0.043034274,0.24053308,0.048759323,-0.10998181,-0.06441618,0.759168,87.44591,0.1,0.0018492214,0.34955063,0.23245576,0.1637931,0.09429697,inf,inf,inf,inf,1,1,1,1,2,0,2,2,1,1,0
275425471,36228709,49.089340799999995,2.11074,37.50444,-24.047222,1.5853556,0.042987414,0.0071393196,0.0,-0.002402747,0.0031473357,-0.0028156221,8.4164494e-05,0.044909026,-0.043034274,0.24053308,-0.0552103,-0.019827234,-0.33563647,0.75941676,87.44591,0.1,0.0028156221,0.33811775,0.23254545,0.15946686,0.094086766,inf,inf,inf,inf,1,1,1,1,2,0,2,2,1,1,0
275529465,36228709,49.089340799999995,2.11074,37.50322,-24.05021,1.5806792,0.042987414,0.0071393196,0.0,-0.0021511987,0.0014967705,-0.0024898606,-0.0039105522,0.044909026,-0.043034274,0.24053308,-0.06917914,0.22073473,-0.073354736,0.75945026,87.44591,0.1,0.0024898606,0.3272513,0.23261687,0.15525039,0.09386039,inf,inf,inf,inf,1,1,1,1,2,0,2,2,1,1,0
275633483,36228709,49.089340799999995,2.11074,37.50302,-24.054436,1.5784158,0.042987414,0.0071393196,0.0,-0.0019783145,0.0004929135,-0.004142614,-0.0069582104,0.044909026,-0.043034274,0.24053308,0.051632345,-0.13173494,-0.06560636,0.7594367,87.44591,0.1,0.004142614,0.33926502,0.23212886,0.15985645,0.09401183,inf,inf,inf,inf,1,1,1,1,2,0,2,2,1,1,0
275728684,36228709,49.089340799999995,2.11074,37.502895,-24.057156,1.5793067,0.042987414,0.0071393196,0.0,-0.0022911213,0.00015650527,-0.004352883,-0.005344268,0.044909026,-0.043034274,0.24053308,-0.013625462,0.1503594,0.13160619,0.75947076,87.44591,0.1,0.004352883,0.32736123,0.23163164,0.15522516,0.09363011,inf,inf,inf,inf,1,1,1,1,2,0,2,2,1,1,0
275832671,36228709,49.089340799999995,2.11074,37.503227,-24.05905,1.5781881,0.042987414,0.0071393196,0.0,-0.00019204953,-0.0023162859,-0.006595143,-0.007996503,0.044909026,-0.043034274,0.24053308,0.09324093,-0.10953163,-0.21095562,0.7593721,87.44591,0.1,0.006595143,0.33936167,0.23270339,0.159834,0.094147325,inf,inf,inf,inf,1,1,1,1,2,0,2,2,1,1,0
275936718,36228709,49.089340799999995,2.11074,37.503117,-24.060562,1.5786811,0.042987414,0.0071393196,0.0,-0.0023648182,-0.00080935337,-0.0024375124,-0.002651996,0.044909026,-0.043034274,0.24053308,-0.022440279,0.04855657,-0.23868026,0.759512,87.44591,0.1,0.0024375124,0.32839793,0.23276986,0.15557157,0.09391748,inf,inf,inf,inf,1,1,1,1,2,0,2,2,1,1,0
276039865,36228709,49.089340799999995,2.11074,37.501137,-24.063223,1.57704,0.042987414,0.0071393196,0.0,-0.0013182187,-0.0020193781,-0.00027048524,-0.0016218842,0.044909026,-0.043034274,0.24053308,-0.043783076,0.05868448,0.3114137,0.75943035,87.44591,0.1,0.00027048524,0.34053895,0.23232545,0.160233,0.09407135,inf,inf,inf,inf,1,1,1,1,2,0,2,2,1,1,0
276135887,36228709,49.089340799999995,2.11074,37.49956,-24.065191,1.5732472,0.042987414,0.0071393196,0.0,-0.0014564646,-0.0005852744,-0.0040341625,-0.008581082,0.044909026,-0.043034274,0.24053308,-0.036288816,0.22214583,-0.02053695,0.7595576,87.44591,0.1,0.0040341625,0.32858315,0.2318176,0.15559973,0.0936873,inf,inf,inf,inf,1,1,1,1,2,0,2,2,1,1,0
276239865,36228709,49.089340799999995,2.11074,37.497406,-24.067709,1.5690849,0.042987414,0.0071393196,0.0,-0.0031248936,-0.0026283595,-0.0033064967,-0.010826789,0.044909026,-0.043034274,0.24053308,-0.032614008,0.15647972,0.2010491,0.7593936,87.44591,0.1,0.0033064967,0.340635,0.23289108,0.16021188,0.09420194,inf,inf,inf,inf,1,1,1,1,2,0,2,2,1,1,0
276343117,36228709,49.089340799999995,2.11074,37.49602,-24.069548,1.5648994,0.042987414,0.0071393196,0.0,-0.0043542236,-0.0012315547,-0.0069864504,-0.016956752,0.044909026,-0.043034274,0.24053308,-0.08922333,-0.15425304,-0.06724904,0.7592796,87.44591,0.1,0.0069864504,0.3295113,0.23294285,0.15588757,0.09396574,inf,inf,inf,inf,1,1,1,1,2,0,2,2,1,1,0
276439065,36228709,49.089340799999995,2.11074,37.496254,-24.071577,1.5617718,0.042987414,0.0071393196,0.0,-0.0021228774,-0.0017962459,-0.0072970423,-0.018513165,0.044909026,-0.043034274,0.24053308,0.03289292,-0.036252335,0.14333116,0.75909203,87.44591,0.1,0.0072970423,0.3406318,0.23344082,0.16015142,0.09432604,inf,inf,inf,inf,1,1,1,1,2,0,2,2,1,1,0
276543096,36228709,49.089340799999995,2.11074,37.496517,-24.073431,1.5596302,0.042987414,0.0071393196,0.0,-0.0021418133,-0.00260266,-0.0077691623,-0.018903175,0.044909026,-0.043034274,0.24053308,0.02850089,-0.24774855,-0.13605823,0.75869906,87.44591,0.1,0.0077691623,0.32966796,0.23192134,0.15591317,0.09372543,inf,inf,inf,inf,1,1,1,1,2,0,2,2,1,1,0
276646271,36228709,49.089340799999995,2.11074,37.4972,-24.07595,1.5562907,0.042987414,0.0071393196,0.0,-1.7367456e-05,-0.005254478,-0.007032171,-0.019220028,0.044909026,-0.043034274,0.24053308,-0.037931226,0.1557413,-0.04803209,0.75871116,87.44591,0.1,0.007032171,0.3418396,0.23304012,0.16057675,0.09424452,inf,inf,inf,inf,1,1,1,1,2,0,2,2,1,1,0
276750264,36228709,49.089340799999995,2.11074,37.497128,-24.078148,1.5521369,0.042987414,0.0071393196,0.0,-0.00034611873,-0.0053311666,-0.009847057,-0.02357985,0.044909026,-0.043034274,0.24053308,0.054670084,-0.019483984,0.04664498,0.75838375,87.44591,0.1,0.009847057,0.33065435,0.2330348,0.15623775,0.09400107,inf,inf,inf,inf,1,1,1,1,2,0,2,2,1,1,0
276854265,36228709,49.089340799999995,2.11074,37.495384,-24.081156,1.5512997,0.042987414,0.0071393196,0.0,-0.0015845017,-0.005704495,-0.011262568,-0.023053184,0.044909026,-0.043034274,0.24053308,-0.15272109,-0.01984835,-0.30138186,0.75827396,87.44591,0.1,0.011262568,0.34286067,0.23257157,0.16090038,0.094148636,inf,inf,inf,inf,1,1,1,1,2,0,2,2,1,1,0
276953470,36228709,49.089340799999995,2.11074,37.494026,-24.08384,1.549625,0.042987414,0.0071393196,0.0,-0.0030764153,-0.0062403865,-0.0095088305,-0.020598821,0.044909026,-0.043034274,0.24053308,0.023675114,-0.038487166,0.32781956,0.75811726,87.44591,0.1,0.0095088305,0.3309338,0.23205286,0.15631706,0.09376425,inf,inf,inf,inf,1,1,1,1,2,0,2,2,1,1,0
277057465,36228709,49.089340799999995,2.11074,37.49266,-24.087084,1.5463173,0.042987414,0.0071393196,0.0,-0.0027410071,-0.0074051456,-0.010839511,-0.02265435,0.044909026,-0.043034274,0.24053308,-0.019933162,-0.19899352,0.17055497,0.7579587,87.44591,0.1,0.010839511,0.34353676,0.2333936,0.16115668,0.094320066,inf,inf,inf,inf,1,1,1,1,2,0,2,2,1,1,0
277153465,36228709,49.089340799999995,2.11074,37.491455,-24.089663,1.5432372,0.042987414,0.0071393196,0.0,-0.0024706302,-0.00792874,-0.010464467,-0.022822473,0.044909026,-0.043034274,0.24053308,0.11796231,-0.22694345,0.36630866,0.7578275,87.44591,0.1,0.010464467,0.3315023,0.23288044,0.15653375,0.09393913,inf,inf,inf,inf,1,1,1,1,2,0,2,2,1,1,0
277256675,36228709,49.089340799999995,2.11074,37.490147,-24.092361,1.5403147,0.042987414,0.0071393196,0.0,-0.0018876379,-0.008816503,-0.011936971,-0.024419583,0.044909026,-0.043034274,0.24053308,-0.062346064,-0.137618,0.033239096,0.7577856,87.44591,0.1,0.011936971,0.343739,0.23242708,0.16119795,0.09409133,inf,inf,inf,inf,1,1,1,1,2,0,2,2,1,1,0
277360671,36228709,49.089340799999995,2.11074,37.488995,-24.094889,1.5440118,0.042987414,0.0071393196,0.0,-0.0015600942,-0.00878191,-0.010110404,-0.016273197,0.044909026,-0.043034274,0.24053308,0.025148453,0.19655164,0.046911187,0.7576932,87.44591,0.1,0.010110404,0.33255786,0.23243035,0.15689659,0.093857914,inf,inf,inf,inf,1,1,1,1,2,0,2,2,1,1,0
277456665,36228709,49.089340799999995,2.11074,37.487957,-24.097347,1.5479,0.042987414,0.0071393196,0.0,-0.0021689576,-0.009794795,-0.008476241,-0.009318305,0.044909026,-0.043034274,0.24053308,-0.122525126,-0.023695337,-0.058125116,0.75764304,87.44591,0.1,0.008476241,0.34387353,0.23298216,0.16120344,0.0942249,inf,inf,inf,inf,1,1,1,1,2,0,2,2,1,1,0
277563870,36228709,49.089340799999995,2.11074,37.486477,-24.100103,1.5494184,0.042987414,0.0071393196,0.0,-0.0020334718,-0.010656891,-0.0065677576,-0.0050105,0.044909026,-0.043034274,0.24053308,-0.12124157,0.11565788,-0.1542866,0.75747097,87.44591,0.1,0.0065677576,0.3328014,0.23303834,0.15695052,0.09399681,inf,inf,inf,inf,1,1,1,1,2,0,2,2,1,1,0
277659871,36228709,49.089340799999995,2.11074,37.484604,-24.102938,1.5508289,0.042987414,0.0071393196,0.0,-0.0019168776,-0.011733603,-0.0073617855,-0.003914514,0.044909026,-0.043034274,0.24053308,0.08158644,-0.19357778,0.006368649,0.7574047,87.44591,0.1,0.0073617855,0.34450164,0.23381345,0.16143453,0.0944029,inf,inf,inf,inf,1,1,1,1,2,0,2,2,1,1,0
277763864,36228709,49.089340799999995,2.11074,37.48352,-24.105587,1.5542774,0.042987414,0.0071393196,0.0,-0.0018236844,-0.011419437,-0.005853442,0.0011124947,0.044909026,-0.043034274,0.24053308,-0.14529896,0.16208369,-0.07481362,0.7573869,87.44591,0.1,0.005853442,0.3333292,0.23226382,0.15713136,0.093796134,inf,inf,inf,inf,1,1,1,1,2,0,2,2,1,1,0
277867071,36228709,49.089340799999995,2.11074,37.483234,-24.107811,1.5545594,0.042987414,0.0071393196,0.0,-0.0010087228,-0.01348094,-0.00564011,0.0013285762,0.044909026,-0.043034274,0.24053308,0.049333595,-0.09131283,0.21743837,0.7572675,87.44591,0.1,0.00564011,0.3456298,0.23336427,0.16180599,0.0943084,inf,inf,inf,inf,1,1,1,1,2,0,2,2,1,1,0
277971072,36228709,49.089340799999995,2.11074,37.482254,-24.110352,1.5520556,0.042987414,0.0071393196,0.0,-0.0018356359,-0.012559529,-0.0068091014,-0.0024286832,0.044909026,-0.043034274,0.24053308,0.024235113,-0.14968127,0.030963512,0.75710946,87.44591,0.1,0.0068091014,0.3344345,0.23339728,0.15751255,0.09407518,inf,inf,inf,inf,1,1,1,1,2,0,2,2,1,1,0
278067073,36228709,49.089340799999995,2.11074,37.48077,-24.11304,1.5504138,0.042987414,0.0071393196,0.0,-0.0009799787,-0.015045607,-0.006522279,-0.003664258,0.044909026,-0.043034274,0.24053308,0.059342187,-0.11840627,0.09923804,0.75693655,87.44591,0.1,0.006522279,0.34571287,0.23387396,0.1617895,0.09442781,inf,inf,inf,inf,1,1,1,1,2,0,2,2,1,1,0
278170271,36228709,49.089340799999995,2.11074,37.479313,-24.1157,1.546595,0.042987414,0.0071393196,0.0,-0.002408076,-0.013535419,-0.0071452726,-0.0076676533,0.044909026,-0.043034274,0.24053308,-0.032889176,-0.038255543,-0.16761702,0.75678825,87.44591,0.1,0.0071452726,0.33450776,0.2323242,0.15749359,0.09382276,inf,inf,inf,inf,1,1,1,1,2,0,2,2,1,1,0
279191864,36228709,49.089340799999995,2.11074,37.460983,-24.13717,1.5231191,0.042987414,0.0071393196,0.0,-0.005352664,-0.018171083,-0.013642555,-0.021235773,0.044909026,-0.043034274,0.24053308,-0.033140264,0.09172739,-0.18924421,0.75639844,87.44591,0.1,0.013642555,0.33804753,0.23336582,0.1587505,0.09412407,inf,inf,inf,inf,1,1,1,1,2,0,2,2,1,1,0
279287871,36228709,49.089340799999995,2.11074,37.457844,-24.138563,1.5191053,0.042987414,0.0071393196,0.0,-0.0047354796,-0.019983131,-0.014355475,-0.023675667,0.044909026,-0.043034274,0.24053308,0.14547537,-0.21497887,0.019935366,0.7564145,87.44591,0.1,0.014355475,0.34955856,0.23387362,0.16308673,0.09447393,inf,inf,inf,inf,1,1,1,1,2,0,2,2,1,1,0
279395076,36228709,49.089340799999995,2.11074,37.4544,-24.140465,1.5147803,0.042987414,0.0071393196,0.0,-0.0058299163,-0.01803295,-0.015581596,-0.026492825,0.044909026,-0.043034274,0.24053308,-0.034525134,-0.08061613,-0.12020073,0.7566256,87.44591,0.1,0.015581596,0.3381646,0.23387982,0.1587737,0.0942357,inf,inf,inf,inf,1,1,1,1,2,0,2,2,1,1,0
279491089,36228709,49.089340799999995,2.11074,37.45159,-24.142128,1.5108371,0.042987414,0.0071393196,0.0,-0.0054616565,-0.01918789,-0.016649293,-0.028764423,0.044909026,-0.043034274,0.24053308,0.11427597,-0.010877361,-0.14523907,0.75659895,87.44591,0.1,0.016649293,0.35005993,0.23302409,0.16326605,0.094253734,inf,inf,inf,inf,1,1,1,1,2,0,2,2,1,1,0
279594271,36228709,49.089340799999995,2.11074,37.450138,-24.14442,1.5062453,0.042987414,0.0071393196,0.0,-0.007138967,-0.01885961,-0.01574628,-0.029291505,0.044909026,-0.043034274,0.24053308,-0.06583703,0.01885383,-0.2542693,0.75685394,87.44591,0.1,0.01574628,0.3386353,0.23305099,0.15892877,0.094025515,inf,inf,inf,inf,1,1,1,1,2,0,2,2,1,1,0
279698331,36228709,49.089340799999995,2.11074,37.4493,-24.146719,1.5023559,0.042987414,0.0071393196,0.0,-0.007086389,-0.01839177,-0.015884535,-0.02991804,0.044909026,-0.043034274,0.24053308,-0.09426922,0.19219129,-0.025217056,0.7569342,87.44591,0.1,0.015884535,0.35113496,0.23414348,0.1636306,0.094535425,inf,inf,inf,inf,1,1,1,1,2,0,2,2,1,1,0
279802265,36228709,49.089340799999995,2.11074,37.447998,-24.148983,1.5008061,0.042987414,0.0071393196,0.0,-0.0055342764,-0.018615939,-0.017879803,-0.030071266,0.044909026,-0.043034274,0.24053308,0.057494976,-0.10775426,-0.15377195,0.7570068,87.44591,0.1,0.017879803,0.3395751,0.23252665,0.15925364,0.093928784,inf,inf,inf,inf,1,1,1,1,2,0,2,2,1,1,0
279905465,36228709,49.089340799999995,2.11074,37.446777,-24.151007,1.5004581,0.042987414,0.0071393196,0.0,-0.0066450913,-0.0171678,-0.017393267,-0.026826773,0.044909026,-0.043034274,0.24053308,-0.014119877,0.075318,-0.17679675,0.75684124,87.44591,0.1,0.017393267,0.35211408,0.2336168,0.16395563,0.09443771,inf,inf,inf,inf,1,1,1,1,2,0,2,2,1,1,0
280009465,36228709,49.089340799999995,2.11074,37.443512,-24.154257,1.5006483,0.042987414,0.0071393196,0.0,-0.008422399,-0.018068261,-0.015811916,-0.022303462,0.044909026,-0.043034274,0.24053308,-0.018806871,0.19599682,0.045417745,0.757047,87.44591,0.1,0.015811916,0.3405871,0.23206508,0.159612,0.09384225,inf,inf,inf,inf,1,1,1,1,2,0,2,2,1,1,0
280113464,36228709,49.089340799999995,2.11074,37.440506,-24.157188,1.5007825,0.042987414,0.0071393196,0.0,-0.007854177,-0.018875966,-0.016585577,-0.020572206,0.044909026,-0.043034274,0.24053308,-0.0007207697,-0.16747701,-0.1604466,0.75691897,87.44591,0.1,0.016585577,0.35307038,0.2331253,0.16428068,0.094353065,inf,inf,inf,inf,1,1,1,1,2,0,2,2,1,1,0
280208706,36228709,49.089340799999995,2.11074,37.436512,-24.159872,1.5031585,0.042987414,0.0071393196,0.0,-0.009828002,-0.018301116,-0.0149590345,-0.014761655,0.044909026,-0.043034274,0.24053308,0.050002612,0.046219792,0.27071923,0.7569429,87.44591,0.1,0.0149590345,0.34060946,0.23261666,0.15959874,0.093987375,inf,inf,inf,inf,1,1,1,1,2,0,2,2,1,1,0
280312664,36228709,49.089340799999995,2.11074,37.43282,-24.16244,1.5066183,0.042987414,0.0071393196,0.0,-0.011949783,-0.018187601,-0.012707857,-0.007987049,0.044909026,-0.043034274,0.24053308,0.06639533,-0.24734865,-0.034860812,0.75688255,87.44591,0.1,0.012707857,0.353187,0.2321721,0.16430022,0.09414145,inf,inf,inf,inf,1,1,1,1,2,0,2,2,1,1,0
280416691,36228709,49.089340799999995,2.11074,37.42873,-24.16537,1.51207,0.042987414,0.0071393196,0.0,-0.0109465495,-0.01964247,-0.0083380705,0.0021432657,0.044909026,-0.043034274,0.24053308,0.046549235,0.06692695,-0.087625325,0.756743,87.44591,0.1,0.0083380705,0.34156203,0.2322132,0.15992963,0.093935125,inf,inf,inf,inf,1,1,1,1,2,0,2,2,1,1,0
280512672,36228709,49.089340799999995,2.11074,37.425537,-24.16776,1.5145518,0.042987414,0.0071393196,0.0,-0.012385492,-0.01923451,-0.009605614,0.002815122,0.044909026,-0.043034274,0.24053308,-0.020416882,-0.21943061,0.06438572,0.75664884,87.44591,0.1,0.009605614,0.35319066,0.23276134,0.1642798,0.094298154,inf,inf,inf,inf,1,1,1,1,2,0,2,2,1,1,0
280615865,36228709,49.089340799999995,2.11074,37.42212,-24.171688,1.5138029,0.042987414,0.0071393196,0.0,-0.014436662,-0.01840129,-0.0058385106,0.004983769,0.044909026,-0.043034274,0.24053308,-0.012092044,0.19837013,0.032494713,0.7564159,87.44591,0.1,0.0058385106,0.34164998,0.23281606,0.15994608,0.09408217,inf,inf,inf,inf,1,1,1,1,2,0,2,2,1,1,0
280719871,36228709,49.089340799999995,2.11074,37.41915,-24.175085,1.5160061,0.042987414,0.0071393196,0.0,-0.015791642,-0.018988347,-0.005191853,0.007175952,0.044909026,-0.043034274,0.24053308,0.013653128,-0.071262136,0.39982387,0.75639486,87.44591,0.1,0.005191853,0.35426986,0.23393328,0.16466065,0.09459697,inf,inf,inf,inf,1,1,1,1,2,0,2,2,1,1,0
280823081,36228709,49.089340799999995,2.11074,37.416523,-24.177652,1.5179044,0.042987414,0.0071393196,0.0,-0.017562933,-0.016292304,-0.0067280503,0.006517987,0.044909026,-0.043034274,0.24053308,-0.103675805,-0.14078845,0.0115137715,0.75624824,87.44591,0.1,0.0067280503,0.342628,0.232344,0.16030003,0.094000064,inf,inf,inf,inf,1,1,1,1,2,0,2,2,1,1,0
280919065,36228709,49.089340799999995,2.11074,37.414352,-24.179672,1.5213362,0.042987414,0.0071393196,0.0,-0.017473761,-0.017442737,-0.0035601582,0.011997636,0.044909026,-0.043034274,0.24053308,0.10183663,-0.1439224,0.1954949,0.7560743,87.44591,0.1,0.0035601582,0.3542002,0.23282675,0.16460226,0.09434986,inf,inf,inf,inf,1,1,1,1,2,0,2,2,1,1,0
281023115,36228709,49.089340799999995,2.11074,37.41188,-24.183239,1.5263777,0.042987414,0.0071393196,0.0,-0.018539326,-0.01795865,-0.0024506086,0.016503064,0.044909026,-0.043034274,0.24053308,-0.07932204,-0.1954114,-0.07324901,0.75602096,87.44591,0.1,0.0024506086,0.34267288,0.232883,0.16029918,0.0941361,inf,inf,inf,inf,1,1,1,1,2,0,2,2,1,1,0
281122287,36228709,49.089340799999995,2.11074,37.409733,-24.186165,1.5307605,0.042987414,0.0071393196,0.0,-0.018068805,-0.018890925,0.00038339035,0.021550974,0.044909026,-0.043034274,0.24053308,0.06252074,-0.075622804,0.27761206,0.7560544,87.44591,0.1,-0.00038339035,0.35433424,0.23342131,0.1646555,0.0944939,inf,inf,inf,inf,1,1,1,1,2,0,2,2,1,1,0
281226266,36228709,49.089340799999995,2.11074,37.408516,-24.189438,1.5321409,0.042987414,0.0071393196,0.0,-0.01783778,-0.018941889,-0.0007986868,0.019170817,0.044909026,-0.043034274,0.24053308,0.10700634,-0.13666643,0.024855431,0.755981,87.44591,0.1,0.0007986868,0.3427807,0.23347554,0.16033061,0.09427588,inf,inf,inf,inf,1,1,1,1,2,0,2,2,1,1,0
281330271,36228709,49.089340799999995,2.11074,37.407227,-24.192352,1.5336133,0.042987414,0.0071393196,0.0,-0.0188901,-0.017383376,-0.00040767092,0.018525006,0.044909026,-0.043034274,0.24053308,-0.11353237,0.24056476,-0.09239898,0.75616336,87.44591,0.1,0.00040767092,0.33207688,0.23217782,0.15621616,0.093717165,inf,inf,inf,inf,1,1,1,1,2,0,2,2,1,1,0
281426266,36228709,49.089340799999995,2.11074,37.405445,-24.194906,1.5353032,0.042987414,0.0071393196,0.0,-0.01870694,-0.017935162,0.001681081,0.020043878,0.044909026,-0.043034274,0.24053308,0.0851409,-0.25760064,0.067169555,0.7558101,87.44591,0.1,-0.001681081,0.3432555,0.23273285,0.16051331,0.09409254,inf,inf,inf,inf,1,1,1,1,2,0,2,2,1,1,0
281529471,36228709,49.089340799999995,2.11074,37.403603,-24.197395,1.53657,0.042987414,0.0071393196,0.0,-0.020510301,-0.016787194,0.0006081091,0.01786374,0.044909026,-0.043034274,0.24053308,-0.053126607,-0.43795207,0.2189512,0.75577915,87.44591,0.1,-0.0006081091,0.33215553,0.23280019,0.15622614,0.09386923,inf,inf,inf,inf,1,1,1,1,2,0,2,2,1,1,0
281633464,36228709,49.089340799999995,2.11074,37.401604,-24.200287,1.5373361,0.042987414,0.0071393196,0.0,-0.019545628,-0.019151239,0.0011217532,0.01697658,0.044909026,-0.043034274,0.24053308,0.17999375,-0.663254,0.29515764,0.75543857,87.44591,0.1,-0.0011217532,0.34418792,0.23231764,0.16084349,0.09403113,inf,inf,inf,inf,1,1,1,1,2,0,2,2,1,1,0
281736665,36228709,49.089340799999995,2.11074,37.400085,-24.202883,1.5375553,0.042987414,0.0071393196,0.0,-0.02014437,-0.017919281,-0.00034031735,0.013894041,0.044909026,-0.043034274,0.24053308,0.28012896,0.007868118,-0.17417134,0.75531644,87.44591,0.1,0.00034031735,0.3332042,0.23240508,0.15663268,0.093817,inf,inf,inf,inf,1,1,1,1,2,0,2,2,1,1,0
281832667,36228709,49.089340799999995,2.11074,37.399837,-24.205456,1.5374969,0.042987414,0.0071393196,0.0,-0.019518914,-0.016782973,-8.6035216e-05,0.012550556,0.044909026,-0.043034274,0.24053308,-0.020576036,0.37502784,-0.20525225,0.755093,87.44591,0.1,8.6035216e-05,0.34433088,0.23292558,0.160901,0.09419051,inf,inf,inf,inf,1,1,1,1,2,0,2,2,1,1,0
281936665,36228709,49.089340799999995,2.11074,37.398876,-24.207909,1.5365208,0.042987414,0.0071393196,0.0,-0.019614076,-0.017698986,0.00078271213,0.011116679,0.044909026,-0.043034274,0.24053308,-0.037288923,-0.35221314,0.19561046,0.7548781,87.44591,0.1,-0.00078271213,0.3332162,0.23143783,0.1566119,0.09360506,inf,inf,inf,inf,1,1,1,1,2,0,2,2,1,1,0
282039883,36228709,49.089340799999995,2.11074,37.39598,-24.21043,1.5346452,0.042987414,0.0071393196,0.0,-0.02258981,-0.0128034325,-0.0009817549,0.006414541,0.044909026,-0.043034274,0.24053308,-0.17637573,0.23347199,-0.07760406,0.75478953,87.44591,0.1,0.0009817549,0.34539056,0.2325766,0.16128446,0.09413573,inf,inf,inf,inf,1,1,1,1,2,0,2,2,1,1,0
282143871,36228709,49.089340799999995,2.11074,37.39374,-24.213001,1.5335274,0.042987414,0.0071393196,0.0,-0.02240177,-0.014698871,-0.0011742639,0.0044378773,0.044909026,-0.043034274,0.24053308,0.16542245,0.020147996,-0.097874396,0.754834,87.44591,0.1,0.0011742639,0.33421943,0.23265114,0.15697743,0.09391329,inf,inf,inf,inf,1,1,1,1,2,0,2,2,1,1,0
282247887,36228709,49.089340799999995,2.11074,37.393055,-24.216345,1.529941,0.042987414,0.0071393196,0.0,-0.020883689,-0.01698261,-0.001446805,0.0003736653,0.044909026,-0.043034274,0.24053308,-0.0887772,-0.1247445,0.20087875,0.754739,87.44591,0.1,0.001446805,0.34634566,0.23216252,0.16161463,0.094066225,inf,inf,inf,inf,1,1,1,1,2,0,2,2,1,1,0
282343089,36228709,49.089340799999995,2.11074,37.39229,-24.219067,1.5286425,0.042987414,0.0071393196,0.0,-0.021009505,-0.015893407,-0.002446366,-0.0018150354,0.044909026,-0.043034274,0.24053308,0.076750144,-0.22601634,0.058014784,0.75479084,87.44591,0.1,0.002446366,0.33425853,0.23166534,0.15696967,0.093689926,inf,inf,inf,inf,1,1,1,1,2,0,2,2,1,1,0
282447065,36228709,49.089340799999995,2.11074,37.39164,-24.221954,1.5278299,0.042987414,0.0071393196,0.0,-0.020762125,-0.01507281,-0.0014821173,-0.001345614,0.044909026,-0.043034274,0.24053308,0.048985172,-0.156353,-0.08500543,0.7547473,87.44591,0.1,0.0014821173,0.34628722,0.23268561,0.16155967,0.094200194,inf,inf,inf,inf,1,1,1,1,2,0,2,2,1,1,0
282550287,36228709,49.089340799999995,2.11074,37.3909,-24.224878,1.5271422,0.042987414,0.0071393196,0.0,-0.020004515,-0.013607996,-0.0023471285,-0.0025871706,0.044909026,-0.043034274,0.24053308,0.26266798,-0.31991842,0.32892647,0.75464225,87.44591,0.1,0.0023471285,0.3352121,0.2328135,0.15732722,0.093984745,inf,inf,inf,inf,1,1,1,1,2,0,2,2,1,1,0
282654285,36228709,49.089340799999995,2.11074,37.390404,-24.2284,1.5250865,0.042987414,0.0071393196,0.0,-0.019596176,-0.014478352,-0.002745344,-0.00464843,0.044909026,-0.043034274,0.24053308,-0.19561137,0.8273745,-0.3086541,0.7545166,87.44591,0.1,0.002745344,0.34746724,0.23236594,0.16199014,0.09413905,inf,inf,inf,inf,1,1,1,1,2,0,2,2,1,1,0
282750265,36228709,49.089340799999995,2.11074,37.389107,-24.23119,1.5231069,0.042987414,0.0071393196,0.0,-0.020175975,-0.012760749,-0.002351051,-0.0055778576,0.044909026,-0.043034274,0.24053308,0.015338916,-0.12348741,0.34673318,0.7546312,87.44591,0.1,0.002351051,0.33522895,0.23180602,0.15731025,0.09375285,inf,inf,inf,inf,1,1,1,1,2,0,2,2,1,1,0
282854268,36228709,49.089340799999995,2.11074,37.386417,-24.233902,1.5223855,0.042987414,0.0071393196,0.0,-0.01972709,-0.012409033,-0.0032553892,-0.006387428,0.044909026,-0.043034274,0.24053308,0.14006501,0.7058698,-0.39759582,0.75438094,87.44591,0.1,0.0032553892,0.34748828,0.23293531,0.16198327,0.094275765,inf,inf,inf,inf,1,1,1,1,2,0,2,2,1,1,0
282957465,36228709,49.089340799999995,2.11074,37.383526,-24.23711,1.5252429,0.042987414,0.0071393196,0.0,-0.020626878,-0.015565258,-0.0007731967,-0.00051259773,0.044909026,-0.043034274,0.24053308,-0.20777194,-0.27505553,0.3110709,0.7546279,87.44591,0.1,0.0007731967,0.33629453,0.2314373,0.15770337,0.09368498,inf,inf,inf,inf,1,1,1,1,2,0,2,2,1,1,0
283053465,36228709,49.089340799999995,2.11074,37.380344,-24.240643,1.5267501,0.042987414,0.0071393196,0.0,-0.02062438,-0.015613566,0.00051963545,0.002307679,0.044909026,-0.043034274,0.24053308,0.29017314,0.4409237,-0.29751742,0.75434667,87.44591,0.1,-0.00051963545,0.347536,0.23195627,0.16196845,0.094052956,inf,inf,inf,inf,1,1,1,1,2,0,2,2,1,1,0
283160665,36228709,49.089340799999995,2.11074,37.377712,-24.244198,1.5279163,0.042987414,0.0071393196,0.0,-0.021125337,-0.015182363,0.0010957418,0.003866654,0.044909026,-0.043034274,0.24053308,0.22899759,0.15992086,-0.093792625,0.75453764,87.44591,0.1,-0.0010957418,0.3363379,0.23204865,0.15770464,0.09383734,inf,inf,inf,inf,1,1,1,1,2,0,2,2,1,1,0
283256664,36228709,49.089340799999995,2.11074,37.376026,-24.247133,1.5319488,0.042987414,0.0071393196,0.0,-0.020834954,-0.013794206,0.0005528931,0.006827144,0.044909026,-0.043034274,0.24053308,0.020351661,0.3511751,-0.2291572,0.75442314,87.44591,0.1,-0.0005528931,0.34767383,0.23262434,0.16200812,0.094212495,inf,inf,inf,inf,1,1,1,1,2,0,2,2,1,1,0
283360664,36228709,49.089340799999995,2.11074,37.374405,-24.249695,1.5348319,0.042987414,0.0071393196,0.0,-0.020258341,-0.017241586,0.0054199863,0.013537619,0.044909026,-0.043034274,0.24053308,0.32260284,-0.024970323,-0.09786316,0.7543638,87.44591,0.1,-0.0054199863,0.33677894,0.23292643,0.15786086,0.09402566,inf,inf,inf,inf,1,1,1,1,2,0,2,2,1,1,0
283464671,36228709,49.089340799999995,2.11074,37.373184,-24.251814,1.5362991,0.042987414,0.0071393196,0.0,-0.02175727,-0.014102694,0.0031917582,0.011509235,0.044909026,-0.043034274,0.24053308,-0.10874142,-0.11531303,0.10256578,0.75443673,87.44591,0.1,-0.0031917582,0.34909996,0.23247616,0.16255708,0.094175324,inf,inf,inf,inf,1,1,1,1,2,0,2,2,1,1,0
283567901,36228709,49.089340799999995,2.11074,37.37211,-24.253626,1.536485,0.042987414,0.0071393196,0.0,-0.017953467,-0.012648787,0.0032415108,0.010276005,0.044909026,-0.043034274,0.24053308,-0.028373977,-0.2668599,0.31736568,0.754401,87.44591,0.1,-0.0032415108,0.33777,0.23254077,0.15823723,0.093949005,inf,inf,inf,inf,1,1,1,1,2,0,2,2,1,1,0
283663865,36228709,49.089340799999995,2.11074,37.371254,-24.25498,1.5350187,0.042987414,0.0071393196,0.0,-0.018088197,-0.014506875,0.0048501277,0.009394965,0.044909026,-0.043034274,0.24053308,0.047003467,-0.028480716,-0.021225857,0.7544723,87.44591,0.1,-0.0048501277,0.34915873,0.23308972,0.16254225,0.094314046,inf,inf,inf,inf,1,1,1,1,2,0,2,2,1,1,0
283771090,36228709,49.089340799999995,2.11074,37.37004,-24.256859,1.5333254,0.042987414,0.0071393196,0.0,-0.018010398,-0.013403487,0.002648751,0.0046868953,0.044909026,-0.043034274,0.24053308,-0.13702323,-0.24962029,-0.08436081,0.7546049,87.44591,0.1,-0.002648751,0.33777896,0.23309039,0.1582177,0.0940768,inf,inf,inf,inf,1,1,1,1,2,0,2,2,1,1,0
283867083,36228709,49.089340799999995,2.11074,37.36875,-24.258814,1.5312645,0.042987414,0.0071393196,0.0,-0.017367959,-0.0129519235,0.0027727438,0.0022985246,0.044909026,-0.043034274,0.24053308,-0.052182034,-0.16215715,0.10909385,0.7548508,87.44591,0.1,-0.0027727438,0.3491738,0.23364677,0.16252653,0.09444248,inf,inf,inf,inf,1,1,1,1,2,0,2,2,1,1,0
283971065,36228709,49.089340799999995,2.11074,37.366577,-24.260794,1.5232002,0.042987414,0.0071393196,0.0,-0.016921444,-0.011558358,8.259753e-05,-0.008265474,0.044909026,-0.043034274,0.24053308,0.12729333,-0.27748606,-0.052556906,0.75475866,87.44591,0.1,-8.259753e-05,0.33819547,0.23235337,0.15838432,0.09388613,inf,inf,inf,inf,1,1,1,1,2,0,2,2,1,1,0
284074265,36228709,49.089340799999995,2.11074,37.363903,-24.262781,1.5182495,0.042987414,0.0071393196,0.0,-0.019099098,-0.009162482,-0.0005843139,-0.012732458,0.044909026,-0.043034274,0.24053308,-0.16744627,-0.07601242,0.16250257,0.7550475,87.44591,0.1,0.0005843139,0.35057116,0.23348445,0.16307138,0.094407186,inf,inf,inf,inf,1,1,1,1,2,0,2,2,1,1,0
284170265,36228709,49.089340799999995,2.11074,37.36207,-24.264711,1.5193273,0.042987414,0.0071393196,0.0,-0.018863931,-0.010624663,0.0012326649,-0.008511571,0.044909026,-0.043034274,0.24053308,0.15938987,-0.48548838,-0.06814272,0.75485826,87.44591,0.1,-0.0012326649,0.3381866,0.23297566,0.15835011,0.09402797,inf,inf,inf,inf,1,1,1,1,2,0,2,2,1,1,0
284274320,36228709,49.089340799999995,2.11074,37.360695,-24.266943,1.5210145,0.042987414,0.0071393196,0.0,-0.018178083,-0.009471066,0.005283534,-0.0018587201,0.044909026,-0.043034274,0.24053308,-0.09450568,0.0029491798,0.11231281,0.7549325,87.44591,0.1,-0.005283534,0.35046202,0.23246618,0.16299917,0.0941695,inf,inf,inf,inf,1,1,1,1,2,0,2,2,1,1,0
284377504,36228709,49.089340799999995,2.11074,37.359406,-24.269701,1.5244082,0.042987414,0.0071393196,0.0,-0.017593564,-0.009317262,0.0053761867,0.0020095706,0.044909026,-0.043034274,0.24053308,0.073731095,0.1798029,-0.19268344,0.75484633,87.44591,0.1,-0.0053761867,0.33912873,0.23253174,0.15871279,0.093948744,inf,inf,inf,inf,1,1,1,1,2,0,2,2,1,1,0
284481464,36228709,49.089340799999995,2.11074,37.358128,-24.272448,1.5295353,0.042987414,0.0071393196,0.0,-0.017065099,-0.009986305,0.008189083,0.00951317,0.044909026,-0.043034274,0.24053308,-0.07372598,-0.019797612,0.03648543,0.7549006,87.44591,0.1,-0.008189083,0.3515533,0.23366128,0.1634055,0.09446689,inf,inf,inf,inf,1,1,1,1,2,0,2,2,1,1,0
284577511,36228709,49.089340799999995,2.11074,37.35751,-24.274574,1.5356797,0.042987414,0.0071393196,0.0,-0.017271314,-0.009266603,0.011158442,0.01757462,0.044909026,-0.043034274,0.24053308,-0.14600828,0.26055416,0.078432225,0.7548772,87.44591,0.1,-0.011158442,0.338946,0.2330326,0.15861212,0.09407151,inf,inf,inf,inf,1,1,1,1,2,0,2,2,1,1,0
284680665,36228709,49.089340799999995,2.11074,37.357075,-24.276466,1.5400292,0.042987414,0.0071393196,0.0,-0.017576968,-0.008663367,0.00923779,0.017975122,0.044909026,-0.043034274,0.24053308,-0.03915784,0.03142383,0.012174737,0.7548535,87.44591,0.1,-0.00923779,0.35144398,0.23263432,0.16335042,0.094227545,inf,inf,inf,inf,1,1,1,1,2,0,2,2,1,1,0
284784690,36228709,49.089340799999995,2.11074,37.35729,-24.27843,1.5472279,0.042987414,0.0071393196,0.0,-0.016370675,-0.008710381,0.0143778995,0.027761195,0.044909026,-0.043034274,0.24053308,-0.13036147,-0.2971774,0.324971,0.75476855,87.44591,0.1,-0.0143778995,0.3399602,0.2326924,0.15899712,0.09400163,inf,inf,inf,inf,1,1,1,1,2,0,2,2,1,1,0
284880665,36228709,49.089340799999995,2.11074,37.35765,-24.280094,1.5532585,0.042987414,0.0071393196,0.0,-0.017837126,-0.0075175725,0.016921781,0.033372097,0.044909026,-0.043034274,0.24053308,-0.061606023,0.037430026,-0.08873275,0.75476015,87.44591,0.1,-0.016921781,0.3513382,0.23318347,0.16328208,0.09435525,inf,inf,inf,inf,1,1,1,1,2,0,2,2,1,1,0
284983865,36228709,49.089340799999995,2.11074,37.3599,-24.282223,1.559346,0.042987414,0.0071393196,0.0,-0.013029679,-0.008043991,0.017300624,0.036059327,0.044909026,-0.043034274,0.24053308,-0.085641935,-0.22266857,0.44800112,0.7546123,87.44591,0.1,-0.017300624,0.33937553,0.23323545,0.15880701,0.09412448,inf,inf,inf,inf,1,1,1,1,2,0,2,2,1,1,0
285087865,36228709,49.089340799999995,2.11074,37.363075,-24.284525,1.5654297,0.042987414,0.0071393196,0.0,-0.011534182,-0.0058145523,0.017612534,0.03809634,0.044909026,-0.043034274,0.24053308,0.16287734,0.6641827,-0.39721587,0.75477165,87.44591,0.1,-0.017612534,0.3518029,0.23276794,0.16348283,0.09426614,inf,inf,inf,inf,1,1,1,1,2,0,2,2,1,1,0
285191864,36228709,49.089340799999995,2.11074,37.3678,-24.286743,1.5675362,0.042987414,0.0071393196,0.0,-0.0105261905,-0.009195557,0.02007011,0.038158115,0.044909026,-0.043034274,0.24053308,-0.2023382,-0.10409306,0.028938161,0.7548688,87.44591,0.1,-0.02007011,0.33951068,0.23276629,0.15895416,0.09403442,inf,inf,inf,inf,1,1,1,1,2,0,2,2,1,1,0
285295074,36228709,49.089340799999995,2.11074,37.37215,-24.288542,1.5670395,0.042987414,0.0071393196,0.0,-0.006412913,-0.008970199,0.020176586,0.03369096,0.044909026,-0.043034274,0.24053308,0.018803053,-0.40572464,-0.0592801,0.754901,87.44591,0.1,-0.020176586,0.3519551,0.23388466,0.16366076,0.094547145,inf,inf,inf,inf,1,1,1,1,2,0,2,2,1,1,0
285399096,36228709,49.089340799999995,2.11074,37.37764,-24.290058,1.562685,0.042987414,0.0071393196,0.0,-0.0047008605,-0.0036518218,0.02013711,0.02596912,0.044909026,-0.043034274,0.24053308,0.093917176,-0.0004698393,0.18176112,0.754645,87.44591,0.1,-0.02013711,0.33948386,0.2323481,0.15913609,0.09394886,inf,inf,inf,inf,1,1,1,1,2,0,2,2,1,1,0
285503102,36228709,49.089340799999995,2.11074,37.38233,-24.291382,1.5575413,0.042987414,0.0071393196,0.0,-0.0028793996,-0.002496338,0.014684899,0.012955394,0.044909026,-0.043034274,0.24053308,0.08817017,0.59924483,-0.28960347,0.75489414,87.44591,0.1,-0.014684899,0.3518477,0.23340459,0.163784,0.09445293,inf,inf,inf,inf,1,1,1,1,2,0,2,2,1,1,0
285598305,36228709,49.089340799999995,2.11074,37.389206,-24.293514,1.5510885,0.042987414,0.0071393196,0.0,-0.00046387664,-0.0036165095,0.014347083,0.005090041,0.044909026,-0.043034274,0.24053308,0.106861345,0.30820164,-0.16559911,0.7543517,87.44591,0.1,-0.014347083,0.33826756,0.23288043,0.15886748,0.09407365,inf,inf,inf,inf,1,1,1,1,2,0,2,2,1,1,0
285702265,36228709,49.089340799999995,2.11074,37.395557,-24.29552,1.543336,0.042987414,0.0071393196,0.0,-0.0013532738,-0.0024049135,0.013262763,-0.0037945702,0.044909026,-0.043034274,0.24053308,0.12608771,0.19882192,-0.11840907,0.7545685,87.44591,0.1,-0.013262763,0.35050267,0.23388246,0.16348575,0.09456941,inf,inf,inf,inf,1,1,1,1,2,0,2,2,1,1,0
285806264,36228709,49.089340799999995,2.11074,37.403206,-24.297626,1.5360345,0.042987414,0.0071393196,0.0,0.0035647247,-0.003339843,0.012347891,-0.010916832,0.044909026,-0.043034274,0.24053308,-0.06002579,-0.010686312,-0.09026177,0.75401956,87.44591,0.1,-0.012347891,0.33790228,0.23240077,0.15898946,0.093980126,inf,inf,inf,inf,1,1,1,1,2,0,2,2,1,1,0
285909477,36228709,49.089340799999995,2.11074,37.40938,-24.29933,1.5309626,0.042987414,0.0071393196,0.0,0.004845211,-0.000587849,0.010100296,-0.016374903,0.044909026,-0.043034274,0.24053308,-0.07211003,-0.30069873,0.2781477,0.7542742,87.44591,0.1,-0.010100296,0.3503438,0.23351097,0.16369365,0.09448892,inf,inf,inf,inf,1,1,1,1,2,0,2,2,1,1,0
286005472,36228709,49.089340799999995,2.11074,37.41737,-24.301083,1.5266432,0.042987414,0.0071393196,0.0,0.0057749515,-0.0016295505,0.010328402,-0.018318705,0.044909026,-0.043034274,0.24053308,0.031771243,0.04748662,-0.06525569,0.7538845,87.44591,0.1,-0.010328402,0.33644304,0.232979,0.15868877,0.0941071,inf,inf,inf,inf,1,1,1,1,2,0,2,2,1,1,0
286109465,36228709,49.089340799999995,2.11074,37.424675,-24.302626,1.5228282,0.042987414,0.0071393196,0.0,0.009681078,-0.0014881112,0.0077566425,-0.02201355,0.044909026,-0.043034274,0.24053308,-0.32536837,-0.41757974,0.42915845,0.7541471,87.44591,0.1,-0.0077566425,0.3487422,0.23403168,0.16336153,0.09460901,inf,inf,inf,inf,1,1,1,1,2,0,2,2,1,1,0
286212696,36228709,49.089340799999995,2.11074,37.433525,-24.304724,1.5191077,0.042987414,0.0071393196,0.0,0.012441493,0.001981746,0.0051051346,-0.025568016,0.044909026,-0.043034274,0.24053308,0.10979058,0.7535629,-0.4560759,0.7539914,87.44591,0.1,-0.0051051346,0.33577907,0.2324851,0.15874594,0.094008796,inf,inf,inf,inf,1,1,1,1,2,0,2,2,1,1,0
286308665,36228709,49.089340799999995,2.11074,37.440254,-24.306198,1.5145354,0.042987414,0.0071393196,0.0,0.012423415,-0.000625691,0.007818985,-0.024564113,0.044909026,-0.043034274,0.24053308,-0.21574955,-0.3615808,0.36090603,0.75388837,87.44591,0.1,-0.007818985,0.34711003,0.2329576,0.16304593,0.094354525,inf,inf,inf,inf,1,1,1,1,2,0,2,2,1,1,0
286412664,36228709,49.089340799999995,2.11074,37.450733,-24.308443,1.5101056,0.042987414,0.0071393196,0.0,0.016223488,0.0011911484,0.002949151,-0.030419147,0.044909026,-0.043034274,0.24053308,-0.04299613,0.4544971,-0.36674702,0.7539073,87.44591,0.1,-0.002949151,0.3343296,0.23300587,0.15853733,0.094132505,inf,inf,inf,inf,1,1,1,1,2,0,2,2,1,1,0
286511865,36228709,49.089340799999995,2.11074,37.458454,-24.309938,1.5071769,0.042987414,0.0071393196,0.0,0.01833801,-0.00021063152,0.0043160846,-0.028674606,0.044909026,-0.043034274,0.24053308,0.1497922,-0.26122156,0.010185972,0.7535416,87.44591,0.1,-0.0043160846,0.3457365,0.2335397,0.16288392,0.09448706,inf,inf,inf,inf,1,1,1,1,2,0,2,2,1,1,0
286615931,36228709,49.089340799999995,2.11074,37.470425,-24.312037,1.5050362,0.042987414,0.0071393196,0.0,0.019184109,0.0028553093,0.002988026,-0.028555358,0.044909026,-0.043034274,0.24053308,-0.09611154,-0.06704145,0.19379213,0.7536157,87.44591,0.1,-0.002988026,0.33292237,0.23358129,0.15835394,0.09426246,inf,inf,inf,inf,1,1,1,1,2,0,2,2,1,1,0
286719899,36228709,49.089340799999995,2.11074,37.4801,-24.313576,1.5018182,0.042987414,0.0071393196,0.0,0.022100952,0.0021581398,0.0009711233,-0.030214038,0.044909026,-0.043034274,0.24053308,-0.120608285,0.5765785,-0.21205732,0.7535966,87.44591,0.1,-0.0009711233,0.34566993,0.23333672,0.16324247,0.09444251,inf,inf,inf,inf,1,1,1,1,2,0,2,2,1,1,0
286823116,36228709,49.089340799999995,2.11074,37.494255,-24.31452,1.498463,0.042987414,0.0071393196,0.0,0.028322691,-0.0013654542,0.003119267,-0.02797325,0.044909026,-0.043034274,0.24053308,-0.040432386,-0.017010735,0.08123376,0.7535059,87.44591,0.1,-0.003119267,0.33277997,0.23339361,0.15869331,0.094225265,inf,inf,inf,inf,1,1,1,1,2,0,2,2,1,1,0
286919074,36228709,49.089340799999995,2.11074,37.50489,-24.315073,1.495645,0.042987414,0.0071393196,0.0,0.03069959,0.0001263998,0.0023578524,-0.028350908,0.044909026,-0.043034274,0.24053308,-0.15380636,0.44463506,0.0070134453,0.75363433,87.44591,0.1,-0.0023578524,0.3196627,0.23281303,0.1539027,0.09383247,inf,inf,inf,inf,1,1,1,1,2,0,2,2,1,1,0
287022279,36228709,49.089340799999995,2.11074,37.516865,-24.316,1.4904084,0.042987414,0.0071393196,0.0,0.033731744,-2.1557866e-05,0.0012285118,-0.031088639,0.044909026,-0.043034274,0.24053308,0.07219741,-0.053126726,-0.025511503,0.75361645,87.44591,0.1,-0.0012285118,0.33144334,0.23390403,0.15855454,0.09434833,inf,inf,inf,inf,1,1,1,1,2,0,2,2,1,1,0
287126280,36228709,49.089340799999995,2.11074,37.526672,-24.316689,1.4885553,0.042987414,0.0071393196,0.0,0.034644425,0.0019824544,-0.0024891316,-0.03269074,0.044909026,-0.043034274,0.24053308,-0.09783833,-0.3200562,0.22488078,0.7539915,87.44591,0.1,0.0024891316,0.31919476,0.23233333,0.15408888,0.09373133,inf,inf,inf,inf,1,1,1,1,2,0,2,2,1,1,0
287222307,36228709,49.089340799999995,2.11074,37.53646,-24.318335,1.487637,0.042987414,0.0071393196,0.0,0.036141112,0.0017141803,-0.003174838,-0.030973049,0.044909026,-0.043034274,0.24053308,0.09707034,0.07386757,-0.040078662,0.7539496,87.44591,0.1,0.003174838,0.32998502,0.23278992,0.15834098,0.094083935,inf,inf,inf,inf,1,1,1,1,2,0,2,2,1,1,0
287326265,36228709,49.089340799999995,2.11074,37.54509,-24.319454,1.4831666,0.042987414,0.0071393196,0.0,0.035771545,0.0023528598,-3.9775594e-05,-0.028750688,0.044909026,-0.043034274,0.24053308,-0.3181653,-0.26437756,0.3473972,0.7540621,87.44591,0.1,3.9775594e-05,0.34235945,0.23391144,0.16305944,0.09459734,inf,inf,inf,inf,1,1,1,1,2,0,2,2,1,1,0
287429471,36228709,49.089340799999995,2.11074,37.554024,-24.321138,1.4775757,0.042987414,0.0071393196,0.0,0.038065176,0.005858201,-0.007775506,-0.03820294,0.044909026,-0.043034274,0.24053308,-0.0054642647,0.64630824,-0.4869009,0.75401425,87.44591,0.1,0.007775506,0.32951048,0.23237939,0.15848787,0.094006434,inf,inf,inf,inf,1,1,1,1,2,0,2,2,1,1,0
287533465,36228709,49.089340799999995,2.11074,37.561676,-24.322311,1.4693108,0.042987414,0.0071393196,0.0,0.040222432,0.0027869728,-0.009350494,-0.043727744,0.044909026,-0.043034274,0.24053308,-0.07895315,-0.076799534,0.044877026,0.75388473,87.44591,0.1,0.009350494,0.31738746,0.23242664,0.15405792,0.09377636,inf,inf,inf,inf,1,1,1,1,2,0,2,2,1,1,0
287628705,36228709,49.089340799999995,2.11074,37.56931,-24.323496,1.4620434,0.042987414,0.0071393196,0.0,0.040035587,0.0054512615,-0.010583512,-0.04759735,0.044909026,-0.043034274,0.24053308,0.35584015,0.057395454,-0.36868015,0.7540399,87.44591,0.1,0.010583512,0.32819062,0.23291384,0.1583047,0.09413917,inf,inf,inf,inf,1,1,1,1,2,0,2,2,1,1,0
287732665,36228709,49.089340799999995,2.11074,37.576485,-24.32419,1.4541106,0.042987414,0.0071393196,0.0,0.043131657,0.00362131,-0.012055699,-0.051375642,0.044909026,-0.043034274,0.24053308,-0.15337406,0.22145061,-0.18820079,0.75393575,87.44591,0.1,0.012055699,0.31602815,0.2329581,0.15382841,0.09390423,inf,inf,inf,inf,1,1,1,1,2,0,2,2,1,1,0
287836665,36228709,49.089340799999995,2.11074,37.584587,-24.32506,1.4465379,0.042987414,0.0071393196,0.0,0.045013014,0.0051101306,-0.0142787,-0.05518457,0.044909026,-0.043034274,0.24053308,-0.12169435,-0.23310289,0.18465792,0.754081,87.44591,0.1,0.0142787,0.32783774,0.23249173,0.15849027,0.094057865,inf,inf,inf,inf,1,1,1,1,2,0,2,2,1,1,0
287935114,36228709,49.089340799999995,2.11074,37.591366,-24.32532,1.441625,0.042987414,0.0071393196,0.0,0.045261286,0.007040512,-0.016128534,-0.05610751,0.044909026,-0.043034274,0.24053308,0.13214023,0.60564584,-0.39904442,0.7540995,87.44591,0.1,0.016128534,0.31473002,0.23191237,0.15360177,0.09366419,inf,inf,inf,inf,1,1,1,1,2,0,2,2,1,1,0
288039864,36228709,49.089340799999995,2.11074,37.6009,-24.324991,1.4407495,0.042987414,0.0071393196,0.0,0.045339856,0.006892114,-0.012453743,-0.047209814,0.044909026,-0.043034274,0.24053308,0.02918222,0.09500687,-0.08281332,0.7543947,87.44591,0.1,0.012453743,0.32652608,0.23302434,0.15827022,0.09418587,inf,inf,inf,inf,1,1,1,1,2,0,2,2,1,1,0
288135871,36228709,49.089340799999995,2.11074,37.608738,-24.324432,1.4416034,0.042987414,0.0071393196,0.0,0.049094602,0.010469481,-0.0145673305,-0.043569747,0.044909026,-0.043034274,0.24053308,-0.11282594,0.33369458,-0.11228083,0.7542628,87.44591,0.1,0.0145673305,0.31397995,0.23271754,0.15365574,0.09384151,inf,inf,inf,inf,1,1,1,1,2,0,2,2,1,1,0
288243069,36228709,49.089340799999995,2.11074,37.61815,-24.324066,1.4423394,0.042987414,0.0071393196,0.0,0.051100887,0.010829577,-0.013792811,-0.037596293,0.044909026,-0.043034274,0.24053308,0.024910385,0.5129553,-0.22986998,0.75441426,87.44591,0.1,0.013792811,0.3257883,0.2338174,0.15829396,0.094359085,inf,inf,inf,inf,1,1,1,1,2,0,2,2,1,1,0
288339077,36228709,49.089340799999995,2.11074,37.62601,-24.323387,1.445902,0.042987414,0.0071393196,0.0,0.052567188,0.010198749,-0.010264712,-0.027078245,0.044909026,-0.043034274,0.24053308,0.24912526,-0.1513971,0.078374445,0.75440234,87.44591,0.1,0.010264712,0.31296086,0.23326808,0.15351382,0.09396483,inf,inf,inf,inf,1,1,1,1,2,0,2,2,1,1,0
288443099,36228709,49.089340799999995,2.11074,37.635338,-24.32236,1.4488084,0.042987414,0.0071393196,0.0,0.05357829,0.013247117,-0.01004403,-0.021243664,0.044909026,-0.043034274,0.24053308,-0.26137787,0.74179,-0.21132539,0.7546406,87.44591,0.1,0.01004403,0.32513925,0.23300827,0.15835194,0.09415265,inf,inf,inf,inf,1,1,1,1,2,0,2,2,1,1,0
288546264,36228709,49.089340799999995,2.11074,37.644356,-24.321388,1.4503894,0.042987414,0.0071393196,0.0,0.058002505,0.01034386,-0.007138164,-0.014876389,0.044909026,-0.043034274,0.24053308,0.16697434,0.033683844,-0.024340322,0.75453013,87.44591,0.1,0.007138164,0.31326914,0.23305383,0.15394926,0.09392528,inf,inf,inf,inf,1,1,1,1,2,0,2,2,1,1,0
288650273,36228709,49.089340799999995,2.11074,37.654293,-24.320545,1.4526755,0.042987414,0.0071393196,0.0,0.053698156,0.015429295,-0.006481194,-0.01061697,0.044909026,-0.043034274,0.24053308,-0.26189238,-0.38106525,0.4185807,0.75453424,87.44591,0.1,0.006481194,0.32514137,0.23257697,0.15861034,0.09407463,inf,inf,inf,inf,1,1,1,1,2,0,2,2,1,1,0
288754265,36228709,49.089340799999995,2.11074,37.663776,-24.319805,1.4525434,0.042987414,0.0071393196,0.0,0.05912267,0.016190194,-0.0076201065,-0.010964852,0.044909026,-0.043034274,0.24053308,0.10457489,0.07118478,-0.2344455,0.75453836,87.44591,0.1,0.0076201065,0.31309068,0.23255607,0.15409738,0.09383425,inf,inf,inf,inf,1,1,1,1,2,0,2,2,1,1,0
288850342,36228709,49.089340799999995,2.11074,37.67267,-24.319468,1.450504,0.042987414,0.0071393196,0.0,0.060478993,0.016084673,-0.007841715,-0.012308735,0.044909026,-0.043034274,0.24053308,-0.17326964,-0.3591163,-0.0016177759,0.7544796,87.44591,0.1,0.007841715,0.3240727,0.23309617,0.1584075,0.094200455,inf,inf,inf,inf,1,1,1,1,2,0,2,2,1,1,0
288953465,36228709,49.089340799999995,2.11074,37.6816,-24.319191,1.450438,0.042987414,0.0071393196,0.0,0.063616075,0.01621399,-0.008450523,-0.011739282,0.044909026,-0.043034274,0.24053308,0.042435,0.16140775,-0.1713364,0.754497,87.44591,0.1,0.008450523,0.3122863,0.23313396,0.15401797,0.09397156,inf,inf,inf,inf,1,1,1,1,2,0,2,2,1,1,0
289057471,36228709,49.089340799999995,2.11074,37.690228,-24.31913,1.4504198,0.042987414,0.0071393196,0.0,0.0629072,0.017652713,-0.008708016,-0.010907505,0.044909026,-0.043034274,0.24053308,0.1090263,0.15464713,-0.1176865,0.7547132,87.44591,0.1,0.008708016,0.32411224,0.23260206,0.15864754,0.09411297,inf,inf,inf,inf,1,1,1,1,2,0,2,2,1,1,0
289160665,36228709,49.089340799999995,2.11074,37.699303,-24.319012,1.4480612,0.042987414,0.0071393196,0.0,0.063100785,0.018559204,-0.008148535,-0.011631777,0.044909026,-0.043034274,0.24053308,0.06995837,-0.486752,0.1289341,0.75444746,87.44591,0.1,0.008148535,0.31233948,0.23264779,0.15425093,0.09388682,inf,inf,inf,inf,1,1,1,1,2,0,2,2,1,1,0
289256680,36228709,49.089340799999995,2.11074,37.708443,-24.319042,1.4470099,0.042987414,0.0071393196,0.0,0.064816736,0.020370478,-0.007730121,-0.011211555,0.044909026,-0.043034274,0.24053308,-0.019026017,-0.13440306,0.36351323,0.75457627,87.44591,0.1,0.007730121,0.3233665,0.23318245,0.1585557,0.09425074,inf,inf,inf,inf,1,1,1,1,2,0,2,2,1,1,0
289360676,36228709,49.089340799999995,2.11074,37.71785,-24.31885,1.4440914,0.042987414,0.0071393196,0.0,0.06575737,0.021794653,-0.010488313,-0.015604401,0.044909026,-0.043034274,0.24053308,-0.17359008,0.60718226,-0.069746114,0.7542603,87.44591,0.1,0.010488313,0.31154045,0.23316924,0.1541191,0.094015904,inf,inf,inf,inf,1,1,1,1,2,0,2,2,1,1,0
289463864,36228709,49.089340799999995,2.11074,37.72706,-24.318653,1.4421753,0.042987414,0.0071393196,0.0,0.06836565,0.020773487,-0.009781617,-0.015325239,0.044909026,-0.043034274,0.24053308,0.2484597,-0.12490271,0.13611501,0.75447124,87.44591,0.1,0.009781617,0.3235104,0.23269291,0.15878737,0.09416234,inf,inf,inf,inf,1,1,1,1,2,0,2,2,1,1,0
289559865,36228709,49.089340799999995,2.11074,37.735542,-24.318653,1.4410372,0.042987414,0.0071393196,0.0,0.06898278,0.023708094,-0.0108445985,-0.016039176,0.044909026,-0.043034274,0.24053308,0.16996796,0.22632161,-0.16055623,0.75422126,87.44591,0.1,0.0108445985,0.31097072,0.23217157,0.15408576,0.09378601,inf,inf,inf,inf,1,1,1,1,2,0,2,2,1,1,0
289663865,36228709,49.089340799999995,2.11074,37.74454,-24.31859,1.4418736,0.042987414,0.0071393196,0.0,0.071290396,0.020643014,-0.008030963,-0.011013945,0.044909026,-0.043034274,0.24053308,-0.020510998,-0.6434807,0.17681462,0.7544026,87.44591,0.1,0.008030963,0.3228563,0.2332181,0.1587135,0.09429445,inf,inf,inf,inf,1,1,1,1,2,0,2,2,1,1,0
289767105,36228709,49.089340799999995,2.11074,37.751938,-24.318539,1.4406301,0.042987414,0.0071393196,0.0,0.07008939,0.021993719,-0.0064920667,-0.009625802,0.044909026,-0.043034274,0.24053308,-0.09057003,-0.09821897,0.14734994,0.7543254,87.44591,0.1,0.0064920667,0.31110847,0.23326132,0.15429142,0.09406699,inf,inf,inf,inf,1,1,1,1,2,0,2,2,1,1,0
289871074,36228709,49.089340799999995,2.11074,37.758293,-24.318192,1.4381695,0.042987414,0.0071393196,0.0,0.06752261,0.028199906,-0.010025552,-0.014596108,0.044909026,-0.043034274,0.24053308,-0.0068447446,0.8409168,-0.43740422,0.7542936,87.44591,0.1,0.010025552,0.32313704,0.23278148,0.15896083,0.09421098,inf,inf,inf,inf,1,1,1,1,2,0,2,2,1,1,0
289967101,36228709,49.089340799999995,2.11074,37.763268,-24.317497,1.437413,0.042987414,0.0071393196,0.0,0.0673484,0.029042773,-0.0077365055,-0.011902405,0.044909026,-0.043034274,0.24053308,0.33355334,-0.0038140737,-0.0571566,0.7542482,87.44591,0.1,0.0077365055,0.31026176,0.23220134,0.15405867,0.093822494,inf,inf,inf,inf,1,1,1,1,2,0,2,2,1,1,0
290070271,36228709,49.089340799999995,2.11074,37.768024,-24.316475,1.4375244,0.042987414,0.0071393196,0.0,0.067707054,0.029861478,-0.0097634755,-0.012677003,0.044909026,-0.043034274,0.24053308,0.11464208,0.7510754,-0.6292424,0.75424266,87.44591,0.1,0.0097634755,0.32227454,0.23330265,0.15872349,0.09433751,inf,inf,inf,inf,1,1,1,1,2,0,2,2,1,1,0
290174271,36228709,49.089340799999995,2.11074,37.77121,-24.316101,1.4415338,0.042987414,0.0071393196,0.0,0.06647934,0.027041651,-0.0058738217,-0.003923222,0.044909026,-0.043034274,0.24053308,0.025534593,-0.48463076,0.43766984,0.7540314,87.44591,0.1,0.0058738217,0.31049746,0.23328602,0.15426904,0.09410233,inf,inf,inf,inf,1,1,1,1,2,0,2,2,1,1,0
290278359,36228709,49.089340799999995,2.11074,37.773964,-24.31559,1.4454795,0.042987414,0.0071393196,0.0,0.063146785,0.027021466,-0.0046177655,0.0013719099,0.044909026,-0.043034274,0.24053308,-0.09798363,0.043079093,-0.42042467,0.7539508,87.44591,0.1,0.0046177655,0.32256752,0.23281124,0.15894546,0.09424663,inf,inf,inf,inf,1,1,1,1,2,0,2,2,1,1,0
290381465,36228709,49.089340799999995,2.11074,37.776554,-24.315693,1.4504588,0.042987414,0.0071393196,0.0,0.062321376,0.030395862,-0.0041905222,0.0061351242,0.044909026,-0.043034274,0.24053308,0.09806217,0.85740376,-0.8594161,0.7537389,87.44591,0.1,0.0041905222,0.31072503,0.23285155,0.15445025,0.094019085,inf,inf,inf,inf,1,1,1,1,2,0,2,2,1,1,0
290477465,36228709,49.089340799999995,2.11074,37.779118,-24.315363,1.457436,0.042987414,0.0071393196,0.0,0.05828383,0.03450096,-0.0012988626,0.014597347,0.044909026,-0.043034274,0.24053308,0.23372792,0.81408346,-0.85847545,0.7535924,87.44591,0.1,0.0012988626,0.3218783,0.23338383,0.15877257,0.09437865,inf,inf,inf,inf,1,1,1,1,2,0,2,2,1,1,0
290581464,36228709,49.089340799999995,2.11074,37.78211,-24.314512,1.4600857,0.042987414,0.0071393196,0.0,0.056683578,0.035073992,0.002888023,0.019038869,0.044909026,-0.043034274,0.24053308,-0.023521185,0.116179995,-0.38325882,0.75365096,87.44591,0.1,-0.002888023,0.30996868,0.2318075,0.1542425,0.0937804,inf,inf,inf,inf,1,1,1,1,2,0,2,2,1,1,0
290684679,36228709,49.089340799999995,2.11074,37.78529,-24.312948,1.4604315,0.042987414,0.0071393196,0.0,0.055858266,0.037795413,0.0040092086,0.017962037,0.044909026,-0.043034274,0.24053308,0.33555338,0.47952804,-0.40839958,0.75347435,87.44591,0.1,-0.0040092086,0.32206237,0.23293594,0.15890343,0.09430348,inf,inf,inf,inf,1,1,1,1,2,0,2,2,1,1,0
290987865,36228709,49.089340799999995,2.11074,37.791084,-24.310709,1.4624149,0.042987414,0.0071393196,0.0,0.05293493,0.03343226,0.0053485283,0.015072883,0.044909026,-0.043034274,0.24053308,0.17665929,0.34729692,0.0015670629,0.7537994,87.44591,0.1,-0.0053485283,0.30946183,0.23199806,0.15414691,0.09385914,inf,inf,inf,inf,1,1,1,1,2,0,2,2,1,1,0
291295065,36228709,49.089340799999995,2.11074,37.795033,-24.308353,1.4680177,0.042987414,0.0071393196,0.0,0.049138688,0.035584867,0.0020012266,0.012781491,0.044909026,-0.043034274,0.24053308,-0.04739402,0.4814041,-0.27833232,0.7535948,87.44591,0.1,-0.0020012266,0.3209436,0.2336842,0.15867506,0.09451918,inf,inf,inf,inf,1,1,1,1,2,0,2,2,1,1,0
291391065,36228709,49.089340799999995,2.11074,37.797012,-24.308567,1.4701247,0.042987414,0.0071393196,0.0,0.048251797,0.036656216,0.0039010865,0.0152001735,0.044909026,-0.043034274,0.24053308,-0.07920704,0.42645478,-0.16603199,0.7537975,87.44591,0.1,-0.0039010865,0.30861852,0.23177676,0.15401936,0.09381143,inf,inf,inf,inf,1,1,1,1,2,0,2,2,1,1,0
291494274,36228709,49.089340799999995,2.11074,37.799698,-24.30806,1.4738849,0.042987414,0.0071393196,0.0,0.049369693,0.033407986,0.0069756494,0.020031523,0.044909026,-0.043034274,0.24053308,-0.17534803,-0.49294835,0.26328483,0.7532331,87.44591,0.1,-0.0069756494,0.32083166,0.23296143,0.15873796,0.09434073,inf,inf,inf,inf,1,1,1,1,2,0,2,2,1,1,0
291598296,36228709,49.089340799999995,2.11074,37.802525,-24.309387,1.4769579,0.042987414,0.0071393196,0.0,0.04767804,0.036000594,0.009014713,0.02260109,0.044909026,-0.043034274,0.24053308,-0.072225854,0.28965074,-0.080591425,0.7536263,87.44591,0.1,-0.009014713,0.30904952,0.23303302,0.15424001,0.094124965,inf,inf,inf,inf,1,1,1,1,2,0,2,2,1,1,0
291702265,36228709,49.089340799999995,2.11074,37.805603,-24.309921,1.4777871,0.042987414,0.0071393196,0.0,0.047551446,0.031811137,0.014231507,0.025956715,0.044909026,-0.043034274,0.24053308,-0.33175087,-0.50888187,0.7257909,0.75317484,87.44591,0.1,-0.014231507,0.32111982,0.23252603,0.15887587,0.09426485,inf,inf,inf,inf,1,1,1,1,2,0,2,2,1,1,0
291806267,36228709,49.089340799999995,2.11074,37.80725,-24.312586,1.4761266,0.042987414,0.0071393196,0.0,0.045299277,0.032194328,0.0075836414,0.0152330715,0.044909026,-0.043034274,0.24053308,-0.060089923,0.035341132,0.4246281,0.7535309,87.44591,0.1,-0.0075836414,0.30935964,0.23260123,0.15440029,0.09405046,inf,inf,inf,inf,1,1,1,1,2,0,2,2,1,1,0
291901464,36228709,49.089340799999995,2.11074,37.809044,-24.314228,1.4710813,0.042987414,0.0071393196,0.0,0.045628328,0.027139721,0.005823421,0.006862019,0.044909026,-0.043034274,0.24053308,0.040976267,-0.16817233,0.14558208,0.7532678,87.44591,0.1,-0.005823421,0.32059622,0.23315203,0.15870321,0.0944128,inf,inf,inf,inf,1,1,1,1,2,0,2,2,1,1,0
292005465,36228709,49.089340799999995,2.11074,37.80987,-24.317783,1.4638301,0.042987414,0.0071393196,0.0,0.043535396,0.02300014,0.0014803505,-0.0048672208,0.044909026,-0.043034274,0.24053308,-0.39614695,-0.75261265,0.78868026,0.7535266,87.44591,0.1,-0.0014803505,0.3088179,0.23322156,0.15424654,0.094195426,inf,inf,inf,inf,1,1,1,1,2,0,2,2,1,1,0
292104664,36228709,49.089340799999995,2.11074,37.81127,-24.319916,1.4619004,0.042987414,0.0071393196,0.0,0.043578386,0.026373567,0.00021878481,-0.0072808866,0.044909026,-0.043034274,0.24053308,0.066624984,0.21267736,-0.15005296,0.7534919,87.44591,0.1,-0.00021878481,0.31995243,0.23371676,0.15854003,0.09455016,inf,inf,inf,inf,1,1,1,1,2,0,2,2,1,1,0
