timestamp,roll,pitch,yaw,thrust_body[0],thrust_body[1],thrust_body[2]
9276190,0.21286947,-0.22214802,-0.049412213,0.0,0.0,0.0
9280125,0.21285549,-0.2221647,-0.049411602,0.0,0.0,0.0
9284132,0.21213062,-0.22219115,-0.049145624,0.0,0.0,0.0
9288229,0.21210536,-0.22219041,-0.049143333,0.0,0.0,0.0
9292110,0.2121043,-0.22217663,-0.049142703,0.0,0.0,0.0
9296108,0.2121256,-0.2221832,-0.04914487,0.0,0.0,0.0
9300234,0.21212226,-0.22220844,-0.049145546,0.0,0.0,0.0
9304182,0.21211097,-0.22221304,-0.049144708,0.0,0.0,0.0
9308165,0.2105509,-0.22223203,-0.048560463,0.0,0.0,0.0
9312206,0.21056172,-0.22221631,-0.048560824,0.0,0.0,0.0
9316069,0.21056691,-0.22221643,-0.048561294,0.0,0.0,0.0
9320104,0.21058995,-0.22222461,-0.048563674,0.0,0.0,0.0
9324342,0.2106199,-0.22224869,-0.04856729,0.0,0.0,0.0
9328165,0.21064244,-0.22225994,-0.048569743,0.0,0.0,0.0
9332193,0.21022214,-0.22227833,-0.04840784,0.0,0.0,0.0
9336153,0.21023586,-0.22228943,-0.04840951,0.0,0.0,0.0
9340128,0.21025506,-0.22229815,-0.048411567,0.0,0.0,0.0
9344123,0.21029873,-0.2223081,-0.048415866,0.0,0.0,0.0
9348239,0.21033713,-0.22232966,-0.048420142,0.0,0.0,0.0
9352148,0.21038213,-0.22235197,-0.048425037,0.0,0.0,0.0
9356121,0.21057005,-0.22235343,-0.048482943,0.0,0.0,0.0
9360209,0.21062441,-0.22233576,-0.04848713,0.0,0.0,0.0
9364158,0.21068244,-0.22234023,-0.048492514,0.0,0.0,0.0
9368170,0.21074596,-0.2223432,-0.04849832,0.0,0.0,0.0
9372215,0.21080637,-0.2223449,-0.04850381,0.0,0.0,0.0
9376100,0.21086657,-0.22233404,-0.048508786,0.0,0.0,0.0
9380169,0.21106282,-0.22233544,-0.048566043,0.0,0.0,0.0
9384178,0.21112724,-0.22233753,-0.048571903,0.0,0.0,0.0
9388141,0.21120523,-0.22234532,-0.048579205,0.0,0.0,0.0
9392220,0.21128005,-0.22234176,-0.048585776,0.0,0.0,0.0
9396205,0.21133989,-0.22235455,-0.04859164,0.0,0.0,0.0
9400143,0.21144338,-0.22236942,-0.048608113,0.0,0.0,0.0
9404200,0.21152404,-0.22238052,-0.04861578,0.0,0.0,0.0
9408149,0.21161899,-0.22239512,-0.04862487,0.0,0.0,0.0
9412132,0.2117196,-0.22241002,-0.048634477,0.0,0.0,0.0
9416188,0.21179892,-0.22241068,-0.048641615,0.0,0.0,0.0
9420175,0.21188267,-0.2224146,-0.048649285,0.0,0.0,0.0
9424124,0.2119597,-0.22242926,-0.048651464,0.0,0.0,0.0
9428225,0.2120764,-0.2224326,-0.04866206,0.0,0.0,0.0
9432182,0.21219288,-0.22244588,-0.04867304,0.0,0.0,0.0
9436168,0.2122938,-0.22243643,-0.04868172,0.0,0.0,0.0
9440208,0.21240093,-0.22244455,-0.048691653,0.0,0.0,0.0
9444212,0.21250667,-0.22244918,-0.048701327,0.0,0.0,0.0
9448106,0.21361127,-0.22244686,-0.049089644,0.0,0.0,0.0
9452239,0.2137149,-0.22244953,-0.049099058,0.0,0.0,0.0
9456168,0.21382654,-0.22246194,-0.049109567,0.0,0.0,0.0
9460110,0.21394797,-0.22247152,-0.049120847,0.0,0.0,0.0
9464239,0.21406503,-0.22247347,-0.049131427,0.0,0.0,0.0
9468173,0.21416296,-0.222487,-0.049140755,0.0,0.0,0.0
9472189,0.21565753,-0.22248729,-0.049675398,0.0,0.0,0.0
9476220,0.215755,-0.22250418,-0.049684815,0.0,0.0,0.0
9480101,0.21586011,-0.22251733,-0.049694777,0.0,0.0,0.0
9484134,0.2159473,-0.22252642,-0.04970297,0.0,0.0,0.0
9488171,0.21605696,-0.22252528,-0.04971277,0.0,0.0,0.0
9492142,0.21616967,-0.22253269,-0.04972319,0.0,0.0,0.0
9496204,0.21659788,-0.22254395,-0.049853425,0.0,0.0,0.0
9500149,0.21670449,-0.22255473,-0.049863428,0.0,0.0,0.0
9504147,0.21680754,-0.22256719,-0.049873177,0.0,0.0,0.0
9508168,0.21691309,-0.22256054,-0.049882393,0.0,0.0,0.0
9512147,0.21704628,-0.2225464,-0.049893793,0.0,0.0,0.0
9516167,0.21715073,-0.22253998,-0.04990292,0.0,0.0,0.0
9520176,0.21711236,-0.22252887,-0.04985436,0.0,0.0,0.0
9524208,0.2172472,-0.22252426,-0.049866285,0.0,0.0,0.0
9528142,0.21735261,-0.22251219,-0.04987527,0.0,0.0,0.0
9532147,0.21744616,-0.2225135,-0.049883727,0.0,0.0,0.0
9536190,0.21753635,-0.22252734,-0.049892377,0.0,0.0,0.0
9540138,0.21763803,-0.22253542,-0.04990184,0.0,0.0,0.0
9544264,0.21660236,-0.2225654,-0.049483154,0.0,0.0,0.0
9548126,0.21670687,-0.22254424,-0.04949169,0.0,0.0,0.0
9551298,0.21678549,-0.22254586,-0.04949882,0.0,0.0,0.0
9554574,0.21685956,-0.22254705,-0.049505517,0.0,0.0,0.0
9558588,0.21695115,-0.22253641,-0.049513314,0.0,0.0,0.0
9635325,0.21658018,-0.2225416,-0.049118012,0.0,0.0,0.0
9639387,0.21660961,-0.22254388,-0.049120747,0.0,0.0,0.0
9643411,0.21661788,-0.22254099,-0.049121372,0.0,0.0,0.0
9647399,0.21662869,-0.22254658,-0.04912257,0.0,0.0,0.0
9651357,0.21621251,-0.22254737,-0.048963476,0.0,0.0,0.0
9655385,0.21622865,-0.222543,-0.048964746,0.0,0.0,0.0
9659380,0.21624243,-0.22255658,-0.048966542,0.0,0.0,0.0
9667409,0.21624954,-0.22257583,-0.048967965,0.0,0.0,0.0
9671399,0.21622856,-0.22258563,-0.04896649,0.0,0.0,0.0
9675318,0.21632373,-0.22260052,-0.049011156,0.0,0.0,0.0
9679428,0.21628521,-0.2226208,-0.04900853,0.0,0.0,0.0
9683334,0.21626587,-0.2226241,-0.049006928,0.0,0.0,0.0
9687329,0.21624725,-0.22263967,-0.049005896,0.0,0.0,0.0
9691399,0.21622571,-0.22263695,-0.049003847,0.0,0.0,0.0
9695338,0.21619782,-0.2226453,-0.04900168,0.0,0.0,0.0
9699355,0.21629745,-0.22264056,-0.0490474,0.0,0.0,0.0
9703416,0.21627314,-0.22264701,-0.049045485,0.0,0.0,0.0
9707350,0.21625167,-0.22264932,-0.049043648,0.0,0.0,0.0
9711326,0.21621968,-0.22264086,-0.04904043,0.0,0.0,0.0
9715414,0.21616447,-0.22263005,-0.04903502,0.0,0.0,0.0
9719397,0.21611428,-0.22264555,-0.049031146,0.0,0.0,0.0
9723312,0.21608637,-0.2226487,-0.049035463,0.0,0.0,0.0
9727391,0.21601717,-0.22267048,-0.049030136,0.0,0.0,0.0
9731359,0.21594556,-0.22268045,-0.049024105,0.0,0.0,0.0
9735400,0.21587807,-0.22268812,-0.049018364,0.0,0.0,0.0
9739427,0.21581453,-0.22268745,-0.049012616,0.0,0.0,0.0
9743358,0.21573347,-0.22268848,-0.049005374,0.0,0.0,0.0
9747310,0.21564782,-0.22267824,-0.048992496,0.0,0.0,0.0
9751420,0.21557039,-0.2226648,-0.048985,0.0,0.0,0.0
9755369,0.21547952,-0.22267343,-0.04897718,0.0,0.0,0.0
9759378,0.21538752,-0.22267158,-0.048968837,0.0,0.0,0.0
9763343,0.21529587,-0.22268301,-0.04896107,0.0,0.0,0.0
9767372,0.21518844,-0.22269616,-0.04895194,0.0,0.0,0.0
9771326,0.21510068,-0.22270165,-0.048941206,0.0,0.0,0.0
9775429,0.21501121,-0.22270007,-0.048933104,0.0,0.0,0.0
9779384,0.21492057,-0.22268754,-0.048924446,0.0,0.0,0.0
9783335,0.21481872,-0.2226719,-0.048914667,0.0,0.0,0.0
9787381,0.2147056,-0.22267622,-0.04890468,0.0,0.0,0.0
9791387,0.2146111,-0.22267792,-0.048896253,0.0,0.0,0.0
9795373,0.21452653,-0.22266644,-0.048887994,0.0,0.0,0.0
9799556,0.21444024,-0.22266075,-0.04888001,0.0,0.0,0.0
9803313,0.21434455,-0.22266051,-0.048871398,0.0,0.0,0.0
9807348,0.21424086,-0.22269183,-0.04886334,0.0,0.0,0.0
9811420,0.21415804,-0.22270879,-0.048856582,0.0,0.0,0.0
9815428,0.2140862,-0.22269979,-0.048849765,0.0,0.0,0.0
9819393,0.21398287,-0.22269553,-0.048840832,0.0,0.0,0.0
9823397,0.2138874,-0.22269724,-0.048832323,0.0,0.0,0.0
9827293,0.21379158,-0.22272348,-0.048824754,0.0,0.0,0.0
9831350,0.2136925,-0.22273612,-0.048816357,0.0,0.0,0.0
9834507,0.21361998,-0.22274554,-0.048810218,0.0,0.0,0.0
9837789,0.21353118,-0.2227648,-0.048802998,0.0,0.0,0.0
9842536,0.2134166,-0.22277206,-0.048793223,0.0,0.0,0.0
9846564,0.21331055,-0.22279502,-0.048784602,0.0,0.0,0.0
9849848,0.21321844,-0.22281091,-0.048776954,0.0,0.0,0.0
9854573,0.21310864,-0.2228473,-0.048768524,0.0,0.0,0.0
9858560,0.21301739,-0.22287622,-0.04876147,0.0,0.0,0.0
9862644,0.21290448,-0.22287674,-0.04875132,0.0,0.0,0.0
9866629,0.21278374,-0.22287162,-0.048740257,0.0,0.0,0.0
9869676,0.21267684,-0.22286841,-0.048730522,0.0,0.0,0.0
9873810,0.21255843,-0.22287709,-0.048720215,0.0,0.0,0.0
9878535,0.21242651,-0.2229074,-0.048709545,0.0,0.0,0.0
9882544,0.21231976,-0.22291312,-0.04870017,0.0,0.0,0.0
9886638,0.21221605,-0.22291051,-0.04869069,0.0,0.0,0.0
9889715,0.21211231,-0.22290343,-0.04868108,0.0,0.0,0.0
9894487,0.21200423,-0.22292604,-0.04867225,0.0,0.0,0.0
9898605,0.21191005,-0.22293822,-0.04866426,0.0,0.0,0.0
9902515,0.21182317,-0.22294311,-0.048656635,0.0,0.0,0.0
9906591,0.2117345,-0.22292665,-0.048647996,0.0,0.0,0.0
9910575,0.21165031,-0.22290991,-0.04863977,0.0,0.0,0.0
9914631,0.21155874,-0.22288786,-0.048630673,0.0,0.0,0.0
9918506,0.2114602,-0.22288725,-0.048621804,0.0,0.0,0.0
9922590,0.21137652,-0.22288792,-0.0486143,0.0,0.0,0.0
9926588,0.21128483,-0.22287725,-0.048605643,0.0,0.0,0.0
9930564,0.21120088,-0.22286338,-0.048597556,0.0,0.0,0.0
9934626,0.21112172,-0.22286007,-0.04859031,0.0,0.0,0.0
9938568,0.2110491,-0.22286618,-0.04858402,0.0,0.0,0.0
9942491,0.21097818,-0.2228673,-0.048577685,0.0,0.0,0.0
9946749,0.21088453,-0.2228623,-0.04856907,0.0,0.0,0.0
9950463,0.21078505,-0.22286579,-0.04856027,0.0,0.0,0.0
9954583,0.21070513,-0.2228569,-0.048552744,0.0,0.0,0.0
9958623,0.21062553,-0.22284038,-0.04854495,0.0,0.0,0.0
9962523,0.2105499,-0.22283669,-0.048538014,0.0,0.0,0.0
9966582,0.21048923,-0.22284104,-0.048532724,0.0,0.0,0.0
9970611,0.21041915,-0.22283976,-0.048526373,0.0,0.0,0.0
9974532,0.2103691,-0.22285075,-0.0485223,0.0,0.0,0.0
9978521,0.21134709,-0.22283588,-0.04890201,0.0,0.0,0.0
9982615,0.21131043,-0.22284779,-0.048899166,0.0,0.0,0.0
9986603,0.21126497,-0.22285289,-0.04889528,0.0,0.0,0.0
9990515,0.21122532,-0.22286016,-0.048892,0.0,0.0,0.0
9994609,0.21119978,-0.22287801,-0.048890382,0.0,0.0,0.0
9998608,0.2111877,-0.22288767,-0.04888967,0.0,0.0,0.0
10002529,0.21256143,-0.22289234,-0.04941374,0.0,0.0,0.0
10006637,0.21253997,-0.22291099,-0.04941253,0.0,0.0,0.0
10010620,0.21251437,-0.22289266,-0.04940952,0.0,0.0,0.0
10014566,0.21249597,-0.2229016,-0.049408212,0.0,0.0,0.0
10018586,0.21247873,-0.22291258,-0.049407076,0.0,0.0,0.0
10022464,0.21246181,-0.22292677,-0.0494061,0.0,0.0,0.0
10026616,0.21175589,-0.2229521,-0.049141947,0.0,0.0,0.0
10030560,0.21173848,-0.22295728,-0.049140587,0.0,0.0,0.0
10034599,0.21173654,-0.22293042,-0.04913938,0.0,0.0,0.0
10038554,0.2117381,-0.22294353,-0.049140025,0.0,0.0,0.0
10042601,0.21173151,-0.2229308,-0.04913895,0.0,0.0,0.0
10046573,0.21171904,-0.22292462,-0.049137585,0.0,0.0,0.0
10050509,0.21017075,-0.22295406,-0.04855426,0.0,0.0,0.0
10054753,0.21019332,-0.22295691,-0.048556395,0.0,0.0,0.0
10058579,0.21021716,-0.22293167,-0.048557572,0.0,0.0,0.0
10062489,0.21023625,-0.22291794,-0.048558764,0.0,0.0,0.0
10066630,0.21025734,-0.2229022,-0.048560053,0.0,0.0,0.0
10069738,0.21027291,-0.22287962,-0.04856058,0.0,0.0,0.0
10074622,0.21088786,-0.22285663,-0.04878229,0.0,0.0,0.0
10078593,0.21090975,-0.2228341,-0.048783395,0.0,0.0,0.0
10082610,0.21091382,-0.22282481,-0.0487834,0.0,0.0,0.0
10086555,0.21092142,-0.22281499,-0.04878371,0.0,0.0,0.0
10090592,0.21094564,-0.22279747,-0.048785206,0.0,0.0,0.0
10094601,0.21099809,-0.22278418,-0.048789416,0.0,0.0,0.0
10098565,0.21259059,-0.2227381,-0.049372185,0.0,0.0,0.0
10102558,0.21264124,-0.22271867,-0.049375992,0.0,0.0,0.0
10106510,0.21270402,-0.22270809,-0.049381223,0.0,0.0,0.0
10110536,0.21276154,-0.22270457,-0.049386255,0.0,0.0,0.0
10114725,0.21282156,-0.2227012,-0.04939151,0.0,0.0,0.0
10118644,0.21288487,-0.2227173,-0.049397822,0.0,0.0,0.0
10122501,0.21341531,-0.22269739,-0.04957509,0.0,0.0,0.0
10126604,0.21350126,-0.22270207,-0.049583,0.0,0.0,0.0
10129762,0.21356896,-0.22271197,-0.049589463,0.0,0.0,0.0
10134599,0.21369061,-0.222706,-0.04960016,0.0,0.0,0.0
10138642,0.21379249,-0.2227219,-0.04960993,0.0,0.0,0.0
10142571,0.21387781,-0.22275476,-0.049618866,0.0,0.0,0.0
10146535,0.21382643,-0.22276665,-0.04957644,0.0,0.0,0.0
10149845,0.21388422,-0.22274953,-0.049580965,0.0,0.0,0.0
10153697,0.21396379,-0.22276656,-0.049588777,0.0,0.0,0.0
10156907,0.2140387,-0.22279117,-0.049596466,0.0,0.0,0.0
10161822,0.2141871,-0.22279538,-0.04960997,0.0,0.0,0.0
10165670,0.21430513,-0.22279397,-0.04962052,0.0,0.0,0.0
10169746,0.21325964,-0.22282793,-0.049195822,0.0,0.0,0.0
10173826,0.21336584,-0.22281942,-0.04920504,0.0,0.0,0.0
10177839,0.21348752,-0.22281301,-0.049215723,0.0,0.0,0.0
10181719,0.21361455,-0.22281626,-0.04922727,0.0,0.0,0.0
10185854,0.21372548,-0.22281042,-0.049237013,0.0,0.0,0.0
10189784,0.21383947,-0.22279194,-0.04924654,0.0,0.0,0.0
10193722,0.21253105,-0.2228066,-0.048721913,0.0,0.0,0.0
10198016,0.21265519,-0.22278863,-0.04873236,0.0,0.0,0.0
10201732,0.21279007,-0.22276089,-0.048743393,0.0,0.0,0.0
10205666,0.21290582,-0.22274967,-0.04875336,0.0,0.0,0.0
10209974,0.2130344,-0.22273952,-0.048764504,0.0,0.0,0.0
10213707,0.21315128,-0.22273692,-0.048774906,0.0,0.0,0.0
10217860,0.21297646,-0.22272958,-0.04867331,0.0,0.0,0.0
10221797,0.2130861,-0.22271997,-0.04868278,0.0,0.0,0.0
10225702,0.2132073,-0.22270733,-0.048693165,0.0,0.0,0.0
10229767,0.21332836,-0.22270198,-0.04870383,0.0,0.0,0.0
10233799,0.21341874,-0.22270022,-0.04871189,0.0,0.0,0.0
10237806,0.21353343,-0.22268273,-0.04872149,0.0,0.0,0.0
10241784,0.21381964,-0.22266895,-0.048794843,0.0,0.0,0.0
10245825,0.21391958,-0.22266719,-0.048803754,0.0,0.0,0.0
10249752,0.21401905,-0.22264613,-0.04881185,0.0,0.0,0.0
10253683,0.21411395,-0.22264591,-0.048820365,0.0,0.0,0.0
10257978,0.21421455,-0.22262333,-0.048828498,0.0,0.0,0.0
10261743,0.21429251,-0.22261642,-0.048835225,0.0,0.0,0.0
10265725,0.2144906,-0.22261001,-0.048887342,0.0,0.0,0.0
10269938,0.21458094,-0.22260582,-0.048895277,0.0,0.0,0.0
10273662,0.2146548,-0.2226003,-0.048901696,0.0,0.0,0.0
10277772,0.2147224,-0.22260109,-0.0489078,0.0,0.0,0.0
10281828,0.21479094,-0.22258922,-0.04891348,0.0,0.0,0.0
10285708,0.21485145,-0.2225876,-0.048918847,0.0,0.0,0.0
10289801,0.21593846,-0.22258209,-0.04931207,0.0,0.0,0.0
10293783,0.2159922,-0.22258136,-0.049316864,0.0,0.0,0.0
10297782,0.21604869,-0.22258292,-0.049322005,0.0,0.0,0.0
10301747,0.21611021,-0.22258452,-0.049327593,0.0,0.0,0.0
10305801,0.2161604,-0.2225824,-0.049332015,0.0,0.0,0.0
10309810,0.21619542,-0.22259423,-0.04933564,0.0,0.0,0.0
10313693,0.21760117,-0.22257729,-0.04985624,0.0,0.0,0.0
10317942,0.21764238,-0.22256865,-0.049859595,0.0,0.0,0.0
10321700,0.21766403,-0.2225789,-0.049861956,0.0,0.0,0.0
10325788,0.21768838,-0.22256942,-0.049863763,0.0,0.0,0.0
10329969,0.21768692,-0.22256441,-0.049863428,0.0,0.0,0.0
10333686,0.21767314,-0.22255324,-0.049861737,0.0,0.0,0.0
10337803,0.2169546,-0.222574,-0.049593598,0.0,0.0,0.0
10341781,0.21692497,-0.22257705,-0.049591057,0.0,0.0,0.0
10345746,0.21690924,-0.22257644,-0.049589623,0.0,0.0,0.0
10349823,0.21689467,-0.22257291,-0.04958817,0.0,0.0,0.0
10353846,0.21685691,-0.22255573,-0.049584087,0.0,0.0,0.0
10357805,0.21681638,-0.2225394,-0.049579784,0.0,0.0,0.0
10361696,0.21521775,-0.22255576,-0.048991486,0.0,0.0,0.0
10365801,0.21518005,-0.22256877,-0.04898863,0.0,0.0,0.0
10369786,0.21512417,-0.22257486,-0.048983853,0.0,0.0,0.0
10373674,0.21506695,-0.22258107,-0.048978966,0.0,0.0,0.0
10377989,0.21500957,-0.22257231,-0.04897346,0.0,0.0,0.0
10381691,0.21494065,-0.22254413,-0.048966132,0.0,0.0,0.0
10385758,0.21544981,-0.22253092,-0.049179263,0.0,0.0,0.0
10389854,0.21538265,-0.22253433,-0.049173366,0.0,0.0,0.0
10393726,0.21533285,-0.22254938,-0.049169503,0.0,0.0,0.0
10397776,0.21526054,-0.22255127,-0.049163084,0.0,0.0,0.0
10401769,0.21517514,-0.22256932,-0.049156133,0.0,0.0,0.0
10405719,0.21506724,-0.22260949,-0.049148053,0.0,0.0,0.0
10409951,0.21651845,-0.22259355,-0.049719498,0.0,0.0,0.0
10413748,0.21643056,-0.22259744,-0.049711764,0.0,0.0,0.0
10417837,0.21635792,-0.22261196,-0.04970582,0.0,0.0,0.0
10421651,0.21625337,-0.22262508,-0.04969695,0.0,0.0,0.0
10425798,0.21614394,-0.22262673,-0.049687184,0.0,0.0,0.0
10429791,0.21601734,-0.22265345,-0.049676873,0.0,0.0,0.0
10433697,0.21534835,-0.2227036,-0.04945666,0.0,0.0,0.0
10437993,0.21523583,-0.22273874,-0.049447943,0.0,0.0,0.0
10441652,0.21511658,-0.22273469,-0.04943706,0.0,0.0,0.0
10445732,0.21499647,-0.22274639,-0.049426727,0.0,0.0,0.0
10449987,0.21487232,-0.22273335,-0.049415056,0.0,0.0,0.0
10453685,0.21474677,-0.22271907,-0.049403206,0.0,0.0,0.0
10457848,0.21310087,-0.22275457,-0.048817918,0.0,0.0,0.0
10461768,0.21297096,-0.22275509,-0.048806258,0.0,0.0,0.0
10465775,0.2128618,-0.22275499,-0.048796438,0.0,0.0,0.0
10469793,0.2127577,-0.22277276,-0.04878779,0.0,0.0,0.0
10473843,0.21264118,-0.22278103,-0.04877764,0.0,0.0,0.0
10477819,0.21252929,-0.2227763,-0.0487674,0.0,0.0,0.0
10481700,0.21193294,-0.22278786,-0.048583854,0.0,0.0,0.0
10485961,0.21180645,-0.22278273,-0.048572294,0.0,0.0,0.0
10489789,0.21167196,-0.22277883,-0.04856005,0.0,0.0,0.0
10493720,0.21154758,-0.22277789,-0.04854884,0.0,0.0,0.0
10500910,0.21132588,-0.22276069,-0.048528243,0.0,0.0,0.0
10504900,0.21133977,-0.22273925,-0.048566382,0.0,0.0,0.0
10509142,0.21123137,-0.22272825,-0.048556212,0.0,0.0,0.0
10512865,0.21111013,-0.22272934,-0.048545364,0.0,0.0,0.0
10516964,0.2109967,-0.22273725,-0.048535477,0.0,0.0,0.0
10521022,0.21087915,-0.22273293,-0.04852475,0.0,0.0,0.0
10524943,0.21075253,-0.22272892,-0.04851321,0.0,0.0,0.0
10528901,0.21076305,-0.22273666,-0.048553944,0.0,0.0,0.0
10532969,0.21066195,-0.22275299,-0.04854549,0.0,0.0,0.0
10536950,0.21055315,-0.22277589,-0.0485366,0.0,0.0,0.0
10540940,0.2104523,-0.22278982,-0.04852808,0.0,0.0,0.0
10545038,0.21034372,-0.22280455,-0.048518885,0.0,0.0,0.0
10548911,0.21025205,-0.22281878,-0.048511192,0.0,0.0,0.0
10552942,0.21018834,-0.22282761,-0.048513006,0.0,0.0,0.0
10556962,0.21010777,-0.2228249,-0.04850566,0.0,0.0,0.0
10560923,0.21002312,-0.22282617,-0.048498098,0.0,0.0,0.0
10564980,0.20994405,-0.22284122,-0.04849157,0.0,0.0,0.0
10568911,0.20986721,-0.22284009,-0.04848462,0.0,0.0,0.0
10572880,0.20976985,-0.22283846,-0.048475813,0.0,0.0,0.0
10576968,0.20966704,-0.22284055,-0.04846158,0.0,0.0,0.0
10580930,0.2096004,-0.2228483,-0.048455887,0.0,0.0,0.0
10584937,0.20955123,-0.22285034,-0.048451543,0.0,0.0,0.0
10589072,0.20947295,-0.22285418,-0.04844465,0.0,0.0,0.0
10592933,0.20940344,-0.22285564,-0.04843846,0.0,0.0,0.0
10596912,0.20932062,-0.22284423,-0.048427302,0.0,0.0,0.0
10600975,0.20925803,-0.22284622,-0.04842175,0.0,0.0,0.0
10604937,0.20920709,-0.2228545,-0.04841749,0.0,0.0,0.0
10608867,0.20916748,-0.2228642,-0.048414297,0.0,0.0,0.0
10612968,0.20910726,-0.22288121,-0.04840953,0.0,0.0,0.0
10616917,0.20905909,-0.22290078,-0.048405945,0.0,0.0,0.0
10621006,0.20902541,-0.22290567,-0.048402883,0.0,0.0,0.0
10624972,0.20899422,-0.22290085,-0.0483999,0.0,0.0,0.0
10628916,0.20896497,-0.22289832,-0.048397172,0.0,0.0,0.0
10632986,0.20895585,-0.22290935,-0.04839677,0.0,0.0,0.0
10636857,0.20894018,-0.22289552,-0.048394836,0.0,0.0,0.0
10640954,0.20893914,-0.22287795,-0.04839463,0.0,0.0,0.0
10645007,0.20893495,-0.22289349,-0.048394844,0.0,0.0,0.0
10648907,0.20894574,-0.22290094,-0.048396096,0.0,0.0,0.0
10652934,0.20895977,-0.22289795,-0.048397247,0.0,0.0,0.0
10656956,0.20897292,-0.2228728,-0.04839747,0.0,0.0,0.0
10660934,0.20898089,-0.2228609,-0.048397735,0.0,0.0,0.0
10664947,0.20899032,-0.22285603,-0.048398655,0.0,0.0,0.0
10668972,0.20901957,-0.22285715,-0.048401322,0.0,0.0,0.0
10672922,0.20904589,-0.2228521,-0.048403498,0.0,0.0,0.0
10676865,0.20907241,-0.22285226,-0.04840589,0.0,0.0,0.0
10680993,0.20912248,-0.22286703,-0.048410952,0.0,0.0,0.0
10684923,0.20916913,-0.2228754,-0.048415463,0.0,0.0,0.0
10688924,0.20922145,-0.22289583,-0.048420925,0.0,0.0,0.0
10693007,0.20928833,-0.22288166,-0.0484264,0.0,0.0,0.0
10696871,0.20935935,-0.22286634,-0.0484322,0.0,0.0,0.0
10700928,0.20941907,-0.22286169,-0.04843739,0.0,0.0,0.0
10705010,0.20948496,-0.22286081,-0.048443276,0.0,0.0,0.0
10708944,0.2095577,-0.22283658,-0.048448887,0.0,0.0,0.0
10712969,0.20961334,-0.22280401,-0.048452586,0.0,0.0,0.0
10716935,0.20967557,-0.2228012,-0.048458073,0.0,0.0,0.0
10720886,0.20975405,-0.22281438,-0.048465632,0.0,0.0,0.0
10725018,0.20984016,-0.22280869,-0.048473153,0.0,0.0,0.0
10728918,0.20991911,-0.22278118,-0.048479192,0.0,0.0,0.0
10732966,0.2100022,-0.22278082,-0.048486628,0.0,0.0,0.0
10736951,0.2101016,-0.22277533,-0.04849535,0.0,0.0,0.0
10740902,0.21020506,-0.2227636,-0.0485042,0.0,0.0,0.0
10744916,0.2102866,-0.2227564,-0.04851124,0.0,0.0,0.0
10749019,0.2103614,-0.22274098,-0.048517372,0.0,0.0,0.0
10753019,0.21044935,-0.22271684,-0.048524342,0.0,0.0,0.0
10756856,0.21055572,-0.22270314,-0.04853337,0.0,0.0,0.0
10760982,0.21064821,-0.22269674,-0.04854143,0.0,0.0,0.0
10764864,0.21075,-0.22269557,-0.048550528,0.0,0.0,0.0
10768924,0.21086207,-0.22269621,-0.048560623,0.0,0.0,0.0
10773017,0.21098287,-0.22270074,-0.048571646,0.0,0.0,0.0
10776943,0.21109688,-0.2227027,-0.048581965,0.0,0.0,0.0
10780914,0.21119097,-0.22271563,-0.04859093,0.0,0.0,0.0
10784984,0.21129832,-0.22272043,-0.04860076,0.0,0.0,0.0
10788934,0.2113992,-0.22272496,-0.04861,0.0,0.0,0.0
10792118,0.21147922,-0.22273895,-0.04861773,0.0,0.0,0.0
10796212,0.21159235,-0.22273879,-0.048627887,0.0,0.0,0.0
10800182,0.21172036,-0.22272491,-0.04863885,0.0,0.0,0.0
10804131,0.21185496,-0.22271292,-0.048650477,0.0,0.0,0.0
10808204,0.2119932,-0.22271012,-0.048662793,0.0,0.0,0.0
10812150,0.21212783,-0.22271211,-0.048674963,0.0,0.0,0.0
10816166,0.2122588,-0.22270815,-0.048686575,0.0,0.0,0.0
10820224,0.21239585,-0.22271933,-0.048699323,0.0,0.0,0.0
10824120,0.21252896,-0.22270982,-0.048710916,0.0,0.0,0.0
10828106,0.2126629,-0.22269748,-0.04872246,0.0,0.0,0.0
10832194,0.21279813,-0.22269782,-0.04873463,0.0,0.0,0.0
10836148,0.21292664,-0.2226922,-0.04874595,0.0,0.0,0.0
10840144,0.21305536,-0.2226987,-0.04875777,0.0,0.0,0.0
10844358,0.21318625,-0.22271937,-0.048770353,0.0,0.0,0.0
10848124,0.21330944,-0.22272564,-0.04878167,0.0,0.0,0.0
10852104,0.21342818,-0.22272088,-0.04879215,0.0,0.0,0.0
10856259,0.21356268,-0.22272079,-0.048804235,0.0,0.0,0.0
10860120,0.21367475,-0.22270966,-0.048813865,0.0,0.0,0.0
10864158,0.2137908,-0.2227004,-0.048823923,0.0,0.0,0.0
10868224,0.21392058,-0.22270717,-0.048835848,0.0,0.0,0.0
10872116,0.21404046,-0.22272359,-0.048847284,0.0,0.0,0.0
10876140,0.21415481,-0.22271912,-0.048857383,0.0,0.0,0.0
10880190,0.21425617,-0.22272381,-0.048866674,0.0,0.0,0.0
10884151,0.21434936,-0.2227253,-0.048875112,0.0,0.0,0.0
10888133,0.21444981,-0.22270748,-0.04888343,0.0,0.0,0.0
10892222,0.21453528,-0.22268774,-0.048890315,0.0,0.0,0.0
10896138,0.21462932,-0.22268945,-0.048898835,0.0,0.0,0.0
10900133,0.21573801,-0.22267526,-0.049290318,0.0,0.0,0.0
10904220,0.21583328,-0.22268361,-0.049299218,0.0,0.0,0.0
10908107,0.2159279,-0.2226645,-0.049306948,0.0,0.0,0.0
10912068,0.21599571,-0.22266026,-0.049312875,0.0,0.0,0.0
10916233,0.21606404,-0.22265615,-0.04931884,0.0,0.0,0.0
10920162,0.21613073,-0.22267231,-0.04932549,0.0,0.0,0.0
10924167,0.2175734,-0.22265159,-0.049854793,0.0,0.0,0.0
10928232,0.21762282,-0.22266069,-0.049859602,0.0,0.0,0.0
10932067,0.21766208,-0.22265947,-0.04986308,0.0,0.0,0.0
10936121,0.21769512,-0.22267312,-0.049866606,0.0,0.0,0.0
10940210,0.21774137,-0.22268406,-0.0498712,0.0,0.0,0.0
10944206,0.21776755,-0.22268437,-0.049873568,0.0,0.0,0.0
10948159,0.21708596,-0.22270273,-0.049611352,0.0,0.0,0.0
10952196,0.21707678,-0.22269742,-0.049610317,0.0,0.0,0.0
10956120,0.21708,-0.22267656,-0.04960975,0.0,0.0,0.0
10960124,0.2170761,-0.22268215,-0.04960963,0.0,0.0,0.0
10964362,0.21707767,-0.22268572,-0.04960992,0.0,0.0,0.0
10968156,0.21707839,-0.22268324,-0.04960988,0.0,0.0,0.0
10972099,0.21550399,-0.22271776,-0.049024418,0.0,0.0,0.0
10976197,0.21548405,-0.22271812,-0.049022645,0.0,0.0,0.0
10980114,0.21545283,-0.22273009,-0.049020324,0.0,0.0,0.0
10984208,0.21542102,-0.22274806,-0.049018186,0.0,0.0,0.0
10988219,0.2153752,-0.22274822,-0.049014077,0.0,0.0,0.0
10992093,0.21532772,-0.22274362,-0.049009625,0.0,0.0,0.0
10996079,0.21485391,-0.22273852,-0.048841756,0.0,0.0,0.0
11000190,0.2147918,-0.22274366,-0.048836377,0.0,0.0,0.0
11004188,0.21472655,-0.22273578,-0.048830193,0.0,0.0,0.0
11008181,0.21465585,-0.22273238,-0.0488237,0.0,0.0,0.0
11012228,0.21458483,-0.22273675,-0.048817497,0.0,0.0,0.0
11016115,0.21449533,-0.22274229,-0.048809677,0.0,0.0,0.0
11020072,0.21557392,-0.22273582,-0.049239744,0.0,0.0,0.0
11024357,0.2155143,-0.2227364,-0.049234413,0.0,0.0,0.0
11028154,0.21543017,-0.2227245,-0.049226366,0.0,0.0,0.0
11032163,0.21533366,-0.22271727,-0.04921741,0.0,0.0,0.0
11036221,0.21521565,-0.222692,-0.049205795,0.0,0.0,0.0
11040087,0.21510401,-0.22269331,-0.04919581,0.0,0.0,0.0
11044191,0.21654098,-0.22267117,-0.049764182,0.0,0.0,0.0
11048229,0.21644731,-0.22264856,-0.04975486,0.0,0.0,0.0
11052164,0.21631922,-0.22265734,-0.0497437,0.0,0.0,0.0
11056257,0.21619421,-0.22266357,-0.049732715,0.0,0.0,0.0
11060137,0.21605577,-0.22267076,-0.049720563,0.0,0.0,0.0
11064214,0.21594703,-0.22266036,-0.049710378,0.0,0.0,0.0
11068191,0.21513075,-0.22269048,-0.049443137,0.0,0.0,0.0
11072933,0.21495242,-0.2227047,-0.049427688,0.0,0.0,0.0
11076887,0.21481556,-0.22270735,-0.04941549,0.0,0.0,0.0
11080988,0.21466982,-0.22271076,-0.049402528,0.0,0.0,0.0
11084955,0.21451847,-0.22273754,-0.049389984,0.0,0.0,0.0
11088952,0.21279697,-0.2227799,-0.04878628,0.0,0.0,0.0
11092942,0.21264215,-0.22280546,-0.048773367,0.0,0.0,0.0
11096925,0.21250224,-0.22284415,-0.048762318,0.0,0.0,0.0
11100893,0.2123613,-0.2228825,-0.048751153,0.0,0.0,0.0
11105030,0.21222356,-0.22289899,-0.04873941,0.0,0.0,0.0
11108947,0.21208064,-0.22290112,-0.04872664,0.0,0.0,0.0
11112935,0.21248841,-0.22289596,-0.048927136,0.0,0.0,0.0
11116970,0.21233419,-0.22290908,-0.04891378,0.0,0.0,0.0
11120879,0.21218492,-0.22291574,-0.048900615,0.0,0.0,0.0
11125019,0.2120472,-0.22292452,-0.04888857,0.0,0.0,0.0
11128954,0.21190491,-0.22290908,-0.048875175,0.0,0.0,0.0
11132961,0.21330994,-0.22289293,-0.04944208,0.0,0.0,0.0
11136973,0.21318713,-0.22290702,-0.049431574,0.0,0.0,0.0
11140898,0.21306658,-0.22291939,-0.049421214,0.0,0.0,0.0
11144968,0.21293712,-0.22292356,-0.04940973,0.0,0.0,0.0
11148964,0.21281418,-0.22291872,-0.049398493,0.0,0.0,0.0
11152963,0.21266934,-0.22291283,-0.049385246,0.0,0.0,0.0
11156927,0.2119722,-0.22292115,-0.04916145,0.0,0.0,0.0
11160195,0.2118646,-0.22293045,-0.04915213,0.0,0.0,0.0
11164180,0.2117415,-0.22292304,-0.04914077,0.0,0.0,0.0
11167301,0.21165068,-0.22291954,-0.049132466,0.0,0.0,0.0
11171308,0.21155365,-0.22292578,-0.049123984,0.0,0.0,0.0
11175438,0.21146277,-0.22294098,-0.049116395,0.0,0.0,0.0
11179413,0.2098632,-0.22296844,-0.048535246,0.0,0.0,0.0
11183383,0.20977132,-0.22297089,-0.04852707,0.0,0.0,0.0
11187345,0.20965791,-0.2229613,-0.048516504,0.0,0.0,0.0
11191307,0.2095639,-0.2229779,-0.048508685,0.0,0.0,0.0
11195360,0.20945814,-0.22298546,-0.048499465,0.0,0.0,0.0
11199451,0.2093586,-0.22296312,-0.04848966,0.0,0.0,0.0
11203368,0.20879751,-0.22294284,-0.048308063,0.0,0.0,0.0
11207323,0.20868312,-0.22294754,-0.04829795,0.0,0.0,0.0
11211364,0.20859413,-0.22295105,-0.048290085,0.0,0.0,0.0
11214574,0.20852958,-0.2229535,-0.04828437,0.0,0.0,0.0
11219393,0.20845754,-0.22296716,-0.048278417,0.0,0.0,0.0
11223449,0.20838296,-0.22296317,-0.04827156,0.0,0.0,0.0
11227339,0.20845827,-0.22296429,-0.04831603,0.0,0.0,0.0
11231318,0.2084151,-0.2229538,-0.048311755,0.0,0.0,0.0
11235429,0.20835485,-0.22296548,-0.04830678,0.0,0.0,0.0
11239539,0.20831507,-0.22297223,-0.04830346,0.0,0.0,0.0
11243362,0.20829397,-0.22297847,-0.048301794,0.0,0.0,0.0
11247397,0.20841028,-0.22297074,-0.048351403,0.0,0.0,0.0
11251381,0.20839071,-0.22297081,-0.048349652,0.0,0.0,0.0
11255320,0.20836614,-0.2229952,-0.048348363,0.0,0.0,0.0
11259451,0.20835407,-0.2230012,-0.0483475,0.0,0.0,0.0
11263388,0.2083485,-0.22300343,-0.048347086,0.0,0.0,0.0
11267382,0.20834516,-0.2230035,-0.048346788,0.0,0.0,0.0
11271387,0.20937493,-0.22299933,-0.04873874,0.0,0.0,0.0
11275348,0.20938136,-0.22299396,-0.048739117,0.0,0.0,0.0
11279378,0.20940466,-0.22299275,-0.048741166,0.0,0.0,0.0
11283377,0.20942004,-0.22299387,-0.048742592,0.0,0.0,0.0
11287424,0.2094126,-0.22297083,-0.04874105,0.0,0.0,0.0
11291289,0.20943734,-0.22296332,-0.048743002,0.0,0.0,0.0
11295431,0.21084307,-0.22292487,-0.049263243,0.0,0.0,0.0
11299382,0.21088648,-0.22292453,-0.049267136,0.0,0.0,0.0
11303359,0.21093503,-0.22292583,-0.04927155,0.0,0.0,0.0
11307389,0.21099979,-0.22291343,-0.0492769,0.0,0.0,0.0
11311333,0.21104121,-0.22289716,-0.049280018,0.0,0.0,0.0
11315278,0.21108082,-0.2229033,-0.049283806,0.0,0.0,0.0
11319458,0.21043915,-0.22289182,-0.049020756,0.0,0.0,0.0
11323383,0.2105107,-0.2228689,-0.049026318,0.0,0.0,0.0
11327384,0.21057485,-0.22287473,-0.04903231,0.0,0.0,0.0
11331389,0.21062084,-0.22286588,-0.049036108,0.0,0.0,0.0
11335326,0.21068075,-0.22284137,-0.049040563,0.0,0.0,0.0
11339370,0.20922185,-0.22285794,-0.048464548,0.0,0.0,0.0
11343412,0.20931864,-0.22283512,-0.048472375,0.0,0.0,0.0
11347363,0.20940423,-0.22283389,-0.048480023,0.0,0.0,0.0
11351350,0.2094916,-0.22283566,-0.048487943,0.0,0.0,0.0
11354651,0.20954482,-0.22282562,-0.048492342,0.0,0.0,0.0
11358890,0.20964256,-0.22281688,-0.048500802,0.0,0.0,0.0
11363300,0.20935775,-0.2228262,-0.048351053,0.0,0.0,0.0
11367444,0.20946588,-0.22282924,-0.048360888,0.0,0.0,0.0
11371349,0.2095714,-0.22284059,-0.048370805,0.0,0.0,0.0
11375305,0.20968935,-0.22283901,-0.048381347,0.0,0.0,0.0
11379421,0.2098095,-0.22282526,-0.04839162,0.0,0.0,0.0
11386523,0.21116324,-0.22277525,-0.048844967,0.0,0.0,0.0
11389719,0.21125141,-0.22277026,-0.0488527,0.0,0.0,0.0
11394625,0.21140118,-0.22274756,-0.048865285,0.0,0.0,0.0
11398633,0.21151334,-0.22276035,-0.048875857,0.0,0.0,0.0
11402493,0.21164504,-0.22277138,-0.048888117,0.0,0.0,0.0
11406612,0.21331684,-0.22273917,-0.049477182,0.0,0.0,0.0
11409741,0.21342681,-0.22274803,-0.049487405,0.0,0.0,0.0
11414557,0.21359934,-0.2227705,-0.049503785,0.0,0.0,0.0
11418738,0.21372017,-0.22276941,-0.049514603,0.0,0.0,0.0
11422447,0.21386182,-0.22275679,-0.04952684,0.0,0.0,0.0
11426515,0.21331894,-0.22274238,-0.049282376,0.0,0.0,0.0
11429856,0.21342015,-0.22272949,-0.049290974,0.0,0.0,0.0
11434594,0.213592,-0.22273019,-0.04930644,0.0,0.0,0.0
11438554,0.21370031,-0.22273429,-0.049316335,0.0,0.0,0.0
11442637,0.21384297,-0.22272795,-0.049328905,0.0,0.0,0.0
11449747,0.21355198,-0.22271338,-0.049143903,0.0,0.0,0.0
11454623,0.21371599,-0.22268201,-0.049157403,0.0,0.0,0.0
11458512,0.21384951,-0.2226681,-0.04916886,0.0,0.0,0.0
11462488,0.21398571,-0.22266054,-0.049180795,0.0,0.0,0.0
11466623,0.21412992,-0.2226467,-0.0491932,0.0,0.0,0.0
11470555,0.21427031,-0.22264728,-0.049205836,0.0,0.0,0.0
11474556,0.21534778,-0.22263603,-0.049574353,0.0,0.0,0.0
11478929,0.21545483,-0.22263429,-0.049583904,0.0,0.0,0.0
11482527,0.21557006,-0.22262098,-0.049593728,0.0,0.0,0.0
11486486,0.21570647,-0.22262174,-0.04960601,0.0,0.0,0.0
11490557,0.21584769,-0.222608,-0.049618155,0.0,0.0,0.0
11494575,0.21596996,-0.22258472,-0.049628217,0.0,0.0,0.0
11498606,0.21553048,-0.22256733,-0.049427148,0.0,0.0,0.0
11502617,0.21565679,-0.22255222,-0.04943789,0.0,0.0,0.0
11506506,0.21576072,-0.22254269,-0.049446844,0.0,0.0,0.0
11510505,0.21585922,-0.22252402,-0.049454935,0.0,0.0,0.0
11514648,0.21598576,-0.22251639,-0.049466,0.0,0.0,0.0
11518626,0.21609601,-0.22249308,-0.049474966,0.0,0.0,0.0
11522542,0.2147912,-0.22250564,-0.048953045,0.0,0.0,0.0
11526657,0.21488921,-0.2225012,-0.048961665,0.0,0.0,0.0
11530485,0.21499309,-0.2225057,-0.048971176,0.0,0.0,0.0
11534523,0.21509387,-0.22251904,-0.048980758,0.0,0.0,0.0
11538661,0.21517912,-0.22252248,-0.048988555,0.0,0.0,0.0
11542536,0.2152742,-0.22252837,-0.04899733,0.0,0.0,0.0
11546603,0.21494381,-0.2225247,-0.048849273,0.0,0.0,0.0
11549850,0.21500939,-0.22253439,-0.048855554,0.0,0.0,0.0
11554602,0.21511984,-0.22254136,-0.048865754,0.0,0.0,0.0
11558504,0.21517755,-0.22255884,-0.048871644,0.0,0.0,0.0
11562635,0.21524732,-0.22257476,-0.048878558,0.0,0.0,0.0
11566568,0.21531014,-0.22257908,-0.048884377,0.0,0.0,0.0
11570522,0.21650949,-0.22255695,-0.04931933,0.0,0.0,0.0
11574610,0.21656132,-0.22255465,-0.049323894,0.0,0.0,0.0
11578528,0.21663299,-0.22256479,-0.049330745,0.0,0.0,0.0
11582616,0.21670109,-0.22256586,-0.049336907,0.0,0.0,0.0
11586631,0.21676593,-0.22257057,-0.04934292,0.0,0.0,0.0
11590466,0.21681271,-0.22256917,-0.04934707,0.0,0.0,0.0
11594553,0.2183807,-0.22254126,-0.049923666,0.0,0.0,0.0
11598597,0.21841076,-0.22253178,-0.049925987,0.0,0.0,0.0
11602543,0.21842813,-0.22253391,-0.049927633,0.0,0.0,0.0
11606580,0.21843714,-0.22253339,-0.04992842,0.0,0.0,0.0
11610588,0.21844812,-0.22252347,-0.049929004,0.0,0.0,0.0
11614562,0.21844803,-0.2225272,-0.04992915,0.0,0.0,0.0
11618494,0.21776575,-0.2225444,-0.049673267,0.0,0.0,0.0
11622597,0.21775346,-0.22255918,-0.04967276,0.0,0.0,0.0
11626557,0.21773994,-0.22255501,-0.049671378,0.0,0.0,0.0
11630515,0.21774533,-0.22257465,-0.049672663,0.0,0.0,0.0
11634723,0.2177399,-0.22258903,-0.049672756,0.0,0.0,0.0
11638552,0.21772286,-0.22258505,-0.04967107,0.0,0.0,0.0
11642561,0.21613108,-0.22259042,-0.049078118,0.0,0.0,0.0
11646629,0.21612367,-0.22257583,-0.04907685,0.0,0.0,0.0
11650547,0.21609919,-0.22258432,-0.049075,0.0,0.0,0.0
11654550,0.21605857,-0.22257377,-0.04907093,0.0,0.0,0.0
11658566,0.21600094,-0.22258756,-0.04906631,0.0,0.0,0.0
11662550,0.21593352,-0.2226037,-0.049060907,0.0,0.0,0.0
11666608,0.2164407,-0.22260742,-0.04927097,0.0,0.0,0.0
11670599,0.21635523,-0.22261865,-0.04926374,0.0,0.0,0.0
11674546,0.21628782,-0.22260897,-0.049257297,0.0,0.0,0.0
11678505,0.21622948,-0.22261591,-0.04925233,0.0,0.0,0.0
11682620,0.216145,-0.22262283,-0.049245022,0.0,0.0,0.0
11686608,0.21606773,-0.22263242,-0.04923847,0.0,0.0,0.0
11689804,0.21755429,-0.22259031,-0.049811665,0.0,0.0,0.0
11693800,0.21750112,-0.22257042,-0.04980608,0.0,0.0,0.0
11697727,0.21743189,-0.22256422,-0.049799617,0.0,0.0,0.0
11701707,0.21734506,-0.22256367,-0.04979179,0.0,0.0,0.0
11705799,0.21725693,-0.22256169,-0.049783792,0.0,0.0,0.0
11709820,0.21716364,-0.22256517,-0.049775556,0.0,0.0,0.0
11713753,0.21651,-0.22255786,-0.04955499,0.0,0.0,0.0
11717858,0.21642388,-0.22253992,-0.049546532,0.0,0.0,0.0
11721682,0.21634151,-0.22254789,-0.049539454,0.0,0.0,0.0
11725715,0.21625108,-0.22254644,-0.04953127,0.0,0.0,0.0
11729960,0.2161525,-0.22252436,-0.049521536,0.0,0.0,0.0
11733671,0.21605268,-0.2225144,-0.04951217,0.0,0.0,0.0
11737806,0.21441738,-0.2225423,-0.048927806,0.0,0.0,0.0
11741771,0.21432212,-0.2225452,-0.04891937,0.0,0.0,0.0
11745683,0.21420048,-0.22256449,-0.04890921,0.0,0.0,0.0
11749800,0.21410994,-0.22258385,-0.04890186,0.0,0.0,0.0
11753808,0.21400419,-0.22258866,-0.048892546,0.0,0.0,0.0
11757769,0.21390289,-0.22258668,-0.04888337,0.0,0.0,0.0
11761757,0.21332234,-0.22259527,-0.048701137,0.0,0.0,0.0
11765725,0.21321699,-0.22260737,-0.048692163,0.0,0.0,0.0
11769750,0.21308875,-0.2226156,-0.048680972,0.0,0.0,0.0
11773727,0.21297047,-0.2226343,-0.04867109,0.0,0.0,0.0
11777942,0.21285635,-0.22265989,-0.048661854,0.0,0.0,0.0
11781705,0.21273574,-0.2226706,-0.04865145,0.0,0.0,0.0
11785777,0.21274053,-0.22266738,-0.048689425,0.0,0.0,0.0
11789804,0.2126116,-0.22266906,-0.0486779,0.0,0.0,0.0
11793685,0.21248817,-0.22269204,-0.04866773,0.0,0.0,0.0
11797785,0.21238916,-0.222717,-0.048659813,0.0,0.0,0.0
11801763,0.21228287,-0.22273684,-0.048651043,0.0,0.0,0.0
11805669,0.21219335,-0.22275549,-0.048643734,0.0,0.0,0.0
11809854,0.21222477,-0.2227586,-0.048686136,0.0,0.0,0.0
11813709,0.21211453,-0.22275274,-0.048676,0.0,0.0,0.0
11817770,0.21200512,-0.22275592,-0.048666287,0.0,0.0,0.0
11821793,0.2119116,-0.22276336,-0.048658177,0.0,0.0,0.0
11825716,0.21181566,-0.22276312,-0.048649546,0.0,0.0,0.0
11829771,0.21172938,-0.2227487,-0.048648432,0.0,0.0,0.0
11833760,0.21163003,-0.22274199,-0.048639245,0.0,0.0,0.0
11837773,0.21154457,-0.22273108,-0.04863114,0.0,0.0,0.0
11841791,0.21147534,-0.22271778,-0.0486244,0.0,0.0,0.0
11845758,0.2113935,-0.22273178,-0.04861759,0.0,0.0,0.0
11849802,0.21129797,-0.22275928,-0.04861008,0.0,0.0,0.0
11853711,0.21122718,-0.22275935,-0.04859866,0.0,0.0,0.0
11857804,0.21115549,-0.22274223,-0.04859155,0.0,0.0,0.0
11861754,0.21109684,-0.222748,-0.048586506,0.0,0.0,0.0
11865722,0.21102779,-0.22274345,-0.048580118,0.0,0.0,0.0
11869845,0.21095268,-0.22274677,-0.048573498,0.0,0.0,0.0
11873714,0.21088764,-0.22274293,-0.048567504,0.0,0.0,0.0
11877768,0.210829,-0.22274601,-0.048559073,0.0,0.0,0.0
11881791,0.21079938,-0.22274664,-0.048556436,0.0,0.0,0.0
11885760,0.21076775,-0.22273941,-0.04855332,0.0,0.0,0.0
11889778,0.21072282,-0.2227451,-0.048549503,0.0,0.0,0.0
11893743,0.21069026,-0.22276935,-0.048547518,0.0,0.0,0.0
11897749,0.21066432,-0.22276588,-0.048545048,0.0,0.0,0.0
11901834,0.21064791,-0.22277442,-0.048543684,0.0,0.0,0.0
11905745,0.21062867,-0.22278543,-0.04854238,0.0,0.0,0.0
11909772,0.21063651,-0.22279546,-0.048543468,0.0,0.0,0.0
11913772,0.2106348,-0.2227875,-0.04854301,0.0,0.0,0.0
11917738,0.21063037,-0.22278722,-0.048542608,0.0,0.0,0.0
11921797,0.21063173,-0.2227959,-0.048543617,0.0,0.0,0.0
11925799,0.21064536,-0.22279,-0.048544616,0.0,0.0,0.0
11929751,0.21063414,-0.22280054,-0.048544012,0.0,0.0,0.0
11933692,0.21064739,-0.22281387,-0.04854572,0.0,0.0,0.0
11937803,0.2106691,-0.22283566,-0.048548516,0.0,0.0,0.0
11941714,0.21069437,-0.22285396,-0.048551496,0.0,0.0,0.0
11945771,0.21072225,-0.22285704,-0.048554365,0.0,0.0,0.0
11949861,0.21076308,-0.22285005,-0.048557762,0.0,0.0,0.0
11953685,0.21079424,-0.22283456,-0.04855997,0.0,0.0,0.0
11957724,0.21083796,-0.22281665,-0.0485632,0.0,0.0,0.0
11961833,0.21089903,-0.22283761,-0.048569508,0.0,0.0,0.0
11965731,0.21094888,-0.22283298,-0.048573807,0.0,0.0,0.0
11969834,0.21100466,-0.22281685,-0.048578177,0.0,0.0,0.0
11973772,0.21107678,-0.2228138,-0.04858454,0.0,0.0,0.0
11977721,0.21115524,-0.22281215,-0.048591524,0.0,0.0,0.0
11980895,0.21121782,-0.22279964,-0.04859667,0.0,0.0,0.0
11985000,0.21129495,-0.22279756,-0.048603527,0.0,0.0,0.0
11988229,0.21134037,-0.22279598,-0.048607547,0.0,0.0,0.0
11992225,0.21141872,-0.22280486,-0.04861488,0.0,0.0,0.0
11996954,0.21154064,-0.22279212,-0.048625335,0.0,0.0,0.0
12000863,0.21163234,-0.22279707,-0.048633773,0.0,0.0,0.0
12004955,0.21173194,-0.2227877,-0.048642356,0.0,0.0,0.0
12009853,0.21184503,-0.22280082,-0.048653036,0.0,0.0,0.0
12013696,0.21194202,-0.22278786,-0.048661243,0.0,0.0,0.0
12017736,0.21203049,-0.22278051,-0.048668887,0.0,0.0,0.0
12020930,0.2120974,-0.22276606,-0.048674334,0.0,0.0,0.0
12024907,0.21221147,-0.22273856,-0.048683506,0.0,0.0,0.0
12028897,0.21231794,-0.22274199,-0.048693214,0.0,0.0,0.0
12033024,0.2124355,-0.22273304,-0.04870342,0.0,0.0,0.0
12036898,0.21255481,-0.22273234,-0.048714112,0.0,0.0,0.0
12040938,0.21268517,-0.22272815,-0.04872567,0.0,0.0,0.0
12044975,0.212818,-0.22272013,-0.048737284,0.0,0.0,0.0
12048883,0.2129579,-0.2227197,-0.048749845,0.0,0.0,0.0
12053016,0.2130937,-0.22273526,-0.04876266,0.0,0.0,0.0
12056967,0.21322785,-0.22275431,-0.048775475,0.0,0.0,0.0
12060894,0.21337962,-0.22274613,-0.048788786,0.0,0.0,0.0
12065019,0.21350944,-0.22275244,-0.04880071,0.0,0.0,0.0
12068887,0.21364592,-0.22274882,-0.048812833,0.0,0.0,0.0
12072922,0.2137817,-0.22276221,-0.048825577,0.0,0.0,0.0
12077044,0.21391726,-0.22275102,-0.04883731,0.0,0.0,0.0
12080909,0.2140398,-0.2227491,-0.048848253,0.0,0.0,0.0
12084916,0.21415643,-0.22274153,-0.04885843,0.0,0.0,0.0
12088986,0.21428178,-0.22274604,-0.048869878,0.0,0.0,0.0
12092915,0.21441709,-0.22274806,-0.04888212,0.0,0.0,0.0
12096944,0.21453908,-0.22272979,-0.04889235,0.0,0.0,0.0
12101015,0.21466619,-0.22272217,-0.048903465,0.0,0.0,0.0
12104909,0.21479422,-0.22271164,-0.048914548,0.0,0.0,0.0
12108902,0.21495275,-0.22269826,-0.048928257,0.0,0.0,0.0
12113026,0.21508917,-0.22269118,-0.04894023,0.0,0.0,0.0
12116924,0.21521398,-0.22266422,-0.04895035,0.0,0.0,0.0
12120957,0.21533875,-0.22264849,-0.048960935,0.0,0.0,0.0
12125018,0.21544218,-0.22263154,-0.048969537,0.0,0.0,0.0
12128870,0.2155551,-0.2226268,-0.048979487,0.0,0.0,0.0
12132966,0.21566842,-0.22262064,-0.04898942,0.0,0.0,0.0
12137020,0.21576424,-0.22259536,-0.048996996,0.0,0.0,0.0
12140976,0.21587282,-0.22257335,-0.04900586,0.0,0.0,0.0
12144936,0.21599185,-0.22255221,-0.049015686,0.0,0.0,0.0
12149034,0.21609648,-0.22254245,-0.049024682,0.0,0.0,0.0
12152927,0.2161724,-0.22253275,-0.049031112,0.0,0.0,0.0
12157032,0.21626455,-0.22253513,-0.04903948,0.0,0.0,0.0
12160999,0.2163601,-0.22252342,-0.04904758,0.0,0.0,0.0
12164901,0.21643479,-0.22253472,-0.049054753,0.0,0.0,0.0
12168953,0.21649945,-0.22254187,-0.049060855,0.0,0.0,0.0
12172939,0.21658245,-0.22252741,-0.04906772,0.0,0.0,0.0
12176960,0.21666077,-0.22251995,-0.04907444,0.0,0.0,0.0
12180998,0.2177545,-0.22251621,-0.04946502,0.0,0.0,0.0
12184999,0.21781746,-0.22251533,-0.049470626,0.0,0.0,0.0
12188908,0.21787362,-0.222501,-0.04947509,0.0,0.0,0.0
12192957,0.21792693,-0.22251658,-0.049480516,0.0,0.0,0.0
12196964,0.21799156,-0.22253387,-0.04948704,0.0,0.0,0.0
12200932,0.21803667,-0.22252844,-0.04949087,0.0,0.0,0.0
12205118,0.21947971,-0.22249836,-0.05001982,0.0,0.0,0.0
12208907,0.21952729,-0.22250256,-0.05002427,0.0,0.0,0.0
12212899,0.219566,-0.22249903,-0.0500276,0.0,0.0,0.0
12216973,0.21957926,-0.22250411,-0.050029002,0.0,0.0,0.0
12220951,0.21959391,-0.22250144,-0.05003021,0.0,0.0,0.0
12224991,0.21892017,-0.22250937,-0.04976827,0.0,0.0,0.0
12228946,0.21893996,-0.22250244,-0.049769763,0.0,0.0,0.0
12232914,0.21897005,-0.22249162,-0.049772013,0.0,0.0,0.0
12236895,0.21897118,-0.22247064,-0.049771257,0.0,0.0,0.0
12241028,0.21897177,-0.22247277,-0.04977139,0.0,0.0,0.0
12244914,0.218964,-0.22247879,-0.049770944,0.0,0.0,0.0
12248918,0.21740049,-0.22253212,-0.049187236,0.0,0.0,0.0
12252971,0.21738097,-0.22252628,-0.049185243,0.0,0.0,0.0
12256903,0.2173519,-0.22249964,-0.049181532,0.0,0.0,0.0
12260955,0.21730979,-0.22247049,-0.049176544,0.0,0.0,0.0
12265033,0.21728015,-0.22245778,-0.04917336,0.0,0.0,0.0
12268918,0.21724471,-0.22246069,-0.049170297,0.0,0.0,0.0
12272939,0.2167551,-0.22247054,-0.04900162,0.0,0.0,0.0
12276943,0.21669403,-0.22250207,-0.048997436,0.0,0.0,0.0
12280967,0.21661986,-0.22251658,-0.04899137,0.0,0.0,0.0
12284998,0.21655326,-0.22253767,-0.048986256,0.0,0.0,0.0
12288974,0.21648425,-0.22254162,-0.048980217,0.0,0.0,0.0
12292911,0.21642594,-0.22255468,-0.048975516,0.0,0.0,0.0
12296950,0.21648851,-0.22256443,-0.049022533,0.0,0.0,0.0
12300920,0.21638606,-0.2225705,-0.04901358,0.0,0.0,0.0
12304136,0.21630417,-0.22257206,-0.04900629,0.0,0.0,0.0
12308206,0.21622413,-0.22256249,-0.04899871,0.0,0.0,0.0
12312202,0.21613382,-0.2225355,-0.04898949,0.0,0.0,0.0
12316121,0.21604086,-0.22251448,-0.04898029,0.0,0.0,0.0
12320177,0.21606669,-0.22250651,-0.04902193,0.0,0.0,0.0
12324135,0.21596913,-0.22253141,-0.049014185,0.0,0.0,0.0
12328167,0.21586931,-0.22254008,-0.04900557,0.0,0.0,0.0
12332247,0.21577571,-0.22255568,-0.048997805,0.0,0.0,0.0
12336110,0.21568137,-0.2225592,-0.048989475,0.0,0.0,0.0
12340148,0.21562187,-0.2225749,-0.048991386,0.0,0.0,0.0
12344232,0.21551824,-0.22259536,-0.048982907,0.0,0.0,0.0
12348130,0.21540548,-0.22260521,-0.048973177,0.0,0.0,0.0
12352149,0.21530181,-0.22260734,-0.04896395,0.0,0.0,0.0
12356228,0.21521099,-0.22259448,-0.04895527,0.0,0.0,0.0
12360096,0.21509458,-0.22259575,-0.048944864,0.0,0.0,0.0
12364163,0.21495822,-0.22260463,-0.048927657,0.0,0.0,0.0
12368206,0.21484996,-0.22261035,-0.048918165,0.0,0.0,0.0
12372110,0.21473943,-0.22260375,-0.048907965,0.0,0.0,0.0
12376169,0.21463424,-0.22260314,-0.048898492,0.0,0.0,0.0
12380183,0.21452028,-0.2226219,-0.048889007,0.0,0.0,0.0
12384153,0.21438684,-0.2226278,-0.04887726,0.0,0.0,0.0
12388220,0.21423462,-0.22263782,-0.048860725,0.0,0.0,0.0
12392183,0.2140911,-0.22263789,-0.048847836,0.0,0.0,0.0
12396136,0.21397635,-0.22263467,-0.0488374,0.0,0.0,0.0
12400158,0.21385647,-0.2226362,-0.048826687,0.0,0.0,0.0
12404173,0.21373658,-0.22263855,-0.048816018,0.0,0.0,0.0
12408136,0.21361516,-0.22264223,-0.048805255,0.0,0.0,0.0
12412211,0.21349818,-0.22262807,-0.048794013,0.0,0.0,0.0
12416186,0.21339816,-0.22262253,-0.048784804,0.0,0.0,0.0
12420057,0.21327506,-0.22260776,-0.048773166,0.0,0.0,0.0
12424234,0.21317512,-0.22261229,-0.048764367,0.0,0.0,0.0
12428121,0.21305102,-0.22260499,-0.048752934,0.0,0.0,0.0
12432101,0.21294193,-0.22260068,-0.04874354,0.0,0.0,0.0
12436238,0.21282317,-0.22260764,-0.048733152,0.0,0.0,0.0
12440064,0.21271786,-0.22260652,-0.04872364,0.0,0.0,0.0
12444150,0.21257858,-0.22261412,-0.048711438,0.0,0.0,0.0
12448220,0.21244983,-0.2226194,-0.04870008,0.0,0.0,0.0
12452108,0.21233255,-0.22262886,-0.04868992,0.0,0.0,0.0
12456209,0.21222705,-0.222623,-0.048680462,0.0,0.0,0.0
12460255,0.21211955,-0.22262546,-0.048670907,0.0,0.0,0.0
12464168,0.2120235,-0.22263715,-0.048662737,0.0,0.0,0.0
12468118,0.21192868,-0.22263937,-0.048654303,0.0,0.0,0.0
12472198,0.21183476,-0.22265366,-0.048646428,0.0,0.0,0.0
12476178,0.21174428,-0.22267272,-0.04863904,0.0,0.0,0.0
12480225,0.21165708,-0.22268012,-0.04863148,0.0,0.0,0.0
12484362,0.21157843,-0.22269586,-0.04862503,0.0,0.0,0.0
12488120,0.21149862,-0.22269839,-0.048617963,0.0,0.0,0.0
12492116,0.2114283,-0.22267915,-0.048610896,0.0,0.0,0.0
12496255,0.21136548,-0.22267,-0.0486049,0.0,0.0,0.0
12500169,0.21130928,-0.22268221,-0.048600327,0.0,0.0,0.0
12504216,0.21124583,-0.22268216,-0.048594564,0.0,0.0,0.0
12508177,0.21118583,-0.22267199,-0.04858878,0.0,0.0,0.0
12512111,0.21113856,-0.22266476,-0.048584256,0.0,0.0,0.0
12516175,0.21110432,-0.22264557,-0.04858043,0.0,0.0,0.0
12520393,0.21108168,-0.22264992,-0.048578564,0.0,0.0,0.0
12524183,0.2110497,-0.22266087,-0.04857612,0.0,0.0,0.0
12527342,0.2109949,-0.22266006,-0.048571147,0.0,0.0,0.0
12532164,0.21097691,-0.22267757,-0.04857021,0.0,0.0,0.0
12536159,0.21096481,-0.2226925,-0.04856971,0.0,0.0,0.0
12540168,0.21096924,-0.22268151,-0.048569668,0.0,0.0,0.0
12544241,0.21096763,-0.22267915,-0.04856944,0.0,0.0,0.0
12548155,0.21096325,-0.22267084,-0.04856872,0.0,0.0,0.0
12552101,0.21097614,-0.22266531,-0.048569676,0.0,0.0,0.0
12556237,0.21096693,-0.22265404,-0.048568405,0.0,0.0,0.0
12560163,0.21098676,-0.22264662,-0.048569903,0.0,0.0,0.0
12564171,0.21099792,-0.2226312,-0.048570305,0.0,0.0,0.0
12568222,0.21100779,-0.22260946,-0.048570346,0.0,0.0,0.0
12572101,0.21103227,-0.2225983,-0.048572112,0.0,0.0,0.0
12576166,0.21107548,-0.2225793,-0.048575263,0.0,0.0,0.0
12580596,0.21113051,-0.22256058,-0.048579473,0.0,0.0,0.0
12584190,0.21118921,-0.22256166,-0.04858479,0.0,0.0,0.0
12588095,0.21125361,-0.22256729,-0.048590787,0.0,0.0,0.0
12592191,0.21131547,-0.22257689,-0.048596714,0.0,0.0,0.0
12596128,0.21140382,-0.22257915,-0.048604738,0.0,0.0,0.0
12600217,0.2114627,-0.2225997,-0.048610825,0.0,0.0,0.0
12604215,0.2115354,-0.22260258,-0.048617464,0.0,0.0,0.0
12608135,0.21161255,-0.22262548,-0.048625287,0.0,0.0,0.0
12612107,0.2116766,-0.22263563,-0.048631433,0.0,0.0,0.0
12616200,0.21175681,-0.22263595,-0.048638653,0.0,0.0,0.0
12620181,0.21184656,-0.22263142,-0.048646532,0.0,0.0,0.0
12623315,0.21189262,-0.22262995,-0.048650615,0.0,0.0,0.0
12627399,0.21198267,-0.22263639,-0.048658956,0.0,0.0,0.0
12631380,0.21207449,-0.22264583,-0.048667576,0.0,0.0,0.0
12634548,0.21213683,-0.22264056,-0.04867296,0.0,0.0,0.0
12639522,0.21226658,-0.22264001,-0.048684593,0.0,0.0,0.0
12643372,0.2123775,-0.22263536,-0.04869438,0.0,0.0,0.0
12647338,0.21248896,-0.22263815,-0.048704498,0.0,0.0,0.0
12651387,0.21260351,-0.22262514,-0.048714273,0.0,0.0,0.0
12655396,0.21270429,-0.22261727,-0.048723016,0.0,0.0,0.0
12659380,0.21281655,-0.22263503,-0.0487338,0.0,0.0,0.0
12663390,0.21293391,-0.22265022,-0.048744943,0.0,0.0,0.0
12667382,0.21305923,-0.22263388,-0.04875555,0.0,0.0,0.0
12671346,0.21316239,-0.22261512,-0.048764076,0.0,0.0,0.0
12675383,0.21327636,-0.22260399,-0.04877387,0.0,0.0,0.0
12679429,0.21339351,-0.222585,-0.048783634,0.0,0.0,0.0
12683297,0.2135148,-0.22256908,-0.048793893,0.0,0.0,0.0
12687416,0.21363556,-0.22255653,-0.04880424,0.0,0.0,0.0
12691378,0.21375155,-0.22253956,-0.048813973,0.0,0.0,0.0
12695328,0.21388312,-0.22252634,-0.048825264,0.0,0.0,0.0
12699564,0.21399789,-0.22253098,-0.048835754,0.0,0.0,0.0
12703343,0.21410948,-0.22253232,-0.048845824,0.0,0.0,0.0
12707327,0.21425165,-0.2225471,-0.048859186,0.0,0.0,0.0
12711410,0.21437007,-0.22255184,-0.04887001,0.0,0.0,0.0
12714585,0.21445154,-0.22256157,-0.04887772,0.0,0.0,0.0
12719395,0.21460913,-0.22256003,-0.048891813,0.0,0.0,0.0
12723395,0.21471392,-0.2225406,-0.048900444,0.0,0.0,0.0
12727352,0.21482518,-0.22251567,-0.048909426,0.0,0.0,0.0
12731362,0.21494582,-0.22251078,-0.04892006,0.0,0.0,0.0
12735384,0.21505924,-0.2225129,-0.048930336,0.0,0.0,0.0
12739441,0.21516317,-0.22251223,-0.048939634,0.0,0.0,0.0
12743258,0.21526486,-0.22249486,-0.048948064,0.0,0.0,0.0
12747386,0.21537603,-0.22249937,-0.04895823,0.0,0.0,0.0
12751390,0.2154825,-0.22248538,-0.048967224,0.0,0.0,0.0
12755329,0.21558334,-0.22246206,-0.048975326,0.0,0.0,0.0
12759538,0.21567783,-0.22244874,-0.048983272,0.0,0.0,0.0
12763290,0.21576576,-0.22245494,-0.048991416,0.0,0.0,0.0
12767320,0.2158746,-0.2224492,-0.049000956,0.0,0.0,0.0
12771406,0.21597014,-0.22247265,-0.04901049,0.0,0.0,0.0
12775381,0.2160642,-0.22247826,-0.04901916,0.0,0.0,0.0
12779419,0.21615182,-0.22247969,-0.049027093,0.0,0.0,0.0
12783413,0.21622993,-0.22247478,-0.049033906,0.0,0.0,0.0
12787321,0.21631552,-0.22247875,-0.04904175,0.0,0.0,0.0
12791337,0.21639398,-0.22247161,-0.049048506,0.0,0.0,0.0
12795409,0.21648404,-0.22247545,-0.049056746,0.0,0.0,0.0
12799418,0.21655591,-0.22246683,-0.049062848,0.0,0.0,0.0
12803285,0.21663904,-0.22245474,-0.049069814,0.0,0.0,0.0
12807397,0.21671215,-0.222468,-0.049076922,0.0,0.0,0.0
12811352,0.21675886,-0.22246529,-0.049081005,0.0,0.0,0.0
12815329,0.21682723,-0.22247393,-0.0490875,0.0,0.0,0.0
12819446,0.21691038,-0.22247559,-0.04909504,0.0,0.0,0.0
12823301,0.21698,-0.22247553,-0.049101293,0.0,0.0,0.0
12827306,0.21703075,-0.22247803,-0.04910595,0.0,0.0,0.0
12831380,0.21707541,-0.22246824,-0.049109556,0.0,0.0,0.0
12835368,0.21711701,-0.22246993,-0.04911336,0.0,0.0,0.0
12839368,0.2171502,-0.22247598,-0.049116585,0.0,0.0,0.0
12843372,0.21717657,-0.2224786,-0.049119066,0.0,0.0,0.0
12847342,0.21720201,-0.22247483,-0.049121194,0.0,0.0,0.0
12851295,0.21723658,-0.22246651,-0.049123954,0.0,0.0,0.0
12855412,0.21725495,-0.22244164,-0.04912458,0.0,0.0,0.0
12859453,0.2172625,-0.22243226,-0.049124867,0.0,0.0,0.0
12863331,0.21727382,-0.22243239,-0.04912589,0.0,0.0,0.0
12867398,0.21726346,-0.22241227,-0.04912413,0.0,0.0,0.0
12871332,0.21725531,-0.22243507,-0.049124338,0.0,0.0,0.0
12875333,0.21727283,-0.22244272,-0.04912623,0.0,0.0,0.0
12879556,0.2172729,-0.22244693,-0.049126405,0.0,0.0,0.0
12883347,0.21725091,-0.22243993,-0.04912415,0.0,0.0,0.0
12887335,0.21723811,-0.22246012,-0.04912383,0.0,0.0,0.0
12891369,0.21721752,-0.22245406,-0.04912173,0.0,0.0,0.0
12894629,0.21719553,-0.22243172,-0.04911883,0.0,0.0,0.0
12898523,0.21715422,-0.22241181,-0.049114306,0.0,0.0,0.0
12902569,0.21711084,-0.22242652,-0.04911102,0.0,0.0,0.0
12906581,0.217071,-0.222447,-0.049108285,0.0,0.0,0.0
12909802,0.21702863,-0.22246583,-0.049105253,0.0,0.0,0.0
12914611,0.21699598,-0.22246572,-0.049102318,0.0,0.0,0.0
12918537,0.21694295,-0.2224442,-0.04909667,0.0,0.0,0.0
12922537,0.21687569,-0.22243582,-0.04909029,0.0,0.0,0.0
12926785,0.21680099,-0.22243483,-0.049083542,0.0,0.0,0.0
12929792,0.21671541,-0.2224433,-0.049076203,0.0,0.0,0.0
12934531,0.21661752,-0.22244129,-0.049067333,0.0,0.0,0.0
12938564,0.21654205,-0.2224269,-0.04905997,0.0,0.0,0.0
12942545,0.21647413,-0.22242528,-0.049053807,0.0,0.0,0.0
12946614,0.21637681,-0.22241344,-0.049044583,0.0,0.0,0.0
12950103,0.21628702,-0.22240737,-0.049036276,0.0,0.0,0.0
12954594,0.2161915,-0.22239147,-0.049027044,0.0,0.0,0.0
12958571,0.2161117,-0.22237708,-0.0490193,0.0,0.0,0.0
12962578,0.21602437,-0.2223826,-0.049011685,0.0,0.0,0.0
12966644,0.21591717,-0.22240457,-0.049002953,0.0,0.0,0.0
12969753,0.21582723,-0.22242197,-0.048995595,0.0,0.0,0.0
12974746,0.21571451,-0.22245188,-0.048986696,0.0,0.0,0.0
12978473,0.2156213,-0.22244012,-0.04897785,0.0,0.0,0.0
12982522,0.21550922,-0.2224364,-0.048967633,0.0,0.0,0.0
12986607,0.21539733,-0.22242872,-0.048957277,0.0,0.0,0.0
12990545,0.21528475,-0.22241399,-0.04894658,0.0,0.0,0.0
12994590,0.21516685,-0.22242475,-0.04893643,0.0,0.0,0.0
12998567,0.21503888,-0.2224406,-0.048925586,0.0,0.0,0.0
13002573,0.21490599,-0.22243646,-0.048913494,0.0,0.0,0.0
13006562,0.21478051,-0.22242205,-0.048901644,0.0,0.0,0.0
13010612,0.21465309,-0.22242181,-0.04889019,0.0,0.0,0.0
13014631,0.2145155,-0.22242375,-0.04887792,0.0,0.0,0.0
13018465,0.21438321,-0.22243007,-0.048866306,0.0,0.0,0.0
13022591,0.21425016,-0.22243875,-0.04885471,0.0,0.0,0.0
13026543,0.2141214,-0.22242871,-0.048842758,0.0,0.0,0.0
13030516,0.21503519,-0.22243875,-0.049217716,0.0,0.0,0.0
13034640,0.21490896,-0.22245635,-0.049207084,0.0,0.0,0.0
13038685,0.21476185,-0.22246669,-0.04919429,0.0,0.0,0.0
13042504,0.21462633,-0.22247681,-0.049182523,0.0,0.0,0.0
13046772,0.21449661,-0.2225034,-0.049171943,0.0,0.0,0.0
13050538,0.21435514,-0.22253309,-0.049160413,0.0,0.0,0.0
13054593,0.21560365,-0.22252351,-0.04967273,0.0,0.0,0.0
13058595,0.21545482,-0.22251925,-0.0496592,0.0,0.0,0.0
13062551,0.21532315,-0.22254184,-0.04964827,0.0,0.0,0.0
13065670,0.21521609,-0.22254388,-0.049638737,0.0,0.0,0.0
13070629,0.21509661,-0.22254783,-0.049628157,0.0,0.0,0.0
13074748,0.21497004,-0.22254008,-0.04961649,0.0,0.0,0.0
13078478,0.2141605,-0.2225695,-0.049343206,0.0,0.0,0.0
13082644,0.21407048,-0.2225744,-0.049335316,0.0,0.0,0.0
13086525,0.21398692,-0.22257686,-0.049327906,0.0,0.0,0.0
13090636,0.21386947,-0.2225673,-0.049316984,0.0,0.0,0.0
13094743,0.2137373,-0.22255592,-0.049304668,0.0,0.0,0.0
13098626,0.21207166,-0.22256364,-0.048709936,0.0,0.0,0.0
13102519,0.21195397,-0.22254618,-0.04869869,0.0,0.0,0.0
13106635,0.21183956,-0.22252306,-0.04868751,0.0,0.0,0.0
13110517,0.21172686,-0.22253025,-0.04867768,0.0,0.0,0.0
13114590,0.21162063,-0.22253416,-0.048668288,0.0,0.0,0.0
13118626,0.21153544,-0.22255754,-0.04866156,0.0,0.0,0.0
13122594,0.21201101,-0.22257061,-0.048872136,0.0,0.0,0.0
13126479,0.21190825,-0.22257851,-0.04886322,0.0,0.0,0.0
13130570,0.2118222,-0.22257656,-0.04885542,0.0,0.0,0.0
13134658,0.21173324,-0.22258785,-0.048847865,0.0,0.0,0.0
13138537,0.21165876,-0.22259493,-0.048841458,0.0,0.0,0.0
13142627,0.21313107,-0.2225586,-0.049413815,0.0,0.0,0.0
13146623,0.21306251,-0.22254047,-0.049406953,0.0,0.0,0.0
13150541,0.21299341,-0.22252412,-0.049400125,0.0,0.0,0.0
13154646,0.21293369,-0.22252728,-0.049394887,0.0,0.0,0.0
13158621,0.21288605,-0.2225124,-0.049390033,0.0,0.0,0.0
13162555,0.21283773,-0.22249722,-0.04938511,0.0,0.0,0.0
13166530,0.21222375,-0.22250922,-0.049168356,0.0,0.0,0.0
13170748,0.21217492,-0.22250114,-0.04916366,0.0,0.0,0.0
13174594,0.21214813,-0.22251387,-0.04916175,0.0,0.0,0.0
13178576,0.21211961,-0.2225097,-0.04915903,0.0,0.0,0.0
13182662,0.21209742,-0.22252233,-0.049157523,0.0,0.0,0.0
13186460,0.21208496,-0.22252531,-0.049156524,0.0,0.0,0.0
13190596,0.2105784,-0.22255729,-0.048583634,0.0,0.0,0.0
13194548,0.21058345,-0.22258049,-0.04858498,0.0,0.0,0.0
13198614,0.21059605,-0.22259258,-0.04858658,0.0,0.0,0.0
13202614,0.21062654,-0.22259215,-0.048589297,0.0,0.0,0.0
13206579,0.21065821,-0.22258204,-0.04859175,0.0,0.0,0.0
13209980,0.21067913,-0.22258896,-0.048593897,0.0,0.0,0.0
13213698,0.21025863,-0.22260216,-0.04842623,0.0,0.0,0.0
13217774,0.21029736,-0.22259565,-0.048429456,0.0,0.0,0.0
13221753,0.21032545,-0.22260933,-0.048432507,0.0,0.0,0.0
13225996,0.2103775,-0.22261126,-0.048437253,0.0,0.0,0.0
13229832,0.21046269,-0.22260006,-0.04844447,0.0,0.0,0.0
13233658,0.21053413,-0.22259378,-0.04845064,0.0,0.0,0.0
13237805,0.21072932,-0.22257033,-0.048504993,0.0,0.0,0.0
13241751,0.21080464,-0.22255991,-0.04851135,0.0,0.0,0.0
13245725,0.21089515,-0.22256231,-0.048519574,0.0,0.0,0.0
13249939,0.21099922,-0.22257823,-0.048529536,0.0,0.0,0.0
13254497,0.21111697,-0.22255775,-0.04853931,0.0,0.0,0.0
13258581,0.21236444,-0.22253115,-0.048982244,0.0,0.0,0.0
13262795,0.2124702,-0.22252238,-0.048991397,0.0,0.0,0.0
13266548,0.2125709,-0.22250184,-0.048999637,0.0,0.0,0.0
13269797,0.21265951,-0.22250062,-0.049007546,0.0,0.0,0.0
13273739,0.21277824,-0.2224957,-0.04901801,0.0,0.0,0.0
13277735,0.21291219,-0.22249879,-0.049030155,0.0,0.0,0.0
13281661,0.21447033,-0.222463,-0.04957645,0.0,0.0,0.0
13285841,0.21460287,-0.22245772,-0.04958814,0.0,0.0,0.0
13289795,0.21473286,-0.22245355,-0.049599644,0.0,0.0,0.0
13293699,0.21486302,-0.22244117,-0.049610842,0.0,0.0,0.0
13297816,0.21500012,-0.22243331,-0.04962284,0.0,0.0,0.0
13301677,0.21514736,-0.2224379,-0.049636234,0.0,0.0,0.0
13305725,0.21558893,-0.22241557,-0.049760677,0.0,0.0,0.0
13309938,0.21574591,-0.22239187,-0.049773835,0.0,0.0,0.0
13313675,0.2158964,-0.2223859,-0.049787104,0.0,0.0,0.0
13317726,0.21606387,-0.22237256,-0.049801603,0.0,0.0,0.0
13321796,0.21623053,-0.22235295,-0.049815778,0.0,0.0,0.0
13325787,0.21641031,-0.2223416,-0.04983146,0.0,0.0,0.0
13329810,0.216414,-0.22233658,-0.049783394,0.0,0.0,0.0
13334027,0.21656558,-0.22233385,-0.049796887,0.0,0.0,0.0
13337701,0.21672249,-0.22232053,-0.04981043,0.0,0.0,0.0
13341673,0.2169033,-0.2223079,-0.04982615,0.0,0.0,0.0
13345820,0.2170838,-0.22229248,-0.049841724,0.0,0.0,0.0
13349812,0.21725385,-0.22229588,-0.049857117,0.0,0.0,0.0
13353694,0.21627896,-0.22230883,-0.049442973,0.0,0.0,0.0
13357795,0.21643615,-0.22231905,-0.04945749,0.0,0.0,0.0
13361689,0.21659006,-0.22231549,-0.049471155,0.0,0.0,0.0
13365739,0.21675664,-0.22231035,-0.049485896,0.0,0.0,0.0
13369860,0.21693079,-0.22231768,-0.04950182,0.0,0.0,0.0
13373714,0.21709092,-0.22228375,-0.04951481,0.0,0.0,0.0
13377715,0.21583611,-0.22230637,-0.048999097,0.0,0.0,0.0
13381752,0.21598874,-0.2223132,-0.049013067,0.0,0.0,0.0
13385720,0.21615613,-0.22230849,-0.049027897,0.0,0.0,0.0
13389799,0.21630725,-0.22228575,-0.04904053,0.0,0.0,0.0
13393808,0.21645,-0.2222589,-0.04905223,0.0,0.0,0.0
13397744,0.21659856,-0.22226153,-0.049065664,0.0,0.0,0.0
13401679,0.21644469,-0.22226827,-0.048966896,0.0,0.0,0.0
13405795,0.2165639,-0.22225852,-0.048977192,0.0,0.0,0.0
13409820,0.2166773,-0.22224249,-0.048986703,0.0,0.0,0.0
13413732,0.21679433,-0.22224432,-0.04899728,0.0,0.0,0.0
13417821,0.2169165,-0.22225124,-0.049008526,0.0,0.0,0.0
13421669,0.21704681,-0.22226633,-0.049020838,0.0,0.0,0.0
13425724,0.21735004,-0.22229996,-0.049097057,0.0,0.0,0.0
13429950,0.217465,-0.2223116,-0.049107846,0.0,0.0,0.0
13433735,0.2175725,-0.2223028,-0.04911713,0.0,0.0,0.0
13437759,0.21768646,-0.22231182,-0.04912774,0.0,0.0,0.0
13441737,0.21778333,-0.22231184,-0.04913643,0.0,0.0,0.0
13445693,0.21788096,-0.22231051,-0.049145136,0.0,0.0,0.0
13449778,0.21810243,-0.22229268,-0.049198553,0.0,0.0,0.0
13453815,0.2181849,-0.22229302,-0.049205963,0.0,0.0,0.0
13457750,0.21824035,-0.2222808,-0.049210433,0.0,0.0,0.0
13461826,0.21832289,-0.22227812,-0.049217727,0.0,0.0,0.0
13465769,0.21942055,-0.22226459,-0.0496116,0.0,0.0,0.0
13469790,0.2194985,-0.22225606,-0.049618233,0.0,0.0,0.0
13473811,0.21957517,-0.2222642,-0.049625456,0.0,0.0,0.0
13477807,0.21965039,-0.22226459,-0.049632218,0.0,0.0,0.0
13481670,0.21970983,-0.22227056,-0.049637806,0.0,0.0,0.0
13485765,0.21974376,-0.22228612,-0.049641497,0.0,0.0,0.0
13489775,0.22115134,-0.22227496,-0.050162587,0.0,0.0,0.0
13493749,0.22118492,-0.22225423,-0.05016474,0.0,0.0,0.0
13497860,0.22120218,-0.22223811,-0.05016562,0.0,0.0,0.0
13501727,0.22119667,-0.22221431,-0.050164126,0.0,0.0,0.0
13505698,0.22118576,-0.22218722,-0.05016202,0.0,0.0,0.0
13509844,0.22118783,-0.22218814,-0.05016224,0.0,0.0,0.0
13513735,0.2204772,-0.22219068,-0.049894072,0.0,0.0,0.0
13516886,0.22046807,-0.22218363,-0.049892955,0.0,0.0,0.0
13521153,0.22044384,-0.22216232,-0.049889896,0.0,0.0,0.0
13524972,0.22041313,-0.22215845,-0.04988697,0.0,0.0,0.0
13528900,0.22037663,-0.2221876,-0.049884923,0.0,0.0,0.0
13533766,0.2203466,-0.22220849,-0.0498831,0.0,0.0,0.0
13537761,0.21875596,-0.22223103,-0.04929575,0.0,0.0,0.0
13541743,0.21870491,-0.22222926,-0.0492911,0.0,0.0,0.0
13545816,0.21866107,-0.22223948,-0.049287587,0.0,0.0,0.0
13548938,0.21861272,-0.22223629,-0.049283113,0.0,0.0,0.0
13552904,0.2185488,-0.22224866,-0.049277898,0.0,0.0,0.0
13556924,0.21847211,-0.22225653,-0.049271345,0.0,0.0,0.0
13561031,0.2179655,-0.22228698,-0.049102563,0.0,0.0,0.0
13564957,0.2178873,-0.222292,-0.04909576,0.0,0.0,0.0
13568955,0.21779512,-0.22229594,-0.04908765,0.0,0.0,0.0
13572923,0.21769923,-0.22230461,-0.049079407,0.0,0.0,0.0
13576887,0.21759735,-0.22233102,-0.04907136,0.0,0.0,0.0
13581157,0.2174869,-0.22235774,-0.049062554,0.0,0.0,0.0
13584959,0.21752411,-0.22238326,-0.049108155,0.0,0.0,0.0
13588923,0.21742131,-0.22238119,-0.049098834,0.0,0.0,0.0
13592994,0.2173087,-0.22238581,-0.049088925,0.0,0.0,0.0
13596897,0.21720712,-0.22239354,-0.04908012,0.0,0.0,0.0
13601169,0.21710294,-0.2223993,-0.049071006,0.0,0.0,0.0
13604972,0.2169819,-0.22241075,-0.049060613,0.0,0.0,0.0
13608925,0.21698879,-0.22241418,-0.04910098,0.0,0.0,0.0
13613021,0.21686296,-0.22241063,-0.049089544,0.0,0.0,0.0
13616853,0.21672875,-0.22241743,-0.049077775,0.0,0.0,0.0
