timestamp,x,y,z,r,flaps,aux1,aux2,aux3,aux4,aux5,aux6,mode_switch,return_switch,rattitude_switch,posctl_switch,loiter_switch,acro_switch,offboard_switch,kill_switch,arm_switch,transition_switch,gear_switch,mode_slot,data_source,stab_switch,man_switch
3361350,0.0,0.050975483,0.99277335,0.04252181,0.0,0.0,0.0,0.0,0.0,0.0,0.0,0,0,0,0,0,0,0,1,1,1,0,3,1,0,0
3384511,0.0,0.05096989,0.9927706,0.04174503,0.0,0.0,0.0,0.0,0.0,0.0,0.0,0,0,0,0,0,0,0,1,1,1,0,3,1,0,0
3408534,0.0,0.050969604,0.99277043,0.041528173,0.0,0.0,0.0,0.0,0.0,0.0,0.0,0,0,0,0,0,0,0,1,1,1,0,3,1,0,0
3428609,0.0,0.050970595,0.9927709,0.04210645,0.0,0.0,0.0,0.0,0.0,0.0,0.0,0,0,0,0,0,0,0,1,1,1,0,3,1,0,0
3448534,0.0,0.05097102,0.99277115,0.04286891,0.0,0.0,0.0,0.0,0.0,0.0,0.0,0,0,0,0,0,0,0,1,1,1,0,3,1,0,0
3473191,0.0,0.050970986,0.9927712,0.042531118,0.0,0.0,0.0,0.0,0.0,0.0,0.0,0,0,0,0,0,0,0,1,1,1,0,3,1,0,0
3496515,0.0,0.050970886,0.9927711,0.042256992,0.0,0.0,0.0,0.0,0.0,0.0,0.0,0,0,0,0,0,0,0,1,1,1,0,3,1,0,0
3520601,0.0,0.050970856,0.9927711,0.042728145,0.0,0.0,0.0,0.0,0.0,0.0,0.0,0,0,0,0,0,0,0,1,1,1,0,3,1,0,0
3540614,0.0,0.050970864,0.9927711,0.04244962,0.0,0.0,0.0,0.0,0.0,0.0,0.0,0,0,0,0,0,0,0,1,1,1,0,3,1,0,0
3572926,0.0,0.050970875,0.9927711,0.041748136,0.0,0.0,0.0,0.0,0.0,0.0,0.0,0,0,0,0,0,0,0,1,1,1,0,3,1,0,0
3595013,0.0,0.050970875,0.9927711,0.041543454,0.0,0.0,0.0,0.0,0.0,0.0,0.0,0,0,0,0,0,0,0,1,1,1,0,3,1,0,0
3616943,0.0,0.050970875,0.9927711,0.041605186,0.0,0.0,0.0,0.0,0.0,0.0,0.0,0,0,0,0,0,0,0,1,1,1,0,3,1,0,0
3638944,0.0,0.05097087,0.9927711,0.041668076,0.0,0.0,0.0,0.0,0.0,0.0,0.0,0,0,0,0,0,0,0,1,1,1,0,3,1,0,0
3660936,0.0,0.05097087,0.9927711,0.041679226,0.0,0.0,0.0,0.0,0.0,0.0,0.0,0,0,0,0,0,0,0,1,1,1,0,3,1,0,0
3683134,0.0,0.05147226,0.99301994,0.04217734,0.0,0.0,0.0,0.0,0.0,0.0,0.0,0,0,0,0,0,0,0,1,1,1,0,3,1,0,0
3704949,0.0,0.052158926,0.9933607,0.042865526,0.0,0.0,0.0,0.0,0.0,0.0,0.0,0,0,0,0,0,0,0,1,1,1,0,3,1,0,0
3727065,0.0,0.0518131,0.9931891,0.042515986,0.0,0.0,0.0,0.0,0.0,0.0,0.0,0,0,0,0,0,0,0,1,1,1,0,3,1,0,0
3748949,0.0,0.05104946,0.9928101,0.04174576,0.0,0.0,0.0,0.0,0.0,0.0,0.0,0,0,0,0,0,0,0,1,1,1,0,3,1,0,0
3770956,0.0,0.05133638,0.9929526,0.04203589,0.0,0.0,0.0,0.0,0.0,0.0,0.0,0,0,0,0,0,0,0,1,1,1,0,3,1,0,0
3792974,0.0,0.052093327,0.9933283,0.042800225,0.0,0.0,0.0,0.0,0.0,0.0,0.0,0,0,0,0,0,0,0,1,1,1,0,3,1,0,0
3814992,0.0,0.05181547,0.99319035,0.042519554,0.0,0.0,0.0,0.0,0.0,0.0,0.0,0,0,0,0,0,0,0,1,1,1,0,3,1,0,0
3836937,0.0,0.05106318,0.9928169,0.041759863,0.0,0.0,0.0,0.0,0.0,0.0,0.0,0,0,0,0,0,0,0,1,1,1,0,3,1,0,0
3858962,0.0,0.0508396,0.99270594,0.0415341,0.0,0.0,0.0,0.0,0.0,0.0,0.0,0,0,0,0,0,0,0,1,1,1,0,3,1,0,0
3880928,0.0,0.05090429,0.992738,0.04159943,0.0,0.0,0.0,0.0,0.0,0.0,0.0,0,0,0,0,0,0,0,1,1,1,0,3,1,0,0
3903017,0.0,0.050971977,0.9927716,0.04166778,0.0,0.0,0.0,0.0,0.0,0.0,0.0,0,0,0,0,0,0,0,1,1,1,0,3,1,0,0
3924941,0.0,0.05148571,0.9930267,0.04218655,0.0,0.0,0.0,0.0,0.0,0.0,0.0,0,0,0,0,0,0,0,1,1,1,0,3,1,0,0
3947023,0.0,0.05216368,0.9933632,0.04287117,0.0,0.0,0.0,0.0,0.0,0.0,0.0,0,0,0,0,0,0,0,1,1,1,0,3,1,0,0
3968934,0.0,0.052313615,0.9934376,0.043022573,0.0,0.0,0.0,0.0,0.0,0.0,0.0,0,0,0,0,0,0,0,1,1,1,0,3,1,0,0
3991036,0.0,0.05223626,0.9933992,0.04294446,0.0,0.0,0.0,0.0,0.0,0.0,0.0,0,0,0,0,0,0,0,1,1,1,0,3,1,0,0
4012931,0.0,0.052178316,0.9933704,0.042885948,0.0,0.0,0.0,0.0,0.0,0.0,0.0,0,0,0,0,0,0,0,1,1,1,0,3,1,0,0
4035011,0.0,0.052172054,0.9933673,0.042879622,0.0,0.0,0.0,0.0,0.0,0.0,0.0,0,0,0,0,0,0,0,1,1,1,0,3,1,0,0
4057042,0.0,0.052181084,0.9933718,0.042888742,0.0,0.0,0.0,0.0,0.0,0.0,0.0,0,0,0,0,0,0,0,1,1,1,0,3,1,0,0
4079035,0.0,0.052185647,0.9933741,0.04289335,0.0,0.0,0.0,0.0,0.0,0.0,0.0,0,0,0,0,0,0,0,1,1,1,0,3,1,0,0
4100943,0.0,0.05168418,0.99312514,0.042386964,0.0,0.0,0.0,0.0,0.0,0.0,0.0,0,0,0,0,0,0,0,1,1,1,0,3,1,0,0
4123039,0.0,0.050996587,0.99278384,0.041692633,0.0,0.0,0.0,0.0,0.0,0.0,0.0,0,0,0,0,0,0,0,1,1,1,0,3,1,0,0
4144940,0.0,0.0508407,0.9927065,0.041535217,0.0,0.0,0.0,0.0,0.0,0.0,0.0,0,0,0,0,0,0,0,1,1,1,0,3,1,0,0
4166992,0.0,0.050917733,0.9927447,0.04161301,0.0,0.0,0.0,0.0,0.0,0.0,0.0,0,0,0,0,0,0,0,1,1,1,0,3,1,0,0
4188972,0.0,0.050976727,0.992774,0.04167258,0.0,0.0,0.0,0.0,0.0,0.0,0.0,0,0,0,0,0,0,0,1,1,1,0,3,1,0,0
4211008,0.0,0.05098344,0.99277735,0.04167936,0.0,0.0,0.0,0.0,0.0,0.0,0.0,0,0,0,0,0,0,0,1,1,1,0,3,1,0,0
4232968,0.0,0.050974373,0.9927728,0.0416702,0.0,0.0,0.0,0.0,0.0,0.0,0.0,0,0,0,0,0,0,0,1,1,1,0,3,1,0,0
4254929,0.0,0.05096971,0.99277043,0.041665487,0.0,0.0,0.0,0.0,0.0,0.0,0.0,0,0,0,0,0,0,0,1,1,1,0,3,1,0,0
4276931,0.0,0.05096976,0.9927705,0.041665543,0.0,0.0,0.0,0.0,0.0,0.0,0.0,0,0,0,0,0,0,0,1,1,1,0,3,1,0,0
4299055,0.0,0.051472083,0.9930199,0.042172786,0.0,0.0,0.0,0.0,0.0,0.0,0.0,0,0,0,0,0,0,0,1,1,1,0,3,1,0,0
4320931,0.0,0.052159086,0.99336094,0.04286652,0.0,0.0,0.0,0.0,0.0,0.0,0.0,0,0,0,0,0,0,0,1,1,1,0,3,1,0,0
4343053,0.0,0.051813196,0.99318916,0.042517245,0.0,0.0,0.0,0.0,0.0,0.0,0.0,0,0,0,0,0,0,0,1,1,1,0,3,1,0,0
4364979,0.0,0.051049467,0.9928101,0.041746028,0.0,0.0,0.0,0.0,0.0,0.0,0.0,0,0,0,0,0,0,0,1,1,1,0,3,1,0,0
4386967,0.0,0.05083498,0.9927036,0.041529436,0.0,0.0,0.0,0.0,0.0,0.0,0.0,0,0,0,0,0,0,0,1,1,1,0,3,1,0,0
4408936,0.0,0.05090527,0.99273854,0.041600417,0.0,0.0,0.0,0.0,0.0,0.0,0.0,0,0,0,0,0,0,0,1,1,1,0,3,1,0,0
4430956,0.0,0.050973244,0.9927723,0.04166906,0.0,0.0,0.0,0.0,0.0,0.0,0.0,0,0,0,0,0,0,0,1,1,1,0,3,1,0,0
4452930,0.0,0.051485986,0.9930268,0.04218683,0.0,0.0,0.0,0.0,0.0,0.0,0.0,0,0,0,0,0,0,0,1,1,1,0,3,1,0,0
4474979,0.0,0.052163538,0.99336314,0.042871024,0.0,0.0,0.0,0.0,0.0,0.0,0.0,0,0,0,0,0,0,0,1,1,1,0,3,1,0,0
4496934,0.0,0.051812116,0.9931887,0.04251616,0.0,0.0,0.0,0.0,0.0,0.0,0.0,0,0,0,0,0,0,0,1,1,1,0,3,1,0,0
4518963,0.0,0.051048193,0.9928095,0.041744746,0.0,0.0,0.0,0.0,0.0,0.0,0.0,0,0,0,0,0,0,0,1,1,1,0,3,1,0,0
4540933,0.0,0.05083472,0.9927035,0.041529175,0.0,0.0,0.0,0.0,0.0,0.0,0.0,0,0,0,0,0,0,0,1,1,1,0,3,1,0,0
4562914,0.0,0.05090542,0.9927386,0.04160057,0.0,0.0,0.0,0.0,0.0,0.0,0.0,0,0,0,0,0,0,0,1,1,1,0,3,1,0,0
4584935,0.0,0.05097335,0.99277234,0.041669168,0.0,0.0,0.0,0.0,0.0,0.0,0.0,0,0,0,0,0,0,0,1,1,1,0,3,1,0,0
4607047,0.0,0.050984602,0.9927779,0.041680533,0.0,0.0,0.0,0.0,0.0,0.0,0.0,0,0,0,0,0,0,0,1,1,1,0,3,1,0,0
4628957,0.0,0.050975464,0.99277335,0.041671302,0.0,0.0,0.0,0.0,0.0,0.0,0.0,0,0,0,0,0,0,0,1,1,1,0,3,1,0,0
4651007,0.0,0.05096988,0.9927706,0.041665662,0.0,0.0,0.0,0.0,0.0,0.0,0.0,0,0,0,0,0,0,0,1,1,1,0,3,1,0,0
4672980,0.0,0.05096961,0.99277043,0.04166539,0.0,0.0,0.0,0.0,0.0,0.0,0.0,0,0,0,0,0,0,0,1,1,1,0,3,1,0,0
4694936,0.0,0.0509706,0.9927709,0.042172696,0.0,0.0,0.0,0.0,0.0,0.0,0.0,0,0,0,0,0,0,0,1,1,1,0,3,1,0,0
4716970,0.0,0.050971024,0.99277115,0.042866517,0.0,0.0,0.0,0.0,0.0,0.0,0.0,0,0,0,0,0,0,0,1,1,1,0,3,1,0,0
4738995,0.0,0.050970983,0.9927712,0.04251726,0.0,0.0,0.0,0.0,0.0,0.0,0.0,0,0,0,0,0,0,0,1,1,1,0,3,1,0,0
4760976,0.0,0.050970886,0.9927711,0.041746035,0.0,0.0,0.0,0.0,0.0,0.0,0.0,0,0,0,0,0,0,0,1,1,1,0,3,1,0,0
4782991,0.0,0.050970856,0.9927711,0.04152944,0.0,0.0,0.0,0.0,0.0,0.0,0.0,0,0,0,0,0,0,0,1,1,1,0,3,1,0,0
4804919,0.0,0.050970864,0.9927711,0.041600417,0.0,0.0,0.0,0.0,0.0,0.0,0.0,0,0,0,0,0,0,0,1,1,1,0,3,1,0,0
4827034,0.0,0.050970875,0.9927711,0.04166906,0.0,0.0,0.0,0.0,0.0,0.0,0.0,0,0,0,0,0,0,0,1,1,1,0,3,1,0,0
4848996,0.0,0.050970875,0.9927711,0.041680526,0.0,0.0,0.0,0.0,0.0,0.0,0.0,0,0,0,0,0,0,0,1,1,1,0,3,1,0,0
4871021,0.0,0.050970875,0.9927711,0.04167132,0.0,0.0,0.0,0.0,0.0,0.0,0.0,0,0,0,0,0,0,0,1,1,1,0,3,1,0,0
4892938,0.0,0.05097087,0.9927711,0.041665673,0.0,0.0,0.0,0.0,0.0,0.0,0.0,0,0,0,0,0,0,0,1,1,1,0,3,1,0,0
4914927,0.0,0.05097087,0.9927711,0.04166539,0.0,0.0,0.0,0.0,0.0,0.0,0.0,0,0,0,0,0,0,0,1,1,1,0,3,1,0,0
4936971,0.0,0.05097087,0.9927711,0.04166639,0.0,0.0,0.0,0.0,0.0,0.0,0.0,0,0,0,0,0,0,0,1,1,1,0,3,1,0,0
4958982,0.0,0.05097087,0.9927711,0.041666813,0.0,0.0,0.0,0.0,0.0,0.0,0.0,0,0,0,0,0,0,0,1,1,1,0,3,1,0,0
4980958,0.0,0.05097087,0.9927711,0.041666776,0.0,0.0,0.0,0.0,0.0,0.0,0.0,0,0,0,0,0,0,0,1,1,1,0,3,1,0,0
5003032,0.0,0.05097087,0.9927711,0.04166668,0.0,0.0,0.0,0.0,0.0,0.0,0.0,0,0,0,0,0,0,0,1,1,1,0,3,1,0,0
5024922,0.0,0.05097087,0.9927711,0.041666653,0.0,0.0,0.0,0.0,0.0,0.0,0.0,0,0,0,0,0,0,0,1,1,1,0,3,1,0,0
5047004,0.0,0.05097087,0.9927711,0.04166666,0.0,0.0,0.0,0.0,0.0,0.0,0.0,0,0,0,0,0,0,0,1,1,1,0,3,1,0,0
5068913,0.0,0.05097087,0.9927711,0.041666668,0.0,0.0,0.0,0.0,0.0,0.0,0.0,0,0,0,0,0,0,0,1,1,1,0,3,1,0,0
5090976,0.0,0.05097087,0.9927711,0.04166667,0.0,0.0,0.0,0.0,0.0,0.0,0.0,0,0,0,0,0,0,0,1,1,1,0,3,1,0,0
5112912,0.0,0.05097087,0.9927711,0.041666668,0.0,0.0,0.0,0.0,0.0,0.0,0.0,0,0,0,0,0,0,0,1,1,1,0,3,1,0,0
5134936,0.0,0.05147226,0.99301994,0.041666668,0.0,0.0,0.0,0.0,0.0,0.0,0.0,0,0,0,0,0,0,0,1,1,1,0,3,1,0,0
5156960,0.0,0.052158926,0.9933607,0.041666668,0.0,0.0,0.0,0.0,0.0,0.0,0.0,0,0,0,0,0,0,0,1,1,1,0,3,1,0,0
5178937,0.0,0.0518131,0.9931891,0.041666668,0.0,0.0,0.0,0.0,0.0,0.0,0.0,0,0,0,0,0,0,0,1,1,1,0,3,1,0,0
5201033,0.0,0.05104946,0.9928101,0.041666668,0.0,0.0,0.0,0.0,0.0,0.0,0.0,0,0,0,0,0,0,0,1,1,1,0,3,1,0,0
5223030,0.0,0.05083499,0.9927037,0.041666668,0.0,0.0,0.0,0.0,0.0,0.0,0.0,0,0,0,0,0,0,0,1,1,1,0,3,1,0,0
5244934,0.0,0.050905276,0.99273854,0.041666668,0.0,0.0,0.0,0.0,0.0,0.0,0.0,0,0,0,0,0,0,0,1,1,1,0,3,1,0,0
5267009,0.0,0.05147463,0.99302113,0.042172972,0.0,0.0,0.0,0.0,0.0,0.0,0.0,0,0,0,0,0,0,0,1,1,1,0,3,1,0,0
5288935,0.0,0.05217265,0.99336755,0.042866368,0.0,0.0,0.0,0.0,0.0,0.0,0.0,0,0,0,0,0,0,0,1,1,1,0,3,1,0,0
5310954,0.0,0.051817708,0.9931914,0.04251715,0.0,0.0,0.0,0.0,0.0,0.0,0.0,0,0,0,0,0,0,0,1,1,1,0,3,1,0,0
5332969,0.0,0.051048476,0.9928096,0.041746024,0.0,0.0,0.0,0.0,0.0,0.0,0.0,0,0,0,0,0,0,0,1,1,1,0,3,1,0,0
5354926,0.0,0.05083373,0.992703,0.041529454,0.0,0.0,0.0,0.0,0.0,0.0,0.0,0,0,0,0,0,0,0,1,1,1,0,3,1,0,0
5376928,0.0,0.050905004,0.99273837,0.04160042,0.0,0.0,0.0,0.0,0.0,0.0,0.0,0,0,0,0,0,0,0,1,1,1,0,3,1,0,0
5399046,0.0,0.05097339,0.9927723,0.041669056,0.0,0.0,0.0,0.0,0.0,0.0,0.0,0,0,0,0,0,0,0,1,1,1,0,3,1,0,0
5420950,0.0,0.050984703,0.9927779,0.041680526,0.0,0.0,0.0,0.0,0.0,0.0,0.0,0,0,0,0,0,0,0,1,1,1,0,3,1,0,0
5443046,0.0,0.05097549,0.99277335,0.04167132,0.0,0.0,0.0,0.0,0.0,0.0,0.0,0,0,0,0,0,0,0,1,1,1,0,3,1,0,0
5464944,0.0,0.05147126,0.99301946,0.042171977,0.0,0.0,0.0,0.0,0.0,0.0,0.0,0,0,0,0,0,0,0,1,1,1,0,3,1,0,0
5487065,0.0,0.05215765,0.99336016,0.04286509,0.0,0.0,0.0,0.0,0.0,0.0,0.0,0,0,0,0,0,0,0,1,1,1,0,3,1,0,0
5508970,0.0,0.052314214,0.99343795,0.043023176,0.0,0.0,0.0,0.0,0.0,0.0,0.0,0,0,0,0,0,0,0,1,1,1,0,3,1,0,0
5531038,0.0,0.05223766,0.9933999,0.042945873,0.0,0.0,0.0,0.0,0.0,0.0,0.0,0,0,0,0,0,0,0,1,1,1,0,3,1,0,0
5552930,0.0,0.05217872,0.99337065,0.04288635,0.0,0.0,0.0,0.0,0.0,0.0,0.0,0,0,0,0,0,0,0,1,1,1,0,3,1,0,0
5575030,0.0,0.052171927,0.99336725,0.042879496,0.0,0.0,0.0,0.0,0.0,0.0,0.0,0,0,0,0,0,0,0,1,1,1,0,3,1,0,0
5596971,0.0,0.051679574,0.9931228,0.04238231,0.0,0.0,0.0,0.0,0.0,0.0,0.0,0,0,0,0,0,0,0,1,1,1,0,3,1,0,0
5618969,0.0,0.050997574,0.9927843,0.041693628,0.0,0.0,0.0,0.0,0.0,0.0,0.0,0,0,0,0,0,0,0,1,1,1,0,3,1,0,0
5640963,0.0,0.050841965,0.9927071,0.0415365,0.0,0.0,0.0,0.0,0.0,0.0,0.0,0,0,0,0,0,0,0,1,1,1,0,3,1,0,0
5662990,0.0,0.050918013,0.99274486,0.04161329,0.0,0.0,0.0,0.0,0.0,0.0,0.0,0,0,0,0,0,0,0,1,1,1,0,3,1,0,0
5684934,0.0,0.050976582,0.99277395,0.041672435,0.0,0.0,0.0,0.0,0.0,0.0,0.0,0,0,0,0,0,0,0,1,1,1,0,3,1,0,0
5707033,0.0,0.050983332,0.9927773,0.04167925,0.0,0.0,0.0,0.0,0.0,0.0,0.0,0,0,0,0,0,0,0,1,1,1,0,3,1,0,0
5728943,0.0,0.050974365,0.9927728,0.04167019,0.0,0.0,0.0,0.0,0.0,0.0,0.0,0,0,0,0,0,0,0,1,1,1,0,3,1,0,0
5751005,0.0,0.05147111,0.9930194,0.04217181,0.0,0.0,0.0,0.0,0.0,0.0,0.0,0,0,0,0,0,0,0,1,1,1,0,3,1,0,0
5772945,0.0,0.05215782,0.9933603,0.04286525,0.0,0.0,0.0,0.0,0.0,0.0,0.0,0,0,0,0,0,0,0,1,1,1,0,3,1,0,0
5794927,0.0,0.051812913,0.99318904,0.04251697,0.0,0.0,0.0,0.0,0.0,0.0,0.0,0,0,0,0,0,0,0,1,1,1,0,3,1,0,0
5816961,0.0,0.05104961,0.9928102,0.041746173,0.0,0.0,0.0,0.0,0.0,0.0,0.0,0,0,0,0,0,0,0,1,1,1,0,3,1,0,0
5838993,0.0,0.050835084,0.99270374,0.041529544,0.0,0.0,0.0,0.0,0.0,0.0,0.0,0,0,0,0,0,0,0,1,1,1,0,3,1,0,0
5860912,0.0,0.050905276,0.9927385,0.04160043,0.0,0.0,0.0,0.0,0.0,0.0,0.0,0,0,0,0,0,0,0,1,1,1,0,3,1,0,0
5882988,0.0,0.050973225,0.9927722,0.04166904,0.0,0.0,0.0,0.0,0.0,0.0,0.0,0,0,0,0,0,0,0,1,1,1,0,3,1,0,0
5904962,0.0,0.050984588,0.9927779,0.041680515,0.0,0.0,0.0,0.0,0.0,0.0,0.0,0,0,0,0,0,0,0,1,1,1,0,3,1,0,0
5926917,0.0,0.05097548,0.99277335,0.04167132,0.0,0.0,0.0,0.0,0.0,0.0,0.0,0,0,0,0,0,0,0,1,1,1,0,3,1,0,0
5948931,0.0,0.05096989,0.9927706,0.041665673,0.0,0.0,0.0,0.0,0.0,0.0,0.0,0,0,0,0,0,0,0,1,1,1,0,3,1,0,0
5971105,0.0,0.050969608,0.99277043,0.04166539,0.0,0.0,0.0,0.0,0.0,0.0,0.0,0,0,0,0,0,0,0,1,1,1,0,3,1,0,0
5992946,0.0,0.0509706,0.9927709,0.04166639,0.0,0.0,0.0,0.0,0.0,0.0,0.0,0,0,0,0,0,0,0,1,1,1,0,3,1,0,0
6015055,0.0,0.05147241,0.99277115,0.041666813,0.0,0.0,0.0,0.0,0.0,0.0,0.0,0,0,0,0,0,0,0,1,1,1,0,3,1,0,0
6036934,0.0,0.052159037,0.9927712,0.041666776,0.0,0.0,0.0,0.0,0.0,0.0,0.0,0,0,0,0,0,0,0,1,1,1,0,3,1,0,0
6059034,0.0,0.05181311,0.9927711,0.04166668,0.0,0.0,0.0,0.0,0.0,0.0,0.0,0,0,0,0,0,0,0,1,1,1,0,3,1,0,0
6080976,0.0,0.051049445,0.9927711,0.041666653,0.0,0.0,0.0,0.0,0.0,0.0,0.0,0,0,0,0,0,0,0,1,1,1,0,3,1,0,0
6103023,0.0,0.050834984,0.9927711,0.04166666,0.0,0.0,0.0,0.0,0.0,0.0,0.0,0,0,0,0,0,0,0,1,1,1,0,3,1,0,0
6124939,0.0,0.050905276,0.9927711,0.041666668,0.0,0.0,0.0,0.0,0.0,0.0,0.0,0,0,0,0,0,0,0,1,1,1,0,3,1,0,0
6146931,0.0,0.050973244,0.9927711,0.04166667,0.0,0.0,0.0,0.0,0.0,0.0,0.0,0,0,0,0,0,0,0,1,1,1,0,3,1,0,0
6168931,0.0,0.050984595,0.9927711,0.041666668,0.0,0.0,0.0,0.0,0.0,0.0,0.0,0,0,0,0,0,0,0,1,1,1,0,3,1,0,0
6191052,0.0,0.050975483,0.9927711,0.041666668,0.0,0.0,0.0,0.0,0.0,0.0,0.0,0,0,0,0,0,0,0,1,1,1,0,3,1,0,0
6212933,0.0,0.05096989,0.9927711,0.041666668,0.0,0.0,0.0,0.0,0.0,0.0,0.0,0,0,0,0,0,0,0,1,1,1,0,3,1,0,0
6235034,0.0,0.050969604,0.9927711,0.041666668,0.0,0.0,0.0,0.0,0.0,0.0,0.0,0,0,0,0,0,0,0,1,1,1,0,3,1,0,0
6256931,0.0,0.050970595,0.9927711,0.041666668,0.0,0.0,0.0,0.0,0.0,0.0,0.0,0,0,0,0,0,0,0,1,1,1,0,3,1,0,0
6279026,0.0,0.05097102,0.9927711,0.041666668,0.0,0.0,0.0,0.0,0.0,0.0,0.0,0,0,0,0,0,0,0,1,1,1,0,3,1,0,0
6300931,0.0,0.050970986,0.9927711,0.041666668,0.0,0.0,0.0,0.0,0.0,0.0,0.0,0,0,0,0,0,0,0,1,1,1,0,3,1,0,0
6322988,0.0,0.050970886,0.9927711,0.041666668,0.0,0.0,0.0,0.0,0.0,0.0,0.0,0,0,0,0,0,0,0,1,1,1,0,3,1,0,0
6344959,0.0,0.050970856,0.9927711,0.041666668,0.0,0.0,0.0,0.0,0.0,0.0,0.0,0,0,0,0,0,0,0,1,1,1,0,3,1,0,0
6367040,0.0,0.050970864,0.9927711,0.042172972,0.0,0.0,0.0,0.0,0.0,0.0,0.0,0,0,0,0,0,0,0,1,1,1,0,3,1,0,0
6388935,0.0,0.050970875,0.9927711,0.042866368,0.0,0.0,0.0,0.0,0.0,0.0,0.0,0,0,0,0,0,0,0,1,1,1,0,3,1,0,0
6410915,0.0,0.050970875,0.9927711,0.04251715,0.0,0.0,0.0,0.0,0.0,0.0,0.0,0,0,0,0,0,0,0,1,1,1,0,3,1,0,0
6432973,0.0,0.050970875,0.9927711,0.04225233,0.0,0.0,0.0,0.0,0.0,0.0,0.0,0,0,0,0,0,0,0,1,1,1,0,3,1,0,0
6454924,0.0,0.05097087,0.9927711,0.042729158,0.0,0.0,0.0,0.0,0.0,0.0,0.0,0,0,0,0,0,0,0,1,1,1,0,3,1,0,0
6476975,0.0,0.05097087,0.9927711,0.04245091,0.0,0.0,0.0,0.0,0.0,0.0,0.0,0,0,0,0,0,0,0,1,1,1,0,3,1,0,0
6498968,0.0,0.05097087,0.9927711,0.041748416,0.0,0.0,0.0,0.0,0.0,0.0,0.0,0,0,0,0,0,0,0,1,1,1,0,3,1,0,0
6520968,0.0,0.05097087,0.9927711,0.04154331,0.0,0.0,0.0,0.0,0.0,0.0,0.0,0,0,0,0,0,0,0,1,1,1,0,3,1,0,0
6542947,0.0,0.05097087,0.9927711,0.041605074,0.0,0.0,0.0,0.0,0.0,0.0,0.0,0,0,0,0,0,0,0,1,1,1,0,3,1,0,0
6564955,0.0,0.05097087,0.9927711,0.04166806,0.0,0.0,0.0,0.0,0.0,0.0,0.0,0,0,0,0,0,0,0,1,1,1,0,3,1,0,0
6586982,0.0,0.05097087,0.9927711,0.041679244,0.0,0.0,0.0,0.0,0.0,0.0,0.0,0,0,0,0,0,0,0,1,1,1,0,3,1,0,0
6608916,0.0,0.05097087,0.9927711,0.04167104,0.0,0.0,0.0,0.0,0.0,0.0,0.0,0,0,0,0,0,0,0,1,1,1,0,3,1,0,0
6630998,0.0,0.05097087,0.9927711,0.041665822,0.0,0.0,0.0,0.0,0.0,0.0,0.0,0,0,0,0,0,0,0,1,1,1,0,3,1,0,0
6652959,0.0,0.05097087,0.9927711,0.0416655,0.0,0.0,0.0,0.0,0.0,0.0,0.0,0,0,0,0,0,0,0,1,1,1,0,3,1,0,0
6674985,0.0,0.05097087,0.9927711,0.0416664,0.0,0.0,0.0,0.0,0.0,0.0,0.0,0,0,0,0,0,0,0,1,1,1,0,3,1,0,0
6696967,0.0,0.05147226,0.99301994,0.042173102,0.0,0.0,0.0,0.0,0.0,0.0,0.0,0,0,0,0,0,0,0,1,1,1,0,3,1,0,0
6718998,0.0,0.052158926,0.9933607,0.04286647,0.0,0.0,0.0,0.0,0.0,0.0,0.0,0,0,0,0,0,0,0,1,1,1,0,3,1,0,0
6740932,0.0,0.0518131,0.9931891,0.042517163,0.0,0.0,0.0,0.0,0.0,0.0,0.0,0,0,0,0,0,0,0,1,1,1,0,3,1,0,0
6763009,0.0,0.05104946,0.9928101,0.04174601,0.0,0.0,0.0,0.0,0.0,0.0,0.0,0,0,0,0,0,0,0,1,1,1,0,3,1,0,0
6784928,0.0,0.05083499,0.9927037,0.041529447,0.0,0.0,0.0,0.0,0.0,0.0,0.0,0,0,0,0,0,0,0,1,1,1,0,3,1,0,0
6806965,0.0,0.050905276,0.99273854,0.041600425,0.0,0.0,0.0,0.0,0.0,0.0,0.0,0,0,0,0,0,0,0,1,1,1,0,3,1,0,0
6828958,0.0,0.050973244,0.9927723,0.04166906,0.0,0.0,0.0,0.0,0.0,0.0,0.0,0,0,0,0,0,0,0,1,1,1,0,3,1,0,0
6851049,0.0,0.050984595,0.9927779,0.041680526,0.0,0.0,0.0,0.0,0.0,0.0,0.0,0,0,0,0,0,0,0,1,1,1,0,3,1,0,0
6872930,0.0,0.050975483,0.99277335,0.04167132,0.0,0.0,0.0,0.0,0.0,0.0,0.0,0,0,0,0,0,0,0,1,1,1,0,3,1,0,0
6895114,0.0,0.05096989,0.9927706,0.041665673,0.0,0.0,0.0,0.0,0.0,0.0,0.0,0,0,0,0,0,0,0,1,1,1,0,3,1,0,0
6916971,0.0,0.050969604,0.99277043,0.04166539,0.0,0.0,0.0,0.0,0.0,0.0,0.0,0,0,0,0,0,0,0,1,1,1,0,3,1,0,0
6939031,0.0,0.051471986,0.9927709,0.04166639,0.0,0.0,0.0,0.0,0.0,0.0,0.0,0,0,0,0,0,0,0,1,1,1,0,3,1,0,0
6960928,0.0,0.052159075,0.99277115,0.041666813,0.0,0.0,0.0,0.0,0.0,0.0,0.0,0,0,0,0,0,0,0,1,1,1,0,3,1,0,0
6983036,0.0,0.051813208,0.9927712,0.041666776,0.0,0.0,0.0,0.0,0.0,0.0,0.0,0,0,0,0,0,0,0,1,1,1,0,3,1,0,0
7004955,0.0,0.051049475,0.9927711,0.04166668,0.0,0.0,0.0,0.0,0.0,0.0,0.0,0,0,0,0,0,0,0,1,1,1,0,3,1,0,0
7027010,0.0,0.051336367,0.99301994,0.042172957,0.0,0.0,0.0,0.0,0.0,0.0,0.0,0,0,0,0,0,0,0,1,1,1,0,3,1,0,0
7049006,0.0,0.052093323,0.9933607,0.042866364,0.0,0.0,0.0,0.0,0.0,0.0,0.0,0,0,0,0,0,0,0,1,1,1,0,3,1,0,0
7071045,0.0,0.05181547,0.9931891,0.042517155,0.0,0.0,0.0,0.0,0.0,0.0,0.0,0,0,0,0,0,0,0,1,1,1,0,3,1,0,0
7092944,0.0,0.051063184,0.9928101,0.041746028,0.0,0.0,0.0,0.0,0.0,0.0,0.0,0,0,0,0,0,0,0,1,1,1,0,3,1,0,0
7114930,0.0,0.05134099,0.9929526,0.04203576,0.0,0.0,0.0,0.0,0.0,0.0,0.0,0,0,0,0,0,0,0,1,1,1,0,3,1,0,0
7136942,0.0,0.052092344,0.9933283,0.042800125,0.0,0.0,0.0,0.0,0.0,0.0,0.0,0,0,0,0,0,0,0,1,1,1,0,3,1,0,0
7158924,0.0,0.051814202,0.99319035,0.04251954,0.0,0.0,0.0,0.0,0.0,0.0,0.0,0,0,0,0,0,0,0,1,1,1,0,3,1,0,0
7180934,0.0,0.051062904,0.9928169,0.04175988,0.0,0.0,0.0,0.0,0.0,0.0,0.0,0,0,0,0,0,0,0,1,1,1,0,3,1,0,0
7203025,0.0,0.05083975,0.99270594,0.041534107,0.0,0.0,0.0,0.0,0.0,0.0,0.0,0,0,0,0,0,0,0,1,1,1,0,3,1,0,0
7224970,0.0,0.051405784,0.992738,0.041599434,0.0,0.0,0.0,0.0,0.0,0.0,0.0,0,0,0,0,0,0,0,1,1,1,0,3,1,0,0
7247006,0.0,0.05216004,0.9927716,0.04166778,0.0,0.0,0.0,0.0,0.0,0.0,0.0,0,0,0,0,0,0,0,1,1,1,0,3,1,0,0
7268934,0.0,0.05182653,0.9927778,0.041680247,0.0,0.0,0.0,0.0,0.0,0.0,0.0,0,0,0,0,0,0,0,1,1,1,0,3,1,0,0
7291054,0.0,0.051054202,0.9927735,0.041671466,0.0,0.0,0.0,0.0,0.0,0.0,0.0,0,0,0,0,0,0,0,1,1,1,0,3,1,0,0
7312923,0.0,0.050834116,0.9927707,0.04166578,0.0,0.0,0.0,0.0,0.0,0.0,0.0,0,0,0,0,0,0,0,1,1,1,0,3,1,0,0
7335094,0.0,0.05090402,0.9927705,0.0416654,0.0,0.0,0.0,0.0,0.0,0.0,0.0,0,0,0,0,0,0,0,1,1,1,0,3,1,0,0
7356948,0.0,0.05097295,0.99277097,0.041666377,0.0,0.0,0.0,0.0,0.0,0.0,0.0,0,0,0,0,0,0,0,1,1,1,0,3,1,0,0
7378944,0.0,0.05098473,0.9927712,0.041666813,0.0,0.0,0.0,0.0,0.0,0.0,0.0,0,0,0,0,0,0,0,1,1,1,0,3,1,0,0
7400913,0.0,0.050975587,0.9927712,0.04166678,0.0,0.0,0.0,0.0,0.0,0.0,0.0,0,0,0,0,0,0,0,1,1,1,0,3,1,0,0
7423040,0.0,0.050969902,0.9927711,0.04166668,0.0,0.0,0.0,0.0,0.0,0.0,0.0,0,0,0,0,0,0,0,1,1,1,0,3,1,0,0
7444943,0.0,0.050969593,0.9927711,0.041666653,0.0,0.0,0.0,0.0,0.0,0.0,0.0,0,0,0,0,0,0,0,1,1,1,0,3,1,0,0
7466995,0.0,0.05147198,0.9927711,0.04166666,0.0,0.0,0.0,0.0,0.0,0.0,0.0,0,0,0,0,0,0,0,1,1,1,0,3,1,0,0
7488955,0.0,0.05215907,0.9927711,0.041666668,0.0,0.0,0.0,0.0,0.0,0.0,0.0,0,0,0,0,0,0,0,1,1,1,0,3,1,0,0
7511008,0.0,0.051813208,0.9927711,0.04166667,0.0,0.0,0.0,0.0,0.0,0.0,0.0,0,0,0,0,0,0,0,1,1,1,0,3,1,0,0
7532930,0.0,0.051049475,0.9927711,0.041666668,0.0,0.0,0.0,0.0,0.0,0.0,0.0,0,0,0,0,0,0,0,1,1,1,0,3,1,0,0
7554922,0.0,0.050834976,0.9927711,0.041666668,0.0,0.0,0.0,0.0,0.0,0.0,0.0,0,0,0,0,0,0,0,1,1,1,0,3,1,0,0
7576953,0.0,0.05090527,0.9927711,0.041666668,0.0,0.0,0.0,0.0,0.0,0.0,0.0,0,0,0,0,0,0,0,1,1,1,0,3,1,0,0
7598989,0.0,0.05147463,0.9927711,0.041666668,0.0,0.0,0.0,0.0,0.0,0.0,0.0,0,0,0,0,0,0,0,1,1,1,0,3,1,0,0
7620954,0.0,0.052172653,0.9927711,0.041666668,0.0,0.0,0.0,0.0,0.0,0.0,0.0,0,0,0,0,0,0,0,1,1,1,0,3,1,0,0
7642990,0.0,0.051817708,0.9927711,0.041666668,0.0,0.0,0.0,0.0,0.0,0.0,0.0,0,0,0,0,0,0,0,1,1,1,0,3,1,0,0
7664930,0.0,0.051048476,0.9927711,0.041666668,0.0,0.0,0.0,0.0,0.0,0.0,0.0,0,0,0,0,0,0,0,1,1,1,0,3,1,0,0
7687019,0.0,0.051335115,0.99301994,0.042172972,0.0,0.0,0.0,0.0,0.0,0.0,0.0,0,0,0,0,0,0,0,1,1,1,0,3,1,0,0
7708948,0.0,0.052594442,0.9933607,0.042866368,0.0,0.0,0.0,0.0,0.0,0.0,0.0,0,0,0,0,0,0,0,1,1,1,0,3,1,0,0
7731036,0.0,0.053003665,0.9931891,0.04251715,0.0,0.0,0.0,0.0,0.0,0.0,0.0,0,0,0,0,0,0,0,1,1,1,0,3,1,0,0
7752964,0.0,0.051905513,0.9928101,0.041746024,0.0,0.0,0.0,0.0,0.0,0.0,0.0,0,0,0,0,0,0,0,1,1,1,0,3,1,0,0
7774937,0.0,0.050918195,0.9927037,0.041529454,0.0,0.0,0.0,0.0,0.0,0.0,0.0,0,0,0,0,0,0,0,1,1,1,0,3,1,0,0
7796956,0.0,0.05076839,0.99273854,0.042106725,0.0,0.0,0.0,0.0,0.0,0.0,0.0,0,0,0,0,0,0,0,1,1,1,0,3,1,0,0
7819025,0.0,0.050906368,0.9927723,0.04337506,0.0,0.0,0.0,0.0,0.0,0.0,0.0,0,0,0,0,0,0,0,1,1,1,0,3,1,0,0
7840936,0.0,0.050986685,0.9927779,0.043730706,0.0,0.0,0.0,0.0,0.0,0.0,0.0,0,0,0,0,0,0,0,1,1,1,0,3,1,0,0
7863009,0.0,0.050989352,0.99277335,0.04260116,0.0,0.0,0.0,0.0,0.0,0.0,0.0,0,0,0,0,0,0,0,1,1,1,0,3,1,0,0
7884928,0.0,0.050974604,0.9927706,0.04160782,0.0,0.0,0.0,0.0,0.0,0.0,0.0,0,0,0,0,0,0,0,1,1,1,0,3,1,0,0
7907051,0.0,0.050968632,0.99277043,0.041461933,0.0,0.0,0.0,0.0,0.0,0.0,0.0,0,0,0,0,0,0,0,1,1,1,0,3,1,0,0
7928963,0.0,0.0514707,0.9930198,0.04210884,0.0,0.0,0.0,0.0,0.0,0.0,0.0,0,0,0,0,0,0,0,1,1,1,0,3,1,0,0
7950986,0.0,0.052158788,0.9933609,0.042882763,0.0,0.0,0.0,0.0,0.0,0.0,0.0,0,0,0,0,0,0,0,1,1,1,0,3,1,0,0
7972940,0.0,0.051813357,0.99318916,0.042535767,0.0,0.0,0.0,0.0,0.0,0.0,0.0,0,0,0,0,0,0,0,1,1,1,0,3,1,0,0
7994936,0.0,0.05155097,0.993059,0.042255998,0.0,0.0,0.0,0.0,0.0,0.0,0.0,0,0,0,0,0,0,0,1,1,1,0,3,1,0,0
8016938,0.0,0.052023042,0.99329334,0.042726867,0.0,0.0,0.0,0.0,0.0,0.0,0.0,0,0,0,0,0,0,0,1,1,1,0,3,1,0,0
8038975,0.0,0.05174748,0.99315655,0.042449344,0.0,0.0,0.0,0.0,0.0,0.0,0.0,0,0,0,0,0,0,0,1,1,1,0,3,1,0,0
8060942,0.0,0.051051818,0.9928112,0.041748285,0.0,0.0,0.0,0.0,0.0,0.0,0.0,0,0,0,0,0,0,0,1,1,1,0,3,1,0,0
8082963,0.0,0.050848715,0.9927104,0.041543566,0.0,0.0,0.0,0.0,0.0,0.0,0.0,0,0,0,0,0,0,0,1,1,1,0,3,1,0,0
8104960,0.0,0.050909884,0.99274075,0.041605197,0.0,0.0,0.0,0.0,0.0,0.0,0.0,0,0,0,0,0,0,0,1,1,1,0,3,1,0,0
8126965,0.0,0.050972257,0.99277174,0.041668057,0.0,0.0,0.0,0.0,0.0,0.0,0.0,0,0,0,0,0,0,0,1,1,1,0,3,1,0,0
8148928,0.0,0.05098333,0.9927772,0.04167922,0.0,0.0,0.0,0.0,0.0,0.0,0.0,0,0,0,0,0,0,0,1,1,1,0,3,1,0,0
8170986,0.0,0.050975204,0.9927732,0.041671034,0.0,0.0,0.0,0.0,0.0,0.0,0.0,0,0,0,0,0,0,0,1,1,1,0,3,1,0,0
8192961,0.0,0.05097004,0.9927707,0.041665822,0.0,0.0,0.0,0.0,0.0,0.0,0.0,0,0,0,0,0,0,0,1,1,1,0,3,1,0,0
8214978,0.0,0.05096972,0.99277055,0.0416655,0.0,0.0,0.0,0.0,0.0,0.0,0.0,0,0,0,0,0,0,0,1,1,1,0,3,1,0,0
8236937,0.0,0.050970614,0.9927709,0.0416664,0.0,0.0,0.0,0.0,0.0,0.0,0.0,0,0,0,0,0,0,0,1,1,1,0,3,1,0,0
8259068,0.0,0.050971005,0.99277115,0.0416668,0.0,0.0,0.0,0.0,0.0,0.0,0.0,0,0,0,0,0,0,0,1,1,1,0,3,1,0,0
8280938,0.0,0.050970975,0.9927712,0.04166677,0.0,0.0,0.0,0.0,0.0,0.0,0.0,0,0,0,0,0,0,0,1,1,1,0,3,1,0,0
8303042,0.0,0.051472273,0.99301994,0.042172983,0.0,0.0,0.0,0.0,0.0,0.0,0.0,0,0,0,0,0,0,0,1,1,1,0,3,1,0,0
8324942,0.0,0.05215891,0.9933607,0.042866353,0.0,0.0,0.0,0.0,0.0,0.0,0.0,0,0,0,0,0,0,0,1,1,1,0,3,1,0,0
8347078,0.0,0.051813092,0.9931891,0.04251714,0.0,0.0,0.0,0.0,0.0,0.0,0.0,0,0,0,0,0,0,0,1,1,1,0,3,1,0,0
8368959,0.0,0.05104946,0.9928101,0.041746024,0.0,0.0,0.0,0.0,0.0,0.0,0.0,0,0,0,0,0,0,0,1,1,1,0,3,1,0,0
8390964,0.0,0.050834995,0.9927037,0.041529458,0.0,0.0,0.0,0.0,0.0,0.0,0.0,0,0,0,0,0,0,0,1,1,1,0,3,1,0,0
8412963,0.0,0.051406663,0.99298745,0.042106733,0.0,0.0,0.0,0.0,0.0,0.0,0.0,0,0,0,0,0,0,0,1,1,1,0,3,1,0,0
8435065,0.0,0.052161295,0.993362,0.04286876,0.0,0.0,0.0,0.0,0.0,0.0,0.0,0,0,0,0,0,0,0,1,1,1,0,3,1,0,0
8456187,0.0,0.05232821,0.9934448,0.04303731,0.0,0.0,0.0,0.0,0.0,0.0,0.0,0,0,0,0,0,0,0,1,1,1,0,3,1,0,0
8476990,0.0,0.05224212,0.9934021,0.042950377,0.0,0.0,0.0,0.0,0.0,0.0,0.0,0,0,0,0,0,0,0,1,1,1,0,3,1,0,0
8499925,0.0,0.051676236,0.99312115,0.042378947,0.0,0.0,0.0,0.0,0.0,0.0,0.0,0,0,0,0,0,0,0,1,1,1,0,3,1,0,0
8524135,0.0,0.050982594,0.9927768,0.041678503,0.0,0.0,0.0,0.0,0.0,0.0,0.0,0,0,0,0,0,0,0,1,1,1,0,3,1,0,0
8548747,0.0,0.05083708,0.9927047,0.041531567,0.0,0.0,0.0,0.0,0.0,0.0,0.0,0,0,0,0,0,0,0,1,1,1,0,3,1,0,0
8571940,0.0,0.050919138,0.9927454,0.04161443,0.0,0.0,0.0,0.0,0.0,0.0,0.0,0,0,0,0,0,0,0,1,1,1,0,3,1,0,0
8595939,0.0,0.050977953,0.9927746,0.04167382,0.0,0.0,0.0,0.0,0.0,0.0,0.0,0,0,0,0,0,0,0,1,1,1,0,3,1,0,0
8619935,0.0,0.050983623,0.9927774,0.041679543,0.0,0.0,0.0,0.0,0.0,0.0,0.0,0,0,0,0,0,0,0,1,1,1,0,3,1,0,0
8639113,0.0,0.050974194,0.99277276,0.041670024,0.0,0.0,0.0,0.0,0.0,0.0,0.0,0,0,0,0,0,0,0,1,1,1,0,3,1,0,0
8659318,0.0,0.050969604,0.99277055,0.041665386,0.0,0.0,0.0,0.0,0.0,0.0,0.0,0,0,0,0,0,0,0,1,1,1,0,3,1,0,0
8683147,0.0,0.050969753,0.99277055,0.041665535,0.0,0.0,0.0,0.0,0.0,0.0,0.0,0,0,0,0,0,0,0,1,1,1,0,3,1,0,0
8707335,0.0,0.05097071,0.992771,0.0416665,0.0,0.0,0.0,0.0,0.0,0.0,0.0,0,0,0,0,0,0,0,1,1,1,0,3,1,0,0
8731372,0.0,0.05097103,0.99277115,0.041666828,0.0,0.0,0.0,0.0,0.0,0.0,0.0,0,0,0,0,0,0,0,1,1,1,0,3,1,0,0
8755330,0.0,0.050970964,0.9927711,0.041666757,0.0,0.0,0.0,0.0,0.0,0.0,0.0,0,0,0,0,0,0,0,1,1,1,0,3,1,0,0
8776414,0.0,0.050970875,0.9927711,0.04166667,0.0,0.0,0.0,0.0,0.0,0.0,0.0,0,0,0,0,0,0,0,1,1,1,0,3,1,0,0
8797548,0.0,0.05097086,0.9927711,0.04166665,0.0,0.0,0.0,0.0,0.0,0.0,0.0,0,0,0,0,0,0,0,1,1,1,0,3,1,0,0
8819129,0.0,0.05097087,0.9927711,0.04166666,0.0,0.0,0.0,0.0,0.0,0.0,0.0,0,0,0,0,0,0,0,1,1,1,0,3,1,0,0
8839372,0.0,0.050970875,0.9927711,0.042172972,0.0,0.0,0.0,0.0,0.0,0.0,0.0,0,0,0,0,0,0,0,1,1,1,0,3,1,0,0
8859366,0.0,0.050970875,0.9927711,0.043372676,0.0,0.0,0.0,0.0,0.0,0.0,0.0,0,0,0,0,0,0,0,1,1,1,0,3,1,0,0
8883357,0.0,0.05097087,0.9927711,0.043716855,0.0,0.0,0.0,0.0,0.0,0.0,0.0,0,0,0,0,0,0,0,1,1,1,0,3,1,0,0
8907206,0.0,0.05147226,0.99301994,0.043102812,0.0,0.0,0.0,0.0,0.0,0.0,0.0,0,0,0,0,0,0,0,1,1,1,0,3,1,0,0
8931328,0.0,0.052158926,0.9933607,0.042808514,0.0,0.0,0.0,0.0,0.0,0.0,0.0,0,0,0,0,0,0,0,1,1,1,0,3,1,0,0
8955338,0.0,0.0518131,0.9931891,0.042313695,0.0,0.0,0.0,0.0,0.0,0.0,0.0,0,0,0,0,0,0,0,1,1,1,0,3,1,0,0
8978527,0.0,0.05104946,0.9928101,0.04168217,0.0,0.0,0.0,0.0,0.0,0.0,0.0,0,0,0,0,0,0,0,1,1,1,0,3,1,0,0
9002540,0.0,0.05083499,0.9927037,0.0415457,0.0,0.0,0.0,0.0,0.0,0.0,0.0,0,0,0,0,0,0,0,1,1,1,0,3,1,0,0
9026539,0.0,0.050905276,0.99273854,0.041618932,0.0,0.0,0.0,0.0,0.0,0.0,0.0,0,0,0,0,0,0,0,1,1,1,0,3,1,0,0
9050351,0.0,0.05147463,0.99302113,0.042179022,0.0,0.0,0.0,0.0,0.0,0.0,0.0,0,0,0,0,0,0,0,1,1,1,0,3,1,0,0
9070374,0.0,0.05217265,0.99336755,0.04287795,0.0,0.0,0.0,0.0,0.0,0.0,0.0,0,0,0,0,0,0,0,1,1,1,0,3,1,0,0
9094291,0.0,0.051817708,0.9931914,0.042520247,0.0,0.0,0.0,0.0,0.0,0.0,0.0,0,0,0,0,0,0,0,1,1,1,0,3,1,0,0
9114338,0.0,0.051048476,0.9928096,0.0417449,0.0,0.0,0.0,0.0,0.0,0.0,0.0,0,0,0,0,0,0,0,1,1,1,0,3,1,0,0
9138550,0.0,0.05083373,0.992703,0.041528434,0.0,0.0,0.0,0.0,0.0,0.0,0.0,0,0,0,0,0,0,0,1,1,1,0,3,1,0,0
9162520,0.0,0.050905004,0.99273837,0.04160027,0.0,0.0,0.0,0.0,0.0,0.0,0.0,0,0,0,0,0,0,0,1,1,1,0,3,1,0,0
9182532,0.0,0.05097339,0.9927723,0.041669197,0.0,0.0,0.0,0.0,0.0,0.0,0.0,0,0,0,0,0,0,0,1,1,1,0,3,1,0,0
9206420,0.0,0.050984703,0.9927779,0.041680604,0.0,0.0,0.0,0.0,0.0,0.0,0.0,0,0,0,0,0,0,0,1,1,1,0,3,1,0,0
9230554,0.0,0.05147688,0.9930222,0.042177625,0.0,0.0,0.0,0.0,0.0,0.0,0.0,0,0,0,0,0,0,0,1,1,1,0,3,1,0,0
9253693,0.0,0.052157924,0.9933603,0.04286536,0.0,0.0,0.0,0.0,0.0,0.0,0.0,0,0,0,0,0,0,0,1,1,1,0,3,1,0,0
9277738,0.0,0.05181183,0.9931885,0.042515866,0.0,0.0,0.0,0.0,0.0,0.0,0.0,0,0,0,0,0,0,0,1,1,1,0,3,1,0,0
9301730,0.0,0.051049188,0.9928099,0.04174575,0.0,0.0,0.0,0.0,0.0,0.0,0.0,0,0,0,0,0,0,0,1,1,1,0,3,1,0,0
9325770,0.0,0.050835144,0.9927037,0.042035908,0.0,0.0,0.0,0.0,0.0,0.0,0.0,0,0,0,0,0,0,0,1,1,1,0,3,1,0,0
9349749,0.0,0.050905384,0.99273854,0.042800233,0.0,0.0,0.0,0.0,0.0,0.0,0.0,0,0,0,0,0,0,0,1,1,1,0,3,1,0,0
9373765,0.0,0.05097325,0.9927723,0.04251955,0.0,0.0,0.0,0.0,0.0,0.0,0.0,0,0,0,0,0,0,0,1,1,1,0,3,1,0,0
9393719,0.0,0.050984576,0.9927779,0.04175986,0.0,0.0,0.0,0.0,0.0,0.0,0.0,0,0,0,0,0,0,0,1,1,1,0,3,1,0,0
9417806,0.0,0.05097547,0.99277335,0.0415341,0.0,0.0,0.0,0.0,0.0,0.0,0.0,0,0,0,0,0,0,0,1,1,1,0,3,1,0,0
9442591,0.0,0.051471274,0.99301946,0.042105734,0.0,0.0,0.0,0.0,0.0,0.0,0.0,0,0,0,0,0,0,0,1,1,1,0,3,1,0,0
9465769,0.0,0.05215766,0.99336016,0.04286748,0.0,0.0,0.0,0.0,0.0,0.0,0.0,0,0,0,0,0,0,0,1,1,1,0,3,1,0,0
9489593,0.0,0.052314214,0.99343795,0.04253073,0.0,0.0,0.0,0.0,0.0,0.0,0.0,0,0,0,0,0,0,0,1,1,1,0,3,1,0,0
9514394,0.0,0.05223766,0.9933999,0.041750826,0.0,0.0,0.0,0.0,0.0,0.0,0.0,0,0,0,0,0,0,0,1,1,1,0,3,1,0,0
9537588,0.0,0.051677328,0.99312174,0.042034876,0.0,0.0,0.0,0.0,0.0,0.0,0.0,0,0,0,0,0,0,0,1,1,1,0,3,1,0,0
9559997,0.0,0.051485263,0.9927775,0.04279886,0.0,0.0,0.0,0.0,0.0,0.0,0.0,0,0,0,0,0,0,0,1,1,1,0,3,1,0,0
9644917,0.0,0.050847728,0.9927774,0.04210575,0.0,0.0,0.0,0.0,0.0,0.0,0.0,0,0,0,0,0,0,0,1,1,1,0,3,1,0,0
9668916,0.0,0.050908614,0.99277276,0.042867467,0.0,0.0,0.0,0.0,0.0,0.0,0.0,0,0,0,0,0,0,0,1,1,1,0,3,1,0,0
9693584,0.0,0.05097198,0.99277055,0.04253072,0.0,0.0,0.0,0.0,0.0,0.0,0.0,0,0,0,0,0,0,0,1,1,1,0,3,1,0,0
9716901,0.0,0.050983474,0.99277055,0.041750822,0.0,0.0,0.0,0.0,0.0,0.0,0.0,0,0,0,0,0,0,0,1,1,1,0,3,1,0,0
9740945,0.0,0.050975315,0.992771,0.04152857,0.0,0.0,0.0,0.0,0.0,0.0,0.0,0,0,0,0,0,0,0,1,1,1,0,3,1,0,0
9765532,0.0,0.050970048,0.99277115,0.041599154,0.0,0.0,0.0,0.0,0.0,0.0,0.0,0,0,0,0,0,0,0,1,1,1,0,3,1,0,0
9788918,0.0,0.0509697,0.9927711,0.04166876,0.0,0.0,0.0,0.0,0.0,0.0,0.0,0,0,0,0,0,0,0,1,1,1,0,3,1,0,0
9812919,0.0,0.050970603,0.9927711,0.042186964,0.0,0.0,0.0,0.0,0.0,0.0,0.0,0,0,0,0,0,0,0,1,1,1,0,3,1,0,0
9836611,0.0,0.050971005,0.9927711,0.04287113,0.0,0.0,0.0,0.0,0.0,0.0,0.0,0,0,0,0,0,0,0,1,1,1,0,3,1,0,0
9855993,0.0,0.05097098,0.9927711,0.04251617,0.0,0.0,0.0,0.0,0.0,0.0,0.0,0,0,0,0,0,0,0,1,1,1,0,3,1,0,0
9879938,0.0,0.05097089,0.9927711,0.041744728,0.0,0.0,0.0,0.0,0.0,0.0,0.0,0,0,0,0,0,0,0,1,1,1,0,3,1,0,0
9899962,0.0,0.05097086,0.9927711,0.041529167,0.0,0.0,0.0,0.0,0.0,0.0,0.0,0,0,0,0,0,0,0,1,1,1,0,3,1,0,0
9924126,0.0,0.050970864,0.9927711,0.04160057,0.0,0.0,0.0,0.0,0.0,0.0,0.0,0,0,0,0,0,0,0,1,1,1,0,3,1,0,0
9948158,0.0,0.050970875,0.9927711,0.041669168,0.0,0.0,0.0,0.0,0.0,0.0,0.0,0,0,0,0,0,0,0,1,1,1,0,3,1,0,0
9972126,0.0,0.051472265,0.99301994,0.042186838,0.0,0.0,0.0,0.0,0.0,0.0,0.0,0,0,0,0,0,0,0,1,1,1,0,3,1,0,0
9996156,0.0,0.05215893,0.9933607,0.042871006,0.0,0.0,0.0,0.0,0.0,0.0,0.0,0,0,0,0,0,0,0,1,1,1,0,3,1,0,0
10020131,0.0,0.0518131,0.9931891,0.042516153,0.0,0.0,0.0,0.0,0.0,0.0,0.0,0,0,0,0,0,0,0,1,1,1,0,3,1,0,0
10044144,0.0,0.05104946,0.9928101,0.041744746,0.0,0.0,0.0,0.0,0.0,0.0,0.0,0,0,0,0,0,0,0,1,1,1,0,3,1,0,0
10068135,0.0,0.05133638,0.9929526,0.042035483,0.0,0.0,0.0,0.0,0.0,0.0,0.0,0,0,0,0,0,0,0,1,1,1,0,3,1,0,0
10091981,0.0,0.052093327,0.9933283,0.042800274,0.0,0.0,0.0,0.0,0.0,0.0,0.0,0,0,0,0,0,0,0,1,1,1,0,3,1,0,0
10116166,0.0,0.05231686,0.99343926,0.043025956,0.0,0.0,0.0,0.0,0.0,0.0,0.0,0,0,0,0,0,0,0,1,1,1,0,3,1,0,0
10140129,0.0,0.052251235,0.9934066,0.042959593,0.0,0.0,0.0,0.0,0.0,0.0,0.0,0,0,0,0,0,0,0,1,1,1,0,3,1,0,0
10163320,0.0,0.051681828,0.99312407,0.042384576,0.0,0.0,0.0,0.0,0.0,0.0,0.0,0,0,0,0,0,0,0,1,1,1,0,3,1,0,0
10187311,0.0,0.050982878,0.9927771,0.04167878,0.0,0.0,0.0,0.0,0.0,0.0,0.0,0,0,0,0,0,0,0,1,1,1,0,3,1,0,0
10211399,0.0,0.050836094,0.9927042,0.041530564,0.0,0.0,0.0,0.0,0.0,0.0,0.0,0,0,0,0,0,0,0,1,1,1,0,3,1,0,0
10235202,0.0,0.05091872,0.99274516,0.041614003,0.0,0.0,0.0,0.0,0.0,0.0,0.0,0,0,0,0,0,0,0,1,1,1,0,3,1,0,0
10259377,0.0,0.050977997,0.9927746,0.041673858,0.0,0.0,0.0,0.0,0.0,0.0,0.0,0,0,0,0,0,0,0,1,1,1,0,3,1,0,0
10283330,0.0,0.05148511,0.99277747,0.041679636,0.0,0.0,0.0,0.0,0.0,0.0,0.0,0,0,0,0,0,0,0,1,1,1,0,3,1,0,0
10307332,0.0,0.05216228,0.9927727,0.041670054,0.0,0.0,0.0,0.0,0.0,0.0,0.0,0,0,0,0,0,0,0,1,1,1,0,3,1,0,0
10331368,0.0,0.051811825,0.99277043,0.041665383,0.0,0.0,0.0,0.0,0.0,0.0,0.0,0,0,0,0,0,0,0,1,1,1,0,3,1,0,0
10355343,0.0,0.051048335,0.9927705,0.04166553,0.0,0.0,0.0,0.0,0.0,0.0,0.0,0,0,0,0,0,0,0,1,1,1,0,3,1,0,0
10379601,0.0,0.051336214,0.99301994,0.042172804,0.0,0.0,0.0,0.0,0.0,0.0,0.0,0,0,0,0,0,0,0,1,1,1,0,3,1,0,0
10403189,0.0,0.052093487,0.9933609,0.042866528,0.0,0.0,0.0,0.0,0.0,0.0,0.0,0,0,0,0,0,0,0,1,1,1,0,3,1,0,0
10427364,0.0,0.051815562,0.99318916,0.042517245,0.0,0.0,0.0,0.0,0.0,0.0,0.0,0,0,0,0,0,0,0,1,1,1,0,3,1,0,0
10451337,0.0,0.051063184,0.9928101,0.041746024,0.0,0.0,0.0,0.0,0.0,0.0,0.0,0,0,0,0,0,0,0,1,1,1,0,3,1,0,0
10475346,0.0,0.05083958,0.9927036,0.041529436,0.0,0.0,0.0,0.0,0.0,0.0,0.0,0,0,0,0,0,0,0,1,1,1,0,3,1,0,0
10499451,0.0,0.05090428,0.99273854,0.041600417,0.0,0.0,0.0,0.0,0.0,0.0,0.0,0,0,0,0,0,0,0,1,1,1,0,3,1,0,0
10522554,0.0,0.050971977,0.9927723,0.04166906,0.0,0.0,0.0,0.0,0.0,0.0,0.0,0,0,0,0,0,0,0,1,1,1,0,3,1,0,0
10546552,0.0,0.050984323,0.9927779,0.041680526,0.0,0.0,0.0,0.0,0.0,0.0,0.0,0,0,0,0,0,0,0,1,1,1,0,3,1,0,0
10570311,0.0,0.05097563,0.99277335,0.04167132,0.0,0.0,0.0,0.0,0.0,0.0,0.0,0,0,0,0,0,0,0,1,1,1,0,3,1,0,0
10590553,0.0,0.05097,0.9927706,0.041665673,0.0,0.0,0.0,0.0,0.0,0.0,0.0,0,0,0,0,0,0,0,1,1,1,0,3,1,0,0
10614348,0.0,0.05096962,0.99277043,0.04166539,0.0,0.0,0.0,0.0,0.0,0.0,0.0,0,0,0,0,0,0,0,1,1,1,0,3,1,0,0
10634361,0.0,0.05097058,0.9927709,0.04166639,0.0,0.0,0.0,0.0,0.0,0.0,0.0,0,0,0,0,0,0,0,1,1,1,0,3,1,0,0
10659149,0.0,0.05097101,0.99277115,0.041666813,0.0,0.0,0.0,0.0,0.0,0.0,0.0,0,0,0,0,0,0,0,1,1,1,0,3,1,0,0
10682352,0.0,0.050970983,0.9927712,0.041666776,0.0,0.0,0.0,0.0,0.0,0.0,0.0,0,0,0,0,0,0,0,1,1,1,0,3,1,0,0
10706510,0.0,0.05097089,0.9927711,0.04166668,0.0,0.0,0.0,0.0,0.0,0.0,0.0,0,0,0,0,0,0,0,1,1,1,0,3,1,0,0
10726574,0.0,0.05097086,0.9927711,0.041666653,0.0,0.0,0.0,0.0,0.0,0.0,0.0,0,0,0,0,0,0,0,1,1,1,0,3,1,0,0
10750567,0.0,0.050970864,0.9927711,0.042172965,0.0,0.0,0.0,0.0,0.0,0.0,0.0,0,0,0,0,0,0,0,1,1,1,0,3,1,0,0
10774500,0.0,0.050970875,0.9927711,0.04286637,0.0,0.0,0.0,0.0,0.0,0.0,0.0,0,0,0,0,0,0,0,1,1,1,0,3,1,0,0
10797739,0.0,0.050970875,0.9927711,0.042517155,0.0,0.0,0.0,0.0,0.0,0.0,0.0,0,0,0,0,0,0,0,1,1,1,0,3,1,0,0
10821747,0.0,0.050970875,0.9927711,0.041746028,0.0,0.0,0.0,0.0,0.0,0.0,0.0,0,0,0,0,0,0,0,1,1,1,0,3,1,0,0
10845732,0.0,0.05097087,0.9927711,0.04152945,0.0,0.0,0.0,0.0,0.0,0.0,0.0,0,0,0,0,0,0,0,1,1,1,0,3,1,0,0
10869741,0.0,0.05097087,0.9927711,0.04160042,0.0,0.0,0.0,0.0,0.0,0.0,0.0,0,0,0,0,0,0,0,1,1,1,0,3,1,0,0
10893731,0.0,0.05147226,0.99301994,0.04217536,0.0,0.0,0.0,0.0,0.0,0.0,0.0,0,0,0,0,0,0,0,1,1,1,0,3,1,0,0
10917733,0.0,0.052158926,0.9933607,0.042880222,0.0,0.0,0.0,0.0,0.0,0.0,0.0,0,0,0,0,0,0,0,1,1,1,0,3,1,0,0
10941569,0.0,0.0518131,0.9931891,0.042521805,0.0,0.0,0.0,0.0,0.0,0.0,0.0,0,0,0,0,0,0,0,1,1,1,0,3,1,0,0
10965857,0.0,0.05104946,0.9928101,0.04174503,0.0,0.0,0.0,0.0,0.0,0.0,0.0,0,0,0,0,0,0,0,1,1,1,0,3,1,0,0
10989725,0.0,0.05083499,0.9927037,0.041528173,0.0,0.0,0.0,0.0,0.0,0.0,0.0,0,0,0,0,0,0,0,1,1,1,0,3,1,0,0
11013752,0.0,0.051406663,0.99273854,0.041600145,0.0,0.0,0.0,0.0,0.0,0.0,0.0,0,0,0,0,0,0,0,1,1,1,0,3,1,0,0
11037734,0.0,0.052161295,0.9927723,0.041669205,0.0,0.0,0.0,0.0,0.0,0.0,0.0,0,0,0,0,0,0,0,1,1,1,0,3,1,0,0
11061547,0.0,0.05182682,0.9927779,0.041680634,0.0,0.0,0.0,0.0,0.0,0.0,0.0,0,0,0,0,0,0,0,1,1,1,0,3,1,0,0
11082411,0.0,0.051054068,0.99277335,0.041671332,0.0,0.0,0.0,0.0,0.0,0.0,0.0,0,0,0,0,0,0,0,1,1,1,0,3,1,0,0
11106574,0.0,0.051335394,0.99301946,0.042171963,0.0,0.0,0.0,0.0,0.0,0.0,0.0,0,0,0,0,0,0,0,1,1,1,0,3,1,0,0
11130331,0.0,0.05209206,0.99336016,0.042865083,0.0,0.0,0.0,0.0,0.0,0.0,0.0,0,0,0,0,0,0,0,1,1,1,0,3,1,0,0
11150330,0.0,0.051815193,0.99318904,0.042516876,0.0,0.0,0.0,0.0,0.0,0.0,0.0,0,0,0,0,0,0,0,1,1,1,0,3,1,0,0
11172707,0.0,0.05106333,0.9928102,0.041746177,0.0,0.0,0.0,0.0,0.0,0.0,0.0,0,0,0,0,0,0,0,1,1,1,0,3,1,0,0
11197566,0.0,0.050839707,0.99270374,0.041529566,0.0,0.0,0.0,0.0,0.0,0.0,0.0,0,0,0,0,0,0,0,1,1,1,0,3,1,0,0
11220753,0.0,0.050904296,0.9927385,0.041600436,0.0,0.0,0.0,0.0,0.0,0.0,0.0,0,0,0,0,0,0,0,1,1,1,0,3,1,0,0
11240915,0.0,0.050971955,0.9927722,0.04166904,0.0,0.0,0.0,0.0,0.0,0.0,0.0,0,0,0,0,0,0,0,1,1,1,0,3,1,0,0
11264766,0.0,0.0514857,0.9927779,0.041680515,0.0,0.0,0.0,0.0,0.0,0.0,0.0,0,0,0,0,0,0,0,1,1,1,0,3,1,0,0
11289040,0.0,0.05216368,0.99277335,0.04167132,0.0,0.0,0.0,0.0,0.0,0.0,0.0,0,0,0,0,0,0,0,1,1,1,0,3,1,0,0
11312735,0.0,0.051812224,0.9927706,0.041665677,0.0,0.0,0.0,0.0,0.0,0.0,0.0,0,0,0,0,0,0,0,1,1,1,0,3,1,0,0
11332737,0.0,0.051048204,0.99277043,0.04166539,0.0,0.0,0.0,0.0,0.0,0.0,0.0,0,0,0,0,0,0,0,1,1,1,0,3,1,0,0
11356234,0.0,0.0508347,0.9927709,0.04166639,0.0,0.0,0.0,0.0,0.0,0.0,0.0,0,0,0,0,0,0,0,1,1,1,0,3,1,0,0
11377440,0.0,0.051406797,0.99302,0.042173117,0.0,0.0,0.0,0.0,0.0,0.0,0.0,0,0,0,0,0,0,0,1,1,1,0,3,1,0,0
11400145,0.0,0.052161396,0.9933609,0.042866476,0.0,0.0,0.0,0.0,0.0,0.0,0.0,0,0,0,0,0,0,0,1,1,1,0,3,1,0,0
11420166,0.0,0.05182683,0.99318916,0.042517163,0.0,0.0,0.0,0.0,0.0,0.0,0.0,0,0,0,0,0,0,0,1,1,1,0,3,1,0,0
11444189,0.0,0.05155544,0.993059,0.042252313,0.0,0.0,0.0,0.0,0.0,0.0,0.0,0,0,0,0,0,0,0,1,1,1,0,3,1,0,0
11468140,0.0,0.052022055,0.99329334,0.04272915,0.0,0.0,0.0,0.0,0.0,0.0,0.0,0,0,0,0,0,0,0,1,1,1,0,3,1,0,0
11492024,0.0,0.051746234,0.99315655,0.04245091,0.0,0.0,0.0,0.0,0.0,0.0,0.0,0,0,0,0,0,0,0,1,1,1,0,3,1,0,0
11516191,0.0,0.051051553,0.9928112,0.041748416,0.0,0.0,0.0,0.0,0.0,0.0,0.0,0,0,0,0,0,0,0,1,1,1,0,3,1,0,0
11540133,0.0,0.05084886,0.9927104,0.04154331,0.0,0.0,0.0,0.0,0.0,0.0,0.0,0,0,0,0,0,0,0,1,1,1,0,3,1,0,0
11564175,0.0,0.05141138,0.99298966,0.04211138,0.0,0.0,0.0,0.0,0.0,0.0,0.0,0,0,0,0,0,0,0,1,1,1,0,3,1,0,0
11588352,0.0,0.052160326,0.9933615,0.042867765,0.0,0.0,0.0,0.0,0.0,0.0,0.0,0,0,0,0,0,0,0,1,1,1,0,3,1,0,0
11612057,0.0,0.051825542,0.99319535,0.04252973,0.0,0.0,0.0,0.0,0.0,0.0,0.0,0,0,0,0,0,0,0,1,1,1,0,3,1,0,0
11636135,0.0,0.051053785,0.9928122,0.041750398,0.0,0.0,0.0,0.0,0.0,0.0,0.0,0,0,0,0,0,0,0,1,1,1,0,3,1,0,0
11660017,0.0,0.051335543,0.9929521,0.042034913,0.0,0.0,0.0,0.0,0.0,0.0,0.0,0,0,0,0,0,0,0,1,1,1,0,3,1,0,0
11684012,0.0,0.052092172,0.9933277,0.042798955,0.0,0.0,0.0,0.0,0.0,0.0,0.0,0,0,0,0,0,0,0,1,1,1,0,3,1,0,0
11707353,0.0,0.051815208,0.9931902,0.04251928,0.0,0.0,0.0,0.0,0.0,0.0,0.0,0,0,0,0,0,0,0,1,1,1,0,3,1,0,0
11731342,0.0,0.05106331,0.99281704,0.04176001,0.0,0.0,0.0,0.0,0.0,0.0,0.0,0,0,0,0,0,0,0,1,1,1,0,3,1,0,0
11755339,0.0,0.0508397,0.99270606,0.041534208,0.0,0.0,0.0,0.0,0.0,0.0,0.0,0,0,0,0,0,0,0,1,1,1,0,3,1,0,0
11779383,0.0,0.050904304,0.992738,0.04159944,0.0,0.0,0.0,0.0,0.0,0.0,0.0,0,0,0,0,0,0,0,1,1,1,0,3,1,0,0
11803124,0.0,0.05097196,0.9927716,0.041667763,0.0,0.0,0.0,0.0,0.0,0.0,0.0,0,0,0,0,0,0,0,1,1,1,0,3,1,0,0
11823147,0.0,0.05098431,0.9927778,0.04168024,0.0,0.0,0.0,0.0,0.0,0.0,0.0,0,0,0,0,0,0,0,1,1,1,0,3,1,0,0
11847194,0.0,0.05097563,0.9927735,0.041671466,0.0,0.0,0.0,0.0,0.0,0.0,0.0,0,0,0,0,0,0,0,1,1,1,0,3,1,0,0
11871341,0.0,0.05097,0.9927707,0.041665785,0.0,0.0,0.0,0.0,0.0,0.0,0.0,0,0,0,0,0,0,0,1,1,1,0,3,1,0,0
11895209,0.0,0.05096962,0.9927705,0.0416654,0.0,0.0,0.0,0.0,0.0,0.0,0.0,0,0,0,0,0,0,0,1,1,1,0,3,1,0,0
11916130,0.0,0.05097058,0.99277097,0.041666374,0.0,0.0,0.0,0.0,0.0,0.0,0.0,0,0,0,0,0,0,0,1,1,1,0,3,1,0,0
11939176,0.0,0.05097101,0.9927712,0.042173114,0.0,0.0,0.0,0.0,0.0,0.0,0.0,0,0,0,0,0,0,0,1,1,1,0,3,1,0,0
11963341,0.0,0.050970983,0.9927712,0.04286648,0.0,0.0,0.0,0.0,0.0,0.0,0.0,0,0,0,0,0,0,0,1,1,1,0,3,1,0,0
11987334,0.0,0.05097089,0.9927711,0.042517163,0.0,0.0,0.0,0.0,0.0,0.0,0.0,0,0,0,0,0,0,0,1,1,1,0,3,1,0,0
12011360,0.0,0.05097086,0.9927711,0.04174601,0.0,0.0,0.0,0.0,0.0,0.0,0.0,0,0,0,0,0,0,0,1,1,1,0,3,1,0,0
12034533,0.0,0.050970864,0.9927711,0.041529447,0.0,0.0,0.0,0.0,0.0,0.0,0.0,0,0,0,0,0,0,0,1,1,1,0,3,1,0,0
12059186,0.0,0.050970875,0.9927711,0.041600425,0.0,0.0,0.0,0.0,0.0,0.0,0.0,0,0,0,0,0,0,0,1,1,1,0,3,1,0,0
12078543,0.0,0.050970875,0.9927711,0.04166906,0.0,0.0,0.0,0.0,0.0,0.0,0.0,0,0,0,0,0,0,0,1,1,1,0,3,1,0,0
12102350,0.0,0.050970875,0.9927711,0.041680526,0.0,0.0,0.0,0.0,0.0,0.0,0.0,0,0,0,0,0,0,0,1,1,1,0,3,1,0,0
12126535,0.0,0.05097087,0.9927711,0.04167132,0.0,0.0,0.0,0.0,0.0,0.0,0.0,0,0,0,0,0,0,0,1,1,1,0,3,1,0,0
12150603,0.0,0.05097087,0.9927711,0.041665673,0.0,0.0,0.0,0.0,0.0,0.0,0.0,0,0,0,0,0,0,0,1,1,1,0,3,1,0,0
12174376,0.0,0.05147226,0.9927711,0.04166539,0.0,0.0,0.0,0.0,0.0,0.0,0.0,0,0,0,0,0,0,0,1,1,1,0,3,1,0,0
12198362,0.0,0.052158926,0.9927711,0.04166639,0.0,0.0,0.0,0.0,0.0,0.0,0.0,0,0,0,0,0,0,0,1,1,1,0,3,1,0,0
12218527,0.0,0.0518131,0.9927711,0.041666813,0.0,0.0,0.0,0.0,0.0,0.0,0.0,0,0,0,0,0,0,0,1,1,1,0,3,1,0,0
12242505,0.0,0.05104946,0.9927711,0.041666776,0.0,0.0,0.0,0.0,0.0,0.0,0.0,0,0,0,0,0,0,0,1,1,1,0,3,1,0,0
12266505,0.0,0.05083499,0.9927711,0.04166668,0.0,0.0,0.0,0.0,0.0,0.0,0.0,0,0,0,0,0,0,0,1,1,1,0,3,1,0,0
12290335,0.0,0.050905276,0.9927711,0.041666653,0.0,0.0,0.0,0.0,0.0,0.0,0.0,0,0,0,0,0,0,0,1,1,1,0,3,1,0,0
12313550,0.0,0.050973244,0.9927711,0.04166666,0.0,0.0,0.0,0.0,0.0,0.0,0.0,0,0,0,0,0,0,0,1,1,1,0,3,1,0,0
12333739,0.0,0.050984595,0.9927711,0.041666668,0.0,0.0,0.0,0.0,0.0,0.0,0.0,0,0,0,0,0,0,0,1,1,1,0,3,1,0,0
12357734,0.0,0.050975483,0.9927711,0.04166667,0.0,0.0,0.0,0.0,0.0,0.0,0.0,0,0,0,0,0,0,0,1,1,1,0,3,1,0,0
12382527,0.0,0.05096989,0.9927711,0.041666668,0.0,0.0,0.0,0.0,0.0,0.0,0.0,0,0,0,0,0,0,0,1,1,1,0,3,1,0,0
12405524,0.0,0.050969604,0.9927711,0.041666668,0.0,0.0,0.0,0.0,0.0,0.0,0.0,0,0,0,0,0,0,0,1,1,1,0,3,1,0,0
12425763,0.0,0.050970595,0.9927711,0.041666668,0.0,0.0,0.0,0.0,0.0,0.0,0.0,0,0,0,0,0,0,0,1,1,1,0,3,1,0,0
12449731,0.0,0.05097102,0.9927711,0.041666668,0.0,0.0,0.0,0.0,0.0,0.0,0.0,0,0,0,0,0,0,0,1,1,1,0,3,1,0,0
12473654,0.0,0.050970986,0.9927711,0.041666668,0.0,0.0,0.0,0.0,0.0,0.0,0.0,0,0,0,0,0,0,0,1,1,1,0,3,1,0,0
12497746,0.0,0.050970886,0.9927711,0.041666668,0.0,0.0,0.0,0.0,0.0,0.0,0.0,0,0,0,0,0,0,0,1,1,1,0,3,1,0,0
12521750,0.0,0.050970856,0.9927711,0.041666668,0.0,0.0,0.0,0.0,0.0,0.0,0.0,0,0,0,0,0,0,0,1,1,1,0,3,1,0,0
12545763,0.0,0.050970864,0.9927711,0.041666668,0.0,0.0,0.0,0.0,0.0,0.0,0.0,0,0,0,0,0,0,0,1,1,1,0,3,1,0,0
12569736,0.0,0.050970875,0.9927711,0.041666668,0.0,0.0,0.0,0.0,0.0,0.0,0.0,0,0,0,0,0,0,0,1,1,1,0,3,1,0,0
12593784,0.0,0.050970875,0.9927711,0.041666668,0.0,0.0,0.0,0.0,0.0,0.0,0.0,0,0,0,0,0,0,0,1,1,1,0,3,1,0,0
12617589,0.0,0.050970875,0.9927711,0.041666668,0.0,0.0,0.0,0.0,0.0,0.0,0.0,0,0,0,0,0,0,0,1,1,1,0,3,1,0,0
12640985,0.0,0.05097087,0.9927711,0.041666668,0.0,0.0,0.0,0.0,0.0,0.0,0.0,0,0,0,0,0,0,0,1,1,1,0,3,1,0,0
12664727,0.0,0.05097087,0.9927711,0.041666668,0.0,0.0,0.0,0.0,0.0,0.0,0.0,0,0,0,0,0,0,0,1,1,1,0,3,1,0,0
12689029,0.0,0.05097087,0.9927711,0.041666668,0.0,0.0,0.0,0.0,0.0,0.0,0.0,0,0,0,0,0,0,0,1,1,1,0,3,1,0,0
12712891,0.0,0.05097087,0.9927711,0.041666668,0.0,0.0,0.0,0.0,0.0,0.0,0.0,0,0,0,0,0,0,0,1,1,1,0,3,1,0,0
12736894,0.0,0.05097087,0.9927711,0.041666668,0.0,0.0,0.0,0.0,0.0,0.0,0.0,0,0,0,0,0,0,0,1,1,1,0,3,1,0,0
12760907,0.0,0.05097087,0.9927711,0.041666668,0.0,0.0,0.0,0.0,0.0,0.0,0.0,0,0,0,0,0,0,0,1,1,1,0,3,1,0,0
12784906,0.0,0.05097087,0.9927711,0.041666668,0.0,0.0,0.0,0.0,0.0,0.0,0.0,0,0,0,0,0,0,0,1,1,1,0,3,1,0,0
12808907,0.0,0.05097087,0.9927711,0.041666668,0.0,0.0,0.0,0.0,0.0,0.0,0.0,0,0,0,0,0,0,0,1,1,1,0,3,1,0,0
12832740,0.0,0.05097087,0.9927711,0.041666668,0.0,0.0,0.0,0.0,0.0,0.0,0.0,0,0,0,0,0,0,0,1,1,1,0,3,1,0,0
12857030,0.0,0.05097087,0.9927711,0.041666668,0.0,0.0,0.0,0.0,0.0,0.0,0.0,0,0,0,0,0,0,0,1,1,1,0,3,1,0,0
12880936,0.0,0.05097087,0.9927711,0.041666668,0.0,0.0,0.0,0.0,0.0,0.0,0.0,0,0,0,0,0,0,0,1,1,1,0,3,1,0,0
12903984,0.0,0.05097087,0.9927711,0.041666668,0.0,0.0,0.0,0.0,0.0,0.0,0.0,0,0,0,0,0,0,0,1,1,1,0,3,1,0,0
12928130,0.0,0.05097087,0.9927711,0.041666668,0.0,0.0,0.0,0.0,0.0,0.0,0.0,0,0,0,0,0,0,0,1,1,1,0,3,1,0,0
12951403,0.0,0.05097087,0.9927711,0.041666668,0.0,0.0,0.0,0.0,0.0,0.0,0.0,0,0,0,0,0,0,0,1,1,1,0,3,1,0,0
12976364,0.0,0.05097087,0.9927711,0.041666668,0.0,0.0,0.0,0.0,0.0,0.0,0.0,0,0,0,0,0,0,0,1,1,1,0,3,1,0,0
12999954,0.0,0.05097087,0.9927711,0.041666668,0.0,0.0,0.0,0.0,0.0,0.0,0.0,0,0,0,0,0,0,0,1,1,1,0,3,1,0,0
13023962,0.0,0.05147226,0.99301994,0.042172972,0.0,0.0,0.0,0.0,0.0,0.0,0.0,0,0,0,0,0,0,0,1,1,1,0,3,1,0,0
13048133,0.0,0.052158926,0.9933607,0.042866368,0.0,0.0,0.0,0.0,0.0,0.0,0.0,0,0,0,0,0,0,0,1,1,1,0,3,1,0,0
13072133,0.0,0.0518131,0.9931891,0.04251715,0.0,0.0,0.0,0.0,0.0,0.0,0.0,0,0,0,0,0,0,0,1,1,1,0,3,1,0,0
13092372,0.0,0.05104946,0.9928101,0.041746024,0.0,0.0,0.0,0.0,0.0,0.0,0.0,0,0,0,0,0,0,0,1,1,1,0,3,1,0,0
13115961,0.0,0.05133638,0.9929526,0.04203576,0.0,0.0,0.0,0.0,0.0,0.0,0.0,0,0,0,0,0,0,0,1,1,1,0,3,1,0,0
13136949,0.0,0.052093327,0.9933283,0.042800125,0.0,0.0,0.0,0.0,0.0,0.0,0.0,0,0,0,0,0,0,0,1,1,1,0,3,1,0,0
13160173,0.0,0.05181547,0.99319035,0.04251954,0.0,0.0,0.0,0.0,0.0,0.0,0.0,0,0,0,0,0,0,0,1,1,1,0,3,1,0,0
13184168,0.0,0.05106318,0.9928169,0.04175988,0.0,0.0,0.0,0.0,0.0,0.0,0.0,0,0,0,0,0,0,0,1,1,1,0,3,1,0,0
13208942,0.0,0.0508396,0.99270594,0.041534107,0.0,0.0,0.0,0.0,0.0,0.0,0.0,0,0,0,0,0,0,0,1,1,1,0,3,1,0,0
13231314,0.0,0.05090429,0.992738,0.042105738,0.0,0.0,0.0,0.0,0.0,0.0,0.0,0,0,0,0,0,0,0,1,1,1,0,3,1,0,0
13251349,0.0,0.051473364,0.9927716,0.04286748,0.0,0.0,0.0,0.0,0.0,0.0,0.0,0,0,0,0,0,0,0,1,1,1,0,3,1,0,0
13275185,0.0,0.052172378,0.9927778,0.04253073,0.0,0.0,0.0,0.0,0.0,0.0,0.0,0,0,0,0,0,0,0,1,1,1,0,3,1,0,0
13299313,0.0,0.052319244,0.9930223,0.04225713,0.0,0.0,0.0,0.0,0.0,0.0,0.0,0,0,0,0,0,0,0,1,1,1,0,3,1,0,0
13323245,0.0,0.05223664,0.9933604,0.04272827,0.0,0.0,0.0,0.0,0.0,0.0,0.0,0,0,0,0,0,0,0,1,1,1,0,3,1,0,0
13347214,0.0,0.051675964,0.9931885,0.04244964,0.0,0.0,0.0,0.0,0.0,0.0,0.0,0,0,0,0,0,0,0,1,1,1,0,3,1,0,0
13371331,0.0,0.05098357,0.9928099,0.04174812,0.0,0.0,0.0,0.0,0.0,0.0,0.0,0,0,0,0,0,0,0,1,1,1,0,3,1,0,0
13395349,0.0,0.0508375,0.9927037,0.041543446,0.0,0.0,0.0,0.0,0.0,0.0,0.0,0,0,0,0,0,0,0,1,1,1,0,3,1,0,0
13419352,0.0,0.0509191,0.99273854,0.041605186,0.0,0.0,0.0,0.0,0.0,0.0,0.0,0,0,0,0,0,0,0,1,1,1,0,3,1,0,0
13443325,0.0,0.050977856,0.9927723,0.041668076,0.0,0.0,0.0,0.0,0.0,0.0,0.0,0,0,0,0,0,0,0,1,1,1,0,3,1,0,0
13463347,0.0,0.051484983,0.9930268,0.04218553,0.0,0.0,0.0,0.0,0.0,0.0,0.0,0,0,0,0,0,0,0,1,1,1,0,3,1,0,0
13487154,0.0,0.052162264,0.99336314,0.042870738,0.0,0.0,0.0,0.0,0.0,0.0,0.0,0,0,0,0,0,0,0,1,1,1,0,3,1,0,0
13511349,0.0,0.051811844,0.9931887,0.042516306,0.0,0.0,0.0,0.0,0.0,0.0,0.0,0,0,0,0,0,0,0,1,1,1,0,3,1,0,0
13535163,0.0,0.051048346,0.9928095,0.041744858,0.0,0.0,0.0,0.0,0.0,0.0,0.0,0,0,0,0,0,0,0,1,1,1,0,3,1,0,0
13558314,0.0,0.05083483,0.9927035,0.04152919,0.0,0.0,0.0,0.0,0.0,0.0,0.0,0,0,0,0,0,0,0,1,1,1,0,3,1,0,0
13582568,0.0,0.050905433,0.9927386,0.041600555,0.0,0.0,0.0,0.0,0.0,0.0,0.0,0,0,0,0,0,0,0,1,1,1,0,3,1,0,0
13603482,0.0,0.05097333,0.99277234,0.04166916,0.0,0.0,0.0,0.0,0.0,0.0,0.0,0,0,0,0,0,0,0,1,1,1,0,3,1,0,0
13626365,0.0,0.051485986,0.9930268,0.042186838,0.0,0.0,0.0,0.0,0.0,0.0,0.0,0,0,0,0,0,0,0,1,1,1,0,3,1,0,0
13650355,0.0,0.05216352,0.99336314,0.04287101,0.0,0.0,0.0,0.0,0.0,0.0,0.0,0,0,0,0,0,0,0,1,1,1,0,3,1,0,0
13675174,0.0,0.051812112,0.9931887,0.042516153,0.0,0.0,0.0,0.0,0.0,0.0,0.0,0,0,0,0,0,0,0,1,1,1,0,3,1,0,0
13694403,0.0,0.051048197,0.9928095,0.041744746,0.0,0.0,0.0,0.0,0.0,0.0,0.0,0,0,0,0,0,0,0,1,1,1,0,3,1,0,0
13718464,0.0,0.050834715,0.9927035,0.04152918,0.0,0.0,0.0,0.0,0.0,0.0,0.0,0,0,0,0,0,0,0,1,1,1,0,3,1,0,0
13742551,0.0,0.05090542,0.9927386,0.041600574,0.0,0.0,0.0,0.0,0.0,0.0,0.0,0,0,0,0,0,0,0,1,1,1,0,3,1,0,0
13766534,0.0,0.05097335,0.99277234,0.041669168,0.0,0.0,0.0,0.0,0.0,0.0,0.0,0,0,0,0,0,0,0,1,1,1,0,3,1,0,0
13786510,0.0,0.050984602,0.9927779,0.041680533,0.0,0.0,0.0,0.0,0.0,0.0,0.0,0,0,0,0,0,0,0,1,1,1,0,3,1,0,0
13810399,0.0,0.050975464,0.99277335,0.041671302,0.0,0.0,0.0,0.0,0.0,0.0,0.0,0,0,0,0,0,0,0,1,1,1,0,3,1,0,0
13835184,0.0,0.05096988,0.9927706,0.041665662,0.0,0.0,0.0,0.0,0.0,0.0,0.0,0,0,0,0,0,0,0,1,1,1,0,3,1,0,0
13858549,0.0,0.05096961,0.99277043,0.04166539,0.0,0.0,0.0,0.0,0.0,0.0,0.0,0,0,0,0,0,0,0,1,1,1,0,3,1,0,0
13882512,0.0,0.0509706,0.9927709,0.041666392,0.0,0.0,0.0,0.0,0.0,0.0,0.0,0,0,0,0,0,0,0,1,1,1,0,3,1,0,0
13906407,0.0,0.050971024,0.99277115,0.041666813,0.0,0.0,0.0,0.0,0.0,0.0,0.0,0,0,0,0,0,0,0,1,1,1,0,3,1,0,0
13927353,0.0,0.050970983,0.9927712,0.041666776,0.0,0.0,0.0,0.0,0.0,0.0,0.0,0,0,0,0,0,0,0,1,1,1,0,3,1,0,0
13949586,0.0,0.050970886,0.9927711,0.042172983,0.0,0.0,0.0,0.0,0.0,0.0,0.0,0,0,0,0,0,0,0,1,1,1,0,3,1,0,0
13973844,0.0,0.050970856,0.9927711,0.042866353,0.0,0.0,0.0,0.0,0.0,0.0,0.0,0,0,0,0,0,0,0,1,1,1,0,3,1,0,0
13998542,0.0,0.050970864,0.9927711,0.04251714,0.0,0.0,0.0,0.0,0.0,0.0,0.0,0,0,0,0,0,0,0,1,1,1,0,3,1,0,0
14021607,0.0,0.050970875,0.9927711,0.041746024,0.0,0.0,0.0,0.0,0.0,0.0,0.0,0,0,0,0,0,0,0,1,1,1,0,3,1,0,0
14045710,0.0,0.050970875,0.9927711,0.041529458,0.0,0.0,0.0,0.0,0.0,0.0,0.0,0,0,0,0,0,0,0,1,1,1,0,3,1,0,0
14070574,0.0,0.050970875,0.9927711,0.041600425,0.0,0.0,0.0,0.0,0.0,0.0,0.0,0,0,0,0,0,0,0,1,1,1,0,3,1,0,0
14093732,0.0,0.05097087,0.9927711,0.041669056,0.0,0.0,0.0,0.0,0.0,0.0,0.0,0,0,0,0,0,0,0,1,1,1,0,3,1,0,0
14117728,0.0,0.05097087,0.9927711,0.041680522,0.0,0.0,0.0,0.0,0.0,0.0,0.0,0,0,0,0,0,0,0,1,1,1,0,3,1,0,0
14143162,0.0,0.05097087,0.9927711,0.04167132,0.0,0.0,0.0,0.0,0.0,0.0,0.0,0,0,0,0,0,0,0,1,1,1,0,3,1,0,0
14165741,0.0,0.05097087,0.9927711,0.041665673,0.0,0.0,0.0,0.0,0.0,0.0,0.0,0,0,0,0,0,0,0,1,1,1,0,3,1,0,0
14188767,0.0,0.05147226,0.9927711,0.04166539,0.0,0.0,0.0,0.0,0.0,0.0,0.0,0,0,0,0,0,0,0,1,1,1,0,3,1,0,0
14213547,0.0,0.052158926,0.9927711,0.04166639,0.0,0.0,0.0,0.0,0.0,0.0,0.0,0,0,0,0,0,0,0,1,1,1,0,3,1,0,0
14236787,0.0,0.0518131,0.9927711,0.041666813,0.0,0.0,0.0,0.0,0.0,0.0,0.0,0,0,0,0,0,0,0,1,1,1,0,3,1,0,0
14260753,0.0,0.05104946,0.9927711,0.041666776,0.0,0.0,0.0,0.0,0.0,0.0,0.0,0,0,0,0,0,0,0,1,1,1,0,3,1,0,0
14285493,0.0,0.05133638,0.99301994,0.042172983,0.0,0.0,0.0,0.0,0.0,0.0,0.0,0,0,0,0,0,0,0,1,1,1,0,3,1,0,0
14308886,0.0,0.052093327,0.9933607,0.042866353,0.0,0.0,0.0,0.0,0.0,0.0,0.0,0,0,0,0,0,0,0,1,1,1,0,3,1,0,0
14332709,0.0,0.05181547,0.9931891,0.04251714,0.0,0.0,0.0,0.0,0.0,0.0,0.0,0,0,0,0,0,0,0,1,1,1,0,3,1,0,0
14352726,0.0,0.05156457,0.993059,0.04225233,0.0,0.0,0.0,0.0,0.0,0.0,0.0,0,0,0,0,0,0,0,1,1,1,0,3,1,0,0
14372808,0.0,0.052027654,0.9932934,0.04272916,0.0,0.0,0.0,0.0,0.0,0.0,0.0,0,0,0,0,0,0,0,1,1,1,0,3,1,0,0
14396723,0.0,0.05174652,0.99315655,0.04245091,0.0,0.0,0.0,0.0,0.0,0.0,0.0,0,0,0,0,0,0,0,1,1,1,0,3,1,0,0
14416749,0.0,0.051050562,0.9928112,0.041748416,0.0,0.0,0.0,0.0,0.0,0.0,0.0,0,0,0,0,0,0,0,1,1,1,0,3,1,0,0
14440919,0.0,0.05084844,0.9927104,0.04154331,0.0,0.0,0.0,0.0,0.0,0.0,0.0,0,0,0,0,0,0,0,1,1,1,0,3,1,0,0
14464745,0.0,0.051411416,0.99298966,0.04211138,0.0,0.0,0.0,0.0,0.0,0.0,0.0,0,0,0,0,0,0,0,1,1,1,0,3,1,0,0
14488116,0.0,0.05216042,0.9933615,0.042867765,0.0,0.0,0.0,0.0,0.0,0.0,0.0,0,0,0,0,0,0,0,1,1,1,0,3,1,0,0
14512012,0.0,0.051825568,0.99319535,0.04252973,0.0,0.0,0.0,0.0,0.0,0.0,0.0,0,0,0,0,0,0,0,1,1,1,0,3,1,0,0
14536743,0.0,0.051053774,0.9928122,0.041750398,0.0,0.0,0.0,0.0,0.0,0.0,0.0,0,0,0,0,0,0,0,1,1,1,0,3,1,0,0
14559995,0.0,0.050834145,0.9927032,0.04152861,0.0,0.0,0.0,0.0,0.0,0.0,0.0,0,0,0,0,0,0,0,1,1,1,0,3,1,0,0
14583991,0.0,0.050904118,0.992738,0.041599255,0.0,0.0,0.0,0.0,0.0,0.0,0.0,0,0,0,0,0,0,0,1,1,1,0,3,1,0,0
14603996,0.0,0.05097298,0.9927721,0.042175096,0.0,0.0,0.0,0.0,0.0,0.0,0.0,0,0,0,0,0,0,0,1,1,1,0,3,1,0,0
14628118,0.0,0.050984725,0.992778,0.042880356,0.0,0.0,0.0,0.0,0.0,0.0,0.0,0,0,0,0,0,0,0,1,1,1,0,3,1,0,0
14651956,0.0,0.05097558,0.9927734,0.042521905,0.0,0.0,0.0,0.0,0.0,0.0,0.0,0,0,0,0,0,0,0,1,1,1,0,3,1,0,0
14676134,0.0,0.05147129,0.99301946,0.042251345,0.0,0.0,0.0,0.0,0.0,0.0,0.0,0,0,0,0,0,0,0,1,1,1,0,3,1,0,0
14699931,0.0,0.052157648,0.99336016,0.04272786,0.0,0.0,0.0,0.0,0.0,0.0,0.0,0,0,0,0,0,0,0,1,1,1,0,3,1,0,0
14723924,0.0,0.05181282,0.99318904,0.04245062,0.0,0.0,0.0,0.0,0.0,0.0,0.0,0,0,0,0,0,0,0,1,1,1,0,3,1,0,0
14747942,0.0,0.05104961,0.9928102,0.041748565,0.0,0.0,0.0,0.0,0.0,0.0,0.0,0,0,0,0,0,0,0,1,1,1,0,3,1,0,0
14771187,0.0,0.050835103,0.99270374,0.04154342,0.0,0.0,0.0,0.0,0.0,0.0,0.0,0,0,0,0,0,0,0,1,1,1,0,3,1,0,0
14795028,0.0,0.050905287,0.9927385,0.041605085,0.0,0.0,0.0,0.0,0.0,0.0,0.0,0,0,0,0,0,0,0,1,1,1,0,3,1,0,0
14819178,0.0,0.05097322,0.9927722,0.041668046,0.0,0.0,0.0,0.0,0.0,0.0,0.0,0,0,0,0,0,0,0,1,1,1,0,3,1,0,0
14843160,0.0,0.05148597,0.9930268,0.041679237,0.0,0.0,0.0,0.0,0.0,0.0,0.0,0,0,0,0,0,0,0,1,1,1,0,3,1,0,0
14863169,0.0,0.052163534,0.99336314,0.04167104,0.0,0.0,0.0,0.0,0.0,0.0,0.0,0,0,0,0,0,0,0,1,1,1,0,3,1,0,0
14883334,0.0,0.051812116,0.9931887,0.041665822,0.0,0.0,0.0,0.0,0.0,0.0,0.0,0,0,0,0,0,0,0,1,1,1,0,3,1,0,0
14907159,0.0,0.051048193,0.9928095,0.0416655,0.0,0.0,0.0,0.0,0.0,0.0,0.0,0,0,0,0,0,0,0,1,1,1,0,3,1,0,0
14932134,0.0,0.05083472,0.9927035,0.0416664,0.0,0.0,0.0,0.0,0.0,0.0,0.0,0,0,0,0,0,0,0,1,1,1,0,3,1,0,0
14955331,0.0,0.05090542,0.9927386,0.0416668,0.0,0.0,0.0,0.0,0.0,0.0,0.0,0,0,0,0,0,0,0,1,1,1,0,3,1,0,0
14975565,0.0,0.05097335,0.99277234,0.04166677,0.0,0.0,0.0,0.0,0.0,0.0,0.0,0,0,0,0,0,0,0,1,1,1,0,3,1,0,0
14999331,0.0,0.050984602,0.9927779,0.04166668,0.0,0.0,0.0,0.0,0.0,0.0,0.0,0,0,0,0,0,0,0,1,1,1,0,3,1,0,0
15023373,0.0,0.050975464,0.99277335,0.041666653,0.0,0.0,0.0,0.0,0.0,0.0,0.0,0,0,0,0,0,0,0,1,1,1,0,3,1,0,0
15047164,0.0,0.05096988,0.9927706,0.04166666,0.0,0.0,0.0,0.0,0.0,0.0,0.0,0,0,0,0,0,0,0,1,1,1,0,3,1,0,0
15071377,0.0,0.05096961,0.99277043,0.041666668,0.0,0.0,0.0,0.0,0.0,0.0,0.0,0,0,0,0,0,0,0,1,1,1,0,3,1,0,0
15095331,0.0,0.0509706,0.9927709,0.04166667,0.0,0.0,0.0,0.0,0.0,0.0,0.0,0,0,0,0,0,0,0,1,1,1,0,3,1,0,0
15118567,0.0,0.050971024,0.99277115,0.041666668,0.0,0.0,0.0,0.0,0.0,0.0,0.0,0,0,0,0,0,0,0,1,1,1,0,3,1,0,0
15142378,0.0,0.050970983,0.9927712,0.041666668,0.0,0.0,0.0,0.0,0.0,0.0,0.0,0,0,0,0,0,0,0,1,1,1,0,3,1,0,0
15166557,0.0,0.050970886,0.9927711,0.041666668,0.0,0.0,0.0,0.0,0.0,0.0,0.0,0,0,0,0,0,0,0,1,1,1,0,3,1,0,0
15190787,0.0,0.050970856,0.9927711,0.041666668,0.0,0.0,0.0,0.0,0.0,0.0,0.0,0,0,0,0,0,0,0,1,1,1,0,3,1,0,0
15214299,0.0,0.051472254,0.99301994,0.042172972,0.0,0.0,0.0,0.0,0.0,0.0,0.0,0,0,0,0,0,0,0,1,1,1,0,3,1,0,0
15238314,0.0,0.052158926,0.9933607,0.042866368,0.0,0.0,0.0,0.0,0.0,0.0,0.0,0,0,0,0,0,0,0,1,1,1,0,3,1,0,0
15262429,0.0,0.052314486,0.99343795,0.043023456,0.0,0.0,0.0,0.0,0.0,0.0,0.0,0,0,0,0,0,0,0,1,1,1,0,3,1,0,0
15286340,0.0,0.052237514,0.9933998,0.042945724,0.0,0.0,0.0,0.0,0.0,0.0,0.0,0,0,0,0,0,0,0,1,1,1,0,3,1,0,0
15306534,0.0,0.05167722,0.9931217,0.042379934,0.0,0.0,0.0,0.0,0.0,0.0,0.0,0,0,0,0,0,0,0,1,1,1,0,3,1,0,0
15330375,0.0,0.051485248,0.9927776,0.04167978,0.0,0.0,0.0,0.0,0.0,0.0,0.0,0,0,0,0,0,0,0,1,1,1,0,3,1,0,0
15353537,0.0,0.052025408,0.99270487,0.041531846,0.0,0.0,0.0,0.0,0.0,0.0,0.0,0,0,0,0,0,0,0,1,1,1,0,3,1,0,0
15375117,0.0,0.051761214,0.99274534,0.041614283,0.0,0.0,0.0,0.0,0.0,0.0,0.0,0,0,0,0,0,0,0,1,1,1,0,3,1,0,0
15396127,0.0,0.05105643,0.99277455,0.04167371,0.0,0.0,0.0,0.0,0.0,0.0,0.0,0,0,0,0,0,0,0,1,1,1,0,3,1,0,0
15419068,0.0,0.050847728,0.9927774,0.041679528,0.0,0.0,0.0,0.0,0.0,0.0,0.0,0,0,0,0,0,0,0,1,1,1,0,3,1,0,0
15441509,0.0,0.050908614,0.99277276,0.04167004,0.0,0.0,0.0,0.0,0.0,0.0,0.0,0,0,0,0,0,0,0,1,1,1,0,3,1,0,0
15461620,0.0,0.05097198,0.99277055,0.041665394,0.0,0.0,0.0,0.0,0.0,0.0,0.0,0,0,0,0,0,0,0,1,1,1,0,3,1,0,0
15485769,0.0,0.050983474,0.99277055,0.04166554,0.0,0.0,0.0,0.0,0.0,0.0,0.0,0,0,0,0,0,0,0,1,1,1,0,3,1,0,0
15509710,0.0,0.050975315,0.992771,0.0416665,0.0,0.0,0.0,0.0,0.0,0.0,0.0,0,0,0,0,0,0,0,1,1,1,0,3,1,0,0
15529734,0.0,0.050970048,0.99277115,0.041666828,0.0,0.0,0.0,0.0,0.0,0.0,0.0,0,0,0,0,0,0,0,1,1,1,0,3,1,0,0
15553550,0.0,0.0509697,0.9927711,0.041666757,0.0,0.0,0.0,0.0,0.0,0.0,0.0,0,0,0,0,0,0,0,1,1,1,0,3,1,0,0
15574538,0.0,0.050970603,0.9927711,0.04166667,0.0,0.0,0.0,0.0,0.0,0.0,0.0,0,0,0,0,0,0,0,1,1,1,0,3,1,0,0
15597733,0.0,0.050971005,0.9927711,0.04166665,0.0,0.0,0.0,0.0,0.0,0.0,0.0,0,0,0,0,0,0,0,1,1,1,0,3,1,0,0
15621541,0.0,0.05097098,0.9927711,0.04166666,0.0,0.0,0.0,0.0,0.0,0.0,0.0,0,0,0,0,0,0,0,1,1,1,0,3,1,0,0
15646624,0.0,0.05097089,0.9927711,0.041666668,0.0,0.0,0.0,0.0,0.0,0.0,0.0,0,0,0,0,0,0,0,1,1,1,0,3,1,0,0
15669590,0.0,0.05097086,0.9927711,0.042172976,0.0,0.0,0.0,0.0,0.0,0.0,0.0,0,0,0,0,0,0,0,1,1,1,0,3,1,0,0
15689773,0.0,0.050970864,0.9927711,0.042866368,0.0,0.0,0.0,0.0,0.0,0.0,0.0,0,0,0,0,0,0,0,1,1,1,0,3,1,0,0
15713716,0.0,0.050970875,0.9927711,0.04251715,0.0,0.0,0.0,0.0,0.0,0.0,0.0,0,0,0,0,0,0,0,1,1,1,0,3,1,0,0
15734351,0.0,0.050970875,0.9927711,0.041746024,0.0,0.0,0.0,0.0,0.0,0.0,0.0,0,0,0,0,0,0,0,1,1,1,0,3,1,0,0
15757542,0.0,0.050970875,0.9927711,0.041529454,0.0,0.0,0.0,0.0,0.0,0.0,0.0,0,0,0,0,0,0,0,1,1,1,0,3,1,0,0
15780773,0.0,0.05097087,0.9927711,0.042106725,0.0,0.0,0.0,0.0,0.0,0.0,0.0,0,0,0,0,0,0,0,1,1,1,0,3,1,0,0
15800912,0.0,0.05097087,0.9927711,0.042868756,0.0,0.0,0.0,0.0,0.0,0.0,0.0,0,0,0,0,0,0,0,1,1,1,0,3,1,0,0
15820909,0.0,0.05097087,0.9927711,0.042531006,0.0,0.0,0.0,0.0,0.0,0.0,0.0,0,0,0,0,0,0,0,1,1,1,0,3,1,0,0
15844927,0.0,0.05097087,0.9927711,0.041750677,0.0,0.0,0.0,0.0,0.0,0.0,0.0,0,0,0,0,0,0,0,1,1,1,0,3,1,0,0
15868909,0.0,0.05097087,0.9927711,0.041528456,0.0,0.0,0.0,0.0,0.0,0.0,0.0,0,0,0,0,0,0,0,1,1,1,0,3,1,0,0
15892909,0.0,0.05097087,0.9927711,0.041599143,0.0,0.0,0.0,0.0,0.0,0.0,0.0,0,0,0,0,0,0,0,1,1,1,0,3,1,0,0
15916932,0.0,0.05097087,0.9927711,0.04166878,0.0,0.0,0.0,0.0,0.0,0.0,0.0,0,0,0,0,0,0,0,1,1,1,0,3,1,0,0
15941134,0.0,0.05147226,0.99301994,0.042186975,0.0,0.0,0.0,0.0,0.0,0.0,0.0,0,0,0,0,0,0,0,1,1,1,0,3,1,0,0
15965014,0.0,0.052158926,0.9933607,0.04287113,0.0,0.0,0.0,0.0,0.0,0.0,0.0,0,0,0,0,0,0,0,1,1,1,0,3,1,0,0
15987996,0.0,0.0518131,0.9931891,0.043022472,0.0,0.0,0.0,0.0,0.0,0.0,0.0,0,0,0,0,0,0,0,1,1,1,0,3,1,0,0
16011317,0.0,0.05104946,0.9928101,0.04294443,0.0,0.0,0.0,0.0,0.0,0.0,0.0,0,0,0,0,0,0,0,1,1,1,0,3,1,0,0
16036131,0.0,0.05083499,0.9927037,0.042379655,0.0,0.0,0.0,0.0,0.0,0.0,0.0,0,0,0,0,0,0,0,1,1,1,0,3,1,0,0
16060346,0.0,0.050905276,0.99273854,0.04167993,0.0,0.0,0.0,0.0,0.0,0.0,0.0,0,0,0,0,0,0,0,1,1,1,0,3,1,0,0
16084131,0.0,0.050973244,0.9927723,0.041531954,0.0,0.0,0.0,0.0,0.0,0.0,0.0,0,0,0,0,0,0,0,1,1,1,0,3,1,0,0
16108146,0.0,0.050984595,0.9927779,0.04161429,0.0,0.0,0.0,0.0,0.0,0.0,0.0,0,0,0,0,0,0,0,1,1,1,0,3,1,0,0
16131344,0.0,0.050975483,0.99277335,0.04167369,0.0,0.0,0.0,0.0,0.0,0.0,0.0,0,0,0,0,0,0,0,1,1,1,0,3,1,0,0
16151819,0.0,0.05096989,0.9927706,0.041679516,0.0,0.0,0.0,0.0,0.0,0.0,0.0,0,0,0,0,0,0,0,1,1,1,0,3,1,0,0
16171964,0.0,0.050969604,0.99277043,0.041670043,0.0,0.0,0.0,0.0,0.0,0.0,0.0,0,0,0,0,0,0,0,1,1,1,0,3,1,0,0
16191987,0.0,0.050970595,0.9927709,0.0421717,0.0,0.0,0.0,0.0,0.0,0.0,0.0,0,0,0,0,0,0,0,1,1,1,0,3,1,0,0
16215963,0.0,0.05097102,0.99277115,0.042865243,0.0,0.0,0.0,0.0,0.0,0.0,0.0,0,0,0,0,0,0,0,1,1,1,0,3,1,0,0
16239931,0.0,0.050970986,0.9927712,0.042516984,0.0,0.0,0.0,0.0,0.0,0.0,0.0,0,0,0,0,0,0,0,1,1,1,0,3,1,0,0
16264025,0.0,0.050970886,0.9927711,0.041746184,0.0,0.0,0.0,0.0,0.0,0.0,0.0,0,0,0,0,0,0,0,1,1,1,0,3,1,0,0
16288172,0.0,0.050970856,0.9927711,0.041529547,0.0,0.0,0.0,0.0,0.0,0.0,0.0,0,0,0,0,0,0,0,1,1,1,0,3,1,0,0
16311596,0.0,0.050970864,0.9927711,0.04160043,0.0,0.0,0.0,0.0,0.0,0.0,0.0,0,0,0,0,0,0,0,1,1,1,0,3,1,0,0
16335362,0.0,0.050970875,0.9927711,0.04166904,0.0,0.0,0.0,0.0,0.0,0.0,0.0,0,0,0,0,0,0,0,1,1,1,0,3,1,0,0
16359343,0.0,0.050970875,0.9927711,0.041680515,0.0,0.0,0.0,0.0,0.0,0.0,0.0,0,0,0,0,0,0,0,1,1,1,0,3,1,0,0
16383179,0.0,0.050970875,0.9927711,0.04167132,0.0,0.0,0.0,0.0,0.0,0.0,0.0,0,0,0,0,0,0,0,1,1,1,0,3,1,0,0
16407338,0.0,0.05097087,0.9927711,0.041665673,0.0,0.0,0.0,0.0,0.0,0.0,0.0,0,0,0,0,0,0,0,1,1,1,0,3,1,0,0
16431335,0.0,0.05097087,0.9927711,0.04166539,0.0,0.0,0.0,0.0,0.0,0.0,0.0,0,0,0,0,0,0,0,1,1,1,0,3,1,0,0
16455365,0.0,0.05097087,0.9927711,0.04166639,0.0,0.0,0.0,0.0,0.0,0.0,0.0,0,0,0,0,0,0,0,1,1,1,0,3,1,0,0
16479390,0.0,0.05097087,0.9927711,0.041666813,0.0,0.0,0.0,0.0,0.0,0.0,0.0,0,0,0,0,0,0,0,1,1,1,0,3,1,0,0
16503343,0.0,0.05147226,0.99301994,0.04217308,0.0,0.0,0.0,0.0,0.0,0.0,0.0,0,0,0,0,0,0,0,1,1,1,0,3,1,0,0
