timestamp,states[0],states[1],states[2],states[3],states[4],states[5],states[6],states[7],states[8],states[9],states[10],states[11],states[12],states[13],states[14],states[15],states[16],states[17],states[18],states[19],states[20],states[21],states[22],states[23],vibe[0],vibe[1],vibe[2],covariances[0],covariances[1],covariances[2],covariances[3],covariances[4],covariances[5],covariances[6],covariances[7],covariances[8],covariances[9],covariances[10],covariances[11],covariances[12],covariances[13],covariances[14],covariances[15],covariances[16],covariances[17],covariances[18],covariances[19],covariances[20],covariances[21],covariances[22],covariances[23],control_mode_flags,pos_horiz_accuracy,pos_vert_accuracy,mag_test_ratio,vel_test_ratio,pos_test_ratio,hgt_test_ratio,tas_test_ratio,hagl_test_ratio,beta_test_ratio,time_slip,gps_check_fail_flags,filter_fault_flags,innovation_check_flags,solution_status_flags,n_states,pre_flt_fail,health_flags,timeout_flags
4576471,0.905942,-0.040596448,0.0306843,0.42033264,0.007304403,-0.005208589,0.06777976,0.00064391916,-0.0004113684,-0.03336096,3.4423751e-06,-9.6433325e-08,-3.989185e-05,5.1302993e-07,7.01523e-08,-5.3198746e-06,0.083192326,0.000919466,0.39956373,0.0,0.0,0.0,0.0,0.0,2.1143112e-10,8.1665285e-06,0.0013615885,0.00020312771,0.003226826,0.0032377176,0.0009273645,0.34588426,0.34588557,0.50293815,0.03336071,0.03336071,0.18850641,6.3754743e-07,6.38084e-07,5.71852e-07,2.5566858e-06,2.5566803e-06,2.5574273e-06,0.0,0.0,0.0,0.0,0.0,0.0,0.0,0.0,131730,0.0,0.0,0.075515665,0.0,1.3827136e-05,0.02235576,0.0,0.0,0.0,0.023293,0,0,0,164,24,0,0,0
4584493,0.90538335,-0.040706217,0.03065449,0.42152604,0.007254694,-0.0056543075,0.06840168,0.00068702013,-0.00047338873,-0.032800663,4.817684e-06,-1.3072814e-07,-5.5097495e-05,5.0598766e-07,6.996153e-08,-5.3195663e-06,0.083192326,0.000919466,0.39956373,0.0,0.0,0.0,0.0,0.0,2.133741e-10,8.247651e-06,0.0013399371,0.00019580091,0.003251634,0.003262705,0.0008940323,0.35200742,0.35200796,0.50332624,0.034750238,0.034750234,0.19108896,6.374859e-07,6.380839e-07,5.6433566e-07,2.5566858e-06,2.5566803e-06,2.5574273e-06,0.0,0.0,0.0,0.0,0.0,0.0,0.0,0.0,131730,0.0,0.0,0.067457125,0.0,1.3827136e-05,0.02235576,0.0,0.0,0.0,0.023293,0,0,0,164,24,0,0,0
4783665,0.90491664,-0.041592203,0.030386116,0.42246026,0.010846361,-0.009384279,0.09225055,0.0013513672,-0.001108863,-0.005722394,4.5622687e-06,-1.7489386e-07,-5.9830305e-05,8.446481e-07,-3.7743004e-07,-8.80244e-06,0.083192326,0.000919466,0.39956373,0.0,0.0,0.0,0.0,0.0,1.5799216e-10,8.255129e-06,0.0014401104,0.00019161179,0.0036670754,0.003679806,0.0008772764,0.31965736,0.31964964,0.44976857,0.031132605,0.0311325,0.18813187,6.2884914e-07,6.2988715e-07,5.0435716e-07,2.5499676e-06,2.5499546e-06,2.5521274e-06,0.0,0.0,0.0,0.0,0.0,0.0,0.0,0.0,131730,0.0,0.0,0.15040606,0.0,2.4949619e-05,0.0196649,0.0,0.0,0.0,0.023293,0,0,0,164,24,0,0,0
4990865,0.9040777,-0.04129382,0.030612126,0.42426574,0.012062978,-0.012588668,0.09932035,0.0018085983,-0.0017089739,0.013285003,3.3517938e-06,-1.279937e-07,-7.479151e-05,4.829128e-07,-2.2777308e-06,-5.582304e-06,0.083192326,0.000919466,0.39956373,0.0,0.0,0.0,0.0,0.0,1.5842348e-10,7.919793e-06,0.0010741536,0.00018964,0.0037158174,0.0037287774,0.00086851727,0.3397882,0.3397621,0.37036097,0.02795742,0.02795695,0.18299095,5.964306e-07,5.9793075e-07,4.236794e-07,2.5347363e-06,2.5347179e-06,2.5386958e-06,0.0,0.0,0.0,0.0,0.0,0.0,0.0,0.0,131730,0.0,0.0,0.052787993,0.0,3.835074e-05,0.01323773,0.0,0.0,0.0,0.023293,0,0,0,164,24,0,0,0
5190871,0.9039818,-0.04143768,0.030586673,0.42445764,0.013952513,-0.014754338,0.103117585,0.0023890694,-0.0024009955,0.023567202,-1.7874938e-06,1.7079097e-07,-5.98459e-05,2.5415263e-08,-4.425748e-06,-1.6900096e-06,0.083192326,0.000919466,0.39956373,0.0,0.0,0.0,0.0,0.0,1.7358817e-10,7.88571e-06,0.00072492403,0.00019527395,0.0035124498,0.0035248976,0.0008888182,0.3763036,0.3762669,0.31195104,0.03169569,0.031694595,0.18873997,5.4800887e-07,5.497617e-07,3.545934e-07,2.5210682e-06,2.5210823e-06,2.521578e-06,0.0,0.0,0.0,0.0,0.0,0.0,0.0,0.0,131730,0.0,0.0,0.09248676,0.0,4.730616e-05,0.013612193,0.0,0.0,0.0,0.023293,0,0,0,164,24,0,0,0
5390065,0.9041875,-0.04115635,0.030655567,0.42404157,0.011604783,-0.013144239,0.10202875,0.002290959,-0.0024442554,0.028973328,-8.647298e-06,6.707019e-07,-4.3796725e-05,-9.84029e-07,-6.9521907e-06,7.960838e-06,0.083192326,0.000919466,0.39956373,0.0,0.0,0.0,0.0,0.0,1.2658168e-10,7.838182e-06,0.0013260922,0.00018008717,0.0029583918,0.002969165,0.0008190451,0.3450828,0.34504598,0.25447276,0.031253353,0.031252056,0.18310384,4.7872953e-07,4.806432e-07,2.7550686e-07,2.5100205e-06,2.5101465e-06,2.4948758e-06,0.0,0.0,0.0,0.0,0.0,0.0,0.0,0.0,131730,0.0,0.0,0.083744064,0.0,4.880025e-05,0.0012629869,0.0,0.0,0.0,0.023293,0,0,0,164,24,0,0,0
5597267,0.9022229,-0.04044803,0.03098269,0.42824984,0.009577153,-0.012671525,0.13485971,0.0019722136,-0.0023730537,0.07293053,-9.475135e-06,1.9739668e-06,-9.116857e-05,-2.7138023e-07,-7.709029e-06,-4.618668e-06,0.083192326,0.000919466,0.39956373,0.0,0.0,0.0,0.0,0.0,1.4166832e-10,8.173697e-06,0.0013167973,0.0001752279,0.002481172,0.0024900988,0.00079446833,0.30214244,0.3021134,0.2102658,0.03066418,0.030663026,0.17738935,4.085725e-07,4.1042588e-07,2.1906585e-07,2.5050617e-06,2.5053876e-06,2.459726e-06,0.0,0.0,0.0,0.0,0.0,0.0,0.0,0.0,131730,0.0,0.0,0.009330169,0.0,4.839874e-05,0.014384249,0.0,0.0,0.0,0.023293,0,0,0,164,24,0,0,0
5793265,0.9006078,-0.040464394,0.030899726,0.43164048,0.008704115,-0.012337666,0.15491723,0.0016731756,-0.002284098,0.10834987,-1.1370824e-05,3.3557653e-06,-0.00011956308,1.4139367e-07,-7.928369e-06,-1.1846497e-05,0.083192326,0.000919466,0.39956373,0.0,0.0,0.0,0.0,0.0,1.4827024e-10,8.145953e-06,0.001295671,0.00017923063,0.0021177812,0.0021254024,0.0008060171,0.25467452,0.25465253,0.1771309,0.027750617,0.027749704,0.16642569,3.4582334e-07,3.474828e-07,1.8326135e-07,2.5037343e-06,2.5043253e-06,2.4165333e-06,0.0,0.0,0.0,0.0,0.0,0.0,0.0,0.0,131730,0.0,0.0,0.023374312,0.0,4.831016e-05,0.03372549,0.0,0.0,0.0,0.023293,0,0,0,164,24,0,0,0
6000471,0.8996467,-0.0403323,0.030816592,0.43365836,0.007189393,-0.011139266,0.108252086,0.0015434688,-0.002277956,0.06318293,-1.5064995e-05,4.646672e-06,-0.00012686389,-6.092627e-06,-1.0862672e-05,5.708819e-05,0.083192326,0.000919466,0.39956373,0.0,0.0,0.0,0.0,0.0,1.6291045e-10,8.360104e-06,0.0010095806,0.00017120286,0.0018815381,0.0018884344,0.0007623555,0.2304576,0.23043826,0.15462452,0.027414205,0.027413331,0.16105744,2.867605e-07,2.882534e-07,1.4531199e-07,2.5032132e-06,2.5041345e-06,2.3631674e-06,0.0,0.0,0.0,0.0,0.0,0.0,0.0,0.0,131730,0.0,0.0,0.029140908,0.0,4.841693e-05,0.030599458,0.0,0.0,0.0,0.023293,0,0,0,164,24,0,0,0
6201265,0.8990037,-0.04026814,0.030793559,0.4349974,0.00674086,-0.010620695,0.11073168,0.0015328598,-0.0023272175,0.07292995,-1.8615092e-05,5.6226845e-06,-0.00012496584,-7.1819004e-06,-1.1003339e-05,7.050034e-05,0.083192326,0.000919466,0.39956373,0.0,0.0,0.0,0.0,0.0,1.9326217e-10,8.302458e-06,0.0009776714,0.00016120044,0.0017468312,0.0017534168,0.0007094071,0.22217752,0.22216037,0.14211608,0.028515207,0.028514287,0.1589144,2.3865474e-07,2.3998598e-07,1.1576047e-07,2.5019558e-06,2.503222e-06,2.3066837e-06,0.0,0.0,0.0,0.0,0.0,0.0,0.0,0.0,131730,0.0,0.0,0.02744459,0.0,4.588299e-05,0.0029740594,0.0,0.0,0.0,0.023293,0,0,0,164,24,0,0,0
6406882,0.9017681,-0.040113773,0.03080815,0.4292508,0.006702385,-0.008502215,0.14275914,0.0015823804,-0.0020223649,0.1272188,-2.8354258e-05,4.9590885e-06,-5.3987562e-05,-4.0769687e-06,-8.992531e-06,4.0633186e-05,0.083192326,0.000919466,0.39956373,0.0,0.0,0.0,0.0,0.0,1.5403187e-10,8.186017e-06,0.0012746968,0.00015791219,0.001564423,0.0015705293,0.00069034024,0.20728621,0.20727398,0.1316769,0.027969036,0.027968258,0.1534191,1.8976215e-07,1.908363e-07,9.536403e-08,2.4988976e-06,2.5006084e-06,2.232615e-06,0.0,0.0,0.0,0.0,0.0,0.0,0.0,0.0,131730,0.0,0.0,0.034175575,0.0,4.014623e-05,0.0025090193,0.0,0.0,0.0,0.023293,0,0,0,164,24,0,0,0
6610873,0.9011205,-0.03958476,0.030983444,0.43064472,0.0050246418,-0.006546305,0.13217834,0.0013260704,-0.0017447533,0.12446061,-3.0618874e-05,5.8028536e-06,-6.0873823e-05,-7.3662e-06,-9.722296e-06,7.918325e-05,0.083192326,0.000919466,0.39956373,0.0,0.0,0.0,0.0,0.0,1.3303511e-10,8.6366235e-06,0.0014677418,0.00015159558,0.0013671853,0.0013726122,0.0006615867,0.18942814,0.18941957,0.124285094,0.026535017,0.026534433,0.14707048,1.4700504e-07,1.4783025e-07,7.884002e-08,2.4941241e-06,2.496347e-06,2.1467356e-06,0.0,0.0,0.0,0.0,0.0,0.0,0.0,0.0,131730,0.0,0.0,0.0298311,0.0,3.511803e-05,0.0106182275,0.0,0.0,0.0,0.023293,0,0,0,164,24,0,0,0
6809326,0.9001459,-0.039306574,0.031047083,0.432699,0.0037262123,-0.004965091,0.1182769,0.0010494582,-0.0013873264,0.11857968,-3.1834083e-05,6.7229857e-06,-7.274195e-05,-1.1628839e-05,-1.0925202e-05,0.00012942955,0.083192326,0.000919466,0.39956373,0.0,0.0,0.0,0.0,0.0,1.7933846e-10,8.7774915e-06,0.0017361848,0.00014088201,0.0011630188,0.0011677422,0.00061325217,0.17061095,0.17060488,0.119183265,0.025069188,0.025068792,0.14194156,1.1032234e-07,1.1092651e-07,6.421276e-08,2.487967e-06,2.4907804e-06,2.0474254e-06,0.0,0.0,0.0,0.0,0.0,0.0,0.0,0.0,131730,0.0,0.0,0.049196288,0.0,2.9412653e-05,0.044908877,0.0,0.0,0.0,0.023293,0,0,0,164,24,0,0,0
7018090,0.8991424,-0.039582774,0.03079659,0.43477333,0.0031943806,-0.004445606,0.12585597,0.0008918308,-0.0012168231,0.13926496,-3.2650027e-05,7.4389613e-06,-8.21431e-05,-1.1960853e-05,-1.0425885e-05,0.00013554168,0.083192326,0.000919466,0.39956373,0.0,0.0,0.0,0.0,0.0,1.8397144e-10,8.606419e-06,0.0014998161,0.00013291759,0.0009864228,0.0009905954,0.00057553424,0.15537508,0.15537043,0.11642435,0.024365118,0.024364805,0.1389625,8.147145e-08,8.189366e-08,5.295975e-08,2.4812937e-06,2.4847704e-06,1.9368292e-06,0.0,0.0,0.0,0.0,0.0,0.0,0.0,0.0,131730,0.0,0.0,0.022130229,0.0,2.5561543e-05,0.017550427,0.0,0.0,0.0,0.023293,0,0,0,164,24,0,0,0
7217265,0.89855784,-0.03958122,0.030782819,0.4359813,0.0016424768,-0.0026481624,0.09169432,0.0006817211,-0.0009735301,0.101404,-3.3531254e-05,7.823603e-06,-8.456796e-05,-2.0793463e-05,-1.3974755e-05,0.00023589788,0.083192326,0.000919466,0.39956373,0.0,0.0,0.0,0.0,0.0,1.5810324e-10,8.96826e-06,0.0012585471,0.00012827538,0.0008528396,0.0008565524,0.0005534407,0.14665048,0.14664683,0.115966275,0.025087923,0.02508764,0.13992731,6.132233e-08,6.1613825e-08,4.5031e-08,2.4753504e-06,2.479482e-06,1.8288447e-06,0.0,0.0,0.0,0.0,0.0,0.0,0.0,0.0,131730,0.0,0.0,0.10251839,0.0,1.9281424e-05,0.02577909,0.0,0.0,0.0,0.023293,0,0,0,164,24,0,0,0
7417265,0.8977427,-0.039401975,0.030804325,0.43767187,0.0006102422,-0.0018635294,0.09757286,0.00043434385,-0.000664677,0.118716076,-3.382305e-05,8.2205215e-06,-8.955301e-05,-2.0841124e-05,-1.3657138e-05,0.00023817876,0.083192326,0.000919466,0.39956373,0.0,0.0,0.0,0.0,0.0,1.6590908e-10,8.631653e-06,0.0009956755,0.00012393195,0.00070706604,0.0007102253,0.00053144456,0.12868384,0.12868103,0.11328913,0.023468468,0.02346826,0.13661729,4.451128e-08,4.4690104e-08,3.8514585e-08,2.469238e-06,2.4741541e-06,1.7007189e-06,0.0,0.0,0.0,0.0,0.0,0.0,0.0,0.0,131730,0.0,0.0,0.012781796,0.0,1.3660163e-05,0.010392825,0.0,0.0,0.0,0.023293,0,0,0,164,24,0,0,0
7624465,0.89896864,-0.039423738,0.030854423,0.4351427,0.00017806438,-0.0025851286,0.09760843,0.0002686974,-0.00061731326,0.12683852,-3.6522702e-05,7.4428635e-06,-6.4592954e-05,-2.2889195e-05,-1.4258495e-05,0.00025950643,0.083192326,0.000919466,0.39956373,0.0,0.0,0.0,0.0,0.0,1.5614834e-10,8.419309e-06,0.00077654136,0.00011729775,0.0005905486,0.0005932849,0.00050021877,0.11444177,0.11443889,0.1112532,0.022634298,0.022634085,0.13536926,3.223532e-08,3.2338342e-08,3.251687e-08,2.4637884e-06,2.4695294e-06,1.5674239e-06,0.0,0.0,0.0,0.0,0.0,0.0,0.0,0.0,131730,0.0,0.0,0.009034145,0.0,1.2476275e-05,0.010281946,0.0,0.0,0.0,0.023293,0,0,0,164,24,0,0,0
7823707,0.89716285,-0.039478946,0.030713547,0.43885857,-0.0007067684,-0.0013577744,0.11566807,9.1961025e-05,-0.0005433323,0.16294141,-3.5075143e-05,8.413606e-06,-8.4023726e-05,-2.0060572e-05,-1.29431955e-05,0.00023184204,0.083192326,0.000919466,0.39956373,0.0,0.0,0.0,0.0,0.0,1.2940371e-10,8.549595e-06,0.000664337,0.000113327624,0.00049315474,0.0004955127,0.00048166455,0.10002636,0.1000246,0.108134195,0.021293348,0.021293188,0.13313688,2.343541e-08,2.3483004e-08,2.8207854e-08,2.459079e-06,2.465662e-06,1.4324685e-06,0.0,0.0,0.0,0.0,0.0,0.0,0.0,0.0,131730,0.0,0.0,0.29447818,0.0,1.1334729e-05,0.019428499,0.0,0.0,0.0,0.023293,0,0,0,164,24,0,0,0
8030869,0.8977691,-0.039184403,0.030872328,0.43763256,-0.00067063083,-0.0009363636,0.122896165,-7.223245e-05,-0.00037710648,0.18711655,-3.6487854e-05,8.013872e-06,-6.990884e-05,-2.0338754e-05,-1.2938447e-05,0.00023407597,0.083192326,0.000919466,0.39956373,0.0,0.0,0.0,0.0,0.0,1.2588419e-10,8.331519e-06,0.0011649609,0.000107876236,0.0004179076,0.00041995037,0.00045601607,0.088782765,0.0887816,0.10525172,0.020582734,0.020582601,0.1324868,1.713017e-08,1.7143352e-08,2.4211838e-08,2.4550518e-06,2.4624765e-06,1.2987728e-06,0.0,0.0,0.0,0.0,0.0,0.0,0.0,0.0,131730,0.0,0.0,0.061938725,0.0,7.873421e-06,0.00022956062,0.0,0.0,0.0,0.023293,0,0,0,164,24,0,0,0
8230865,0.89818966,-0.039105702,0.030899549,0.4367739,-0.0005218552,-0.0012070725,0.11398606,-0.00014726665,-0.00033152784,0.19092624,-3.743339e-05,7.74182e-06,-5.9888807e-05,-2.362642e-05,-1.4331028e-05,0.00027023596,0.083192326,0.000919466,0.39956373,0.0,0.0,0.0,0.0,0.0,1.4633843e-10,7.957523e-06,0.0010033569,0.00010452863,0.00035690464,0.00035870483,0.00044047844,0.07785625,0.07785549,0.101271234,0.019442197,0.019442093,0.13049829,1.2651498e-08,1.2640397e-08,2.127661e-08,2.4516578e-06,2.459899e-06,1.1698339e-06,0.0,0.0,0.0,0.0,0.0,0.0,0.0,0.0,131730,0.0,0.0,0.005929431,0.0,6.8988106e-06,0.007981159,0.0,0.0,0.0,0.023293,0,0,0,164,24,0,0,0
8434077,0.8785988,-0.04061031,0.029025704,0.47494477,-0.00034478388,-0.0012761165,0.09520792,-0.0001804666,-0.0003424105,0.1771171,-3.7686965e-05,7.7445375e-06,-5.7202065e-05,-2.9029738e-05,-1.6690541e-05,0.0003312716,0.08266441,0.00091362605,0.39364046,0.0,0.0,0.0,0.0,0.0,1.5504353e-10,7.916294e-06,0.0015337771,0.000592029,0.00031831936,0.00032175568,0.002070914,0.072288215,0.072287954,0.09897108,0.019859206,0.019859122,0.1328615,9.701026e-09,9.6773425e-09,1.8785006e-08,2.4490469e-06,2.4579883e-06,1.0598653e-06,0.0,0.0,0.0,0.0,0.0,0.0,0.0,0.0,131731,0.19929458,0.3645017,0.06093295,0.0,6.919961e-06,0.00773266,0.0,0.0,0.0,0.023293,0,0,0,165,24,0,0,0
8633265,0.8909657,-0.039882436,0.030059092,0.45131573,-0.0007041062,-0.0005073209,0.06615174,-0.00028972758,-0.00048637323,0.14720772,-3.7745e-05,7.710194e-06,-5.6378376e-05,-3.612271e-05,-1.9758623e-05,0.00041061224,0.08266441,0.00091362605,0.39364046,0.0,0.0,0.0,0.0,0.0,1.275395e-10,8.285414e-06,0.0011886089,0.00032539899,0.00031885962,0.00032139668,0.0011330826,0.0789805,0.07898034,0.09393986,0.036064487,0.036064327,0.1310343,9.689244e-09,9.665475e-09,1.8781433e-08,2.4481121e-06,2.457809e-06,9.4284377e-07,0.0,0.0,0.0,0.0,0.0,0.0,0.0,0.0,131731,0.2685681,0.3619866,0.0559737,0.0,4.879921e-07,0.051920455,0.0,0.0,0.0,0.023293,0,0,0,165,24,0,0,0
8837271,0.8944807,-0.03936517,0.030545589,0.44432157,-0.0018813642,-0.00046566842,0.058727656,-0.0005746501,-0.00057797704,0.14842679,-3.7928414e-05,7.6240317e-06,-5.429827e-05,-3.795711e-05,-2.053835e-05,0.0004306553,0.08266441,0.00091362605,0.39364046,0.0,0.0,0.0,0.0,0.0,1.3869554e-10,8.324014e-06,0.0012597854,0.00021608721,0.0003229877,0.00032512101,0.00074963196,0.100580454,0.10058012,0.09056187,0.058631916,0.05863165,0.13228038,9.6680814e-09,9.644269e-09,1.8756925e-08,2.4473377e-06,2.4576634e-06,8.45405e-07,0.0,0.0,0.0,0.0,0.0,0.0,0.0,0.0,131731,0.34243768,0.3637037,0.026253209,0.0,5.759307e-07,0.03909968,0.0,0.0,0.0,0.023293,0,0,0,165,24,0,0,0
9036526,0.89592797,-0.03948813,0.030550132,0.44138488,-0.001204518,-0.0009883096,0.029134007,-0.00084866094,-0.00070338266,0.112212464,-3.807296e-05,7.55238e-06,-5.2547715e-05,-4.4290897e-05,-2.326955e-05,0.0005012653,0.08266441,0.00091362605,0.39364046,0.0,0.0,0.0,0.0,0.0,1.6454252e-10,8.489158e-06,0.0015150254,0.00016836335,0.00033011337,0.00033213614,0.00058266416,0.13787079,0.13787086,0.08494286,0.09130107,0.091300644,0.12968245,9.628282e-09,9.604383e-09,1.8710661e-08,2.4464953e-06,2.4574658e-06,7.453146e-07,0.0,0.0,0.0,0.0,0.0,0.0,0.0,0.0,131731,0.42731923,0.36011449,0.03355911,0.0,8.520455e-07,0.069709666,0.0,0.0,0.0,0.023293,0,0,0,165,24,0,0,0
9243664,0.89678466,-0.039495725,0.030603027,0.43963704,-0.002665446,-0.00057468936,-0.014288719,-0.0011616568,-0.00080542645,0.053469922,-3.8227026e-05,7.4772165e-06,-5.066935e-05,-5.2510935e-05,-2.6844804e-05,0.0005929531,0.08266441,0.00091362605,0.39364046,0.0,0.0,0.0,0.0,0.0,1.1708218e-10,7.98873e-06,0.0014473221,0.00013922849,0.00034016054,0.00034213043,0.00048145684,0.19163977,0.19163914,0.07985413,0.13898738,0.13898675,0.12744439,9.566899e-09,9.542947e-09,1.8627063e-08,2.4454953e-06,2.4570381e-06,6.55922e-07,0.0,0.0,0.0,0.0,0.0,0.0,0.0,0.0,131731,0.5272325,0.35699353,0.13072373,0.0,1.1626553e-06,0.003833008,0.0,0.0,0.0,0.023293,0,0,0,165,24,0,0,0
9443705,0.8966264,-0.039070215,0.030832687,0.43998197,-0.0024517677,-0.0013162768,-0.023817409,-0.0016655199,-0.0009454674,0.038853917,-3.824071e-05,7.4732766e-06,-5.047629e-05,-5.382767e-05,-2.7409013e-05,0.0006075452,0.08266441,0.00091362605,0.39364046,0.0,0.0,0.0,0.0,0.0,1.5008858e-10,8.008381e-06,0.00097551354,0.00011710047,0.0003518353,0.00035373663,0.0004054972,0.2580099,0.25800914,0.0762684,0.20459943,0.20459856,0.12795891,9.490439e-09,9.4666595e-09,1.8485023e-08,2.444156e-06,2.456143e-06,5.8564825e-07,0.0,0.0,0.0,0.0,0.0,0.0,0.0,0.0,131731,0.63968587,0.35771343,0.011915392,0.0,1.6257326e-06,0.019093692,0.0,0.0,0.0,0.023293,0,0,0,165,24,0,0,0
9646878,0.89798766,-0.03940604,0.030777724,0.43717068,-0.001767266,-0.002825525,-0.029359752,-0.0019816894,-0.0013138964,0.032905295,-3.87408e-05,7.245042e-06,-4.48921e-05,-5.40528e-05,-2.7453752e-05,0.00060827873,0.08266441,0.00091362605,0.39364046,0.0,0.0,0.0,0.0,0.0,2.1838081e-10,8.488281e-06,0.0011607308,0.00010419127,0.0003640702,0.0003660046,0.00036218378,0.33710513,0.33710375,0.07104329,0.29563108,0.29562995,0.124344565,9.375225e-09,9.35147e-09,1.830886e-08,2.4414978e-06,2.4539172e-06,5.1535096e-07,0.0,0.0,0.0,0.0,0.0,0.0,0.0,0.0,131731,0.768935,0.35262525,0.012891497,0.0,1.9846514e-06,0.010332084,0.0,0.0,0.0,0.023293,0,0,0,165,24,0,0,0
9849320,0.8994159,-0.03979791,0.030662786,0.43419695,-0.0026587145,-0.0033755233,-0.012270393,-0.0022714362,-0.0018210361,0.060841046,-3.9407394e-05,6.9509542e-06,-3.749881e-05,-5.0311824e-05,-2.5663872e-05,0.0005641313,0.08266441,0.00091362605,0.39364046,0.0,0.0,0.0,0.0,0.0,1.6859321e-10,8.370153e-06,0.0011677694,9.3163006e-05,0.0003764691,0.00037845157,0.00032604064,0.42899212,0.4289884,0.06759174,0.42173597,0.4217342,0.12504756,9.243395e-09,9.2200585e-09,1.804945e-08,2.4374028e-06,2.4501462e-06,4.6032875e-07,0.0,0.0,0.0,0.0,0.0,0.0,0.0,0.0,131731,0.91840637,0.35362065,2.2635888e-05,0.0,2.233093e-06,0.013187332,0.0,0.0,0.0,0.023293,0,0,0,165,24,0,0,0
10050073,0.89904356,-0.03909285,0.03101921,0.43500602,-0.0036841678,-0.0035301282,-0.021971256,-0.0028296618,-0.0023973128,0.04703905,-3.9316266e-05,7.00371e-06,-3.8467715e-05,-5.146258e-05,-2.6135574e-05,0.000576309,0.08266441,0.00091362605,0.39364046,0.0,0.0,0.0,0.0,0.0,1.5099437e-10,8.689913e-06,0.0013714941,8.656951e-05,0.00038589173,0.00038783753,0.0003059828,0.5259875,0.5259818,0.06270928,0.58269775,0.5826949,0.121488206,9.059401e-09,9.036152e-09,1.7761755e-08,2.4297076e-06,2.442748e-06,4.0535252e-07,0.0,0.0,0.0,0.0,0.0,0.0,0.0,0.0,131731,1.0795336,0.34855157,0.031130074,0.0,2.8419704e-06,0.022584502,0.0,0.0,0.0,0.023293,0,0,0,165,24,0,0,0
10249320,0.8988315,-0.03870886,0.031163387,0.43546796,-0.0020009486,-0.0049675326,-0.027850453,-0.003281084,-0.0031020204,0.036955263,-3.9329923e-05,7.0107294e-06,-3.828049e-05,-5.2140364e-05,-2.637877e-05,0.0005824831,0.08266441,0.00091362605,0.39364046,0.0,0.0,0.0,0.0,0.0,2.4334254e-10,8.974742e-06,0.0018063036,8.175399e-05,0.00039309688,0.0003950218,0.00029223837,0.6244703,0.62446535,0.05933776,0.7799881,0.77998406,0.12091618,8.86437e-09,8.841438e-09,1.741792e-08,2.4192163e-06,2.4324572e-06,3.6228835e-07,0.0,0.0,0.0,0.0,0.0,0.0,0.0,0.0,131731,1.2489885,0.34773004,0.018182045,0.0,3.2742537e-06,0.010760471,0.0,0.0,0.0,0.023293,0,0,0,165,24,0,0,0
10457265,0.89894617,-0.03953141,0.030741647,0.43518752,-0.0020491716,-0.0050206366,-0.02413283,-0.003396448,-0.003933158,0.040717848,-3.9567887e-05,6.920191e-06,-3.562021e-05,-5.146408e-05,-2.5922023e-05,0.0005721324,0.08266441,0.00091362605,0.39364046,0.0,0.0,0.0,0.0,0.0,2.167202e-10,8.888237e-06,0.0012315905,7.727218e-05,0.0003940944,0.00039605543,0.0002798033,0.71628565,0.7162809,0.05515831,1.0119861,1.0119809,0.117623016,8.61647e-09,8.594092e-09,1.6961783e-08,2.4026679e-06,2.4160627e-06,3.200319e-07,0.0,0.0,0.0,0.0,0.0,0.0,0.0,0.0,131731,1.4226619,0.34296212,0.0016591542,0.0,3.9489355e-06,0.006049185,0.0,0.0,0.0,0.023293,0,0,0,165,24,0,0,0
10656465,0.89952135,-0.0389692,0.031065553,0.43402487,-0.0027739704,-0.0039032467,-0.028266361,-0.0034840403,-0.0042808936,0.03212306,-4.0089173e-05,6.704756e-06,-2.9822362e-05,-5.2025713e-05,-2.6065018e-05,0.00057485636,0.08266441,0.00091362605,0.39364046,0.0,0.0,0.0,0.0,0.0,1.7523505e-10,8.532368e-06,0.0009503815,7.366542e-05,0.00039159326,0.00039349694,0.00027060733,0.79507,0.7950659,0.052138098,1.2628688,1.2628626,0.11678722,8.379252e-09,8.35797e-09,1.6438745e-08,2.3836326e-06,2.397104e-06,2.8733137e-07,0.0,0.0,0.0,0.0,0.0,0.0,0.0,0.0,131731,1.589255,0.34174144,0.008516599,0.0,4.270636e-06,0.006897216,0.0,0.0,0.0,0.023293,0,0,0,165,24,0,0,0
10863676,0.90029335,-0.038452975,0.031362444,0.43244624,-0.00089484913,-0.004563791,-0.03524736,-0.0034975207,-0.004582679,0.017839547,-4.0796218e-05,6.3937355e-06,-2.196026e-05,-5.307597e-05,-2.6382704e-05,0.00058131636,0.08266441,0.00091362605,0.39364046,0.0,0.0,0.0,0.0,0.0,2.4811164e-10,8.117383e-06,0.00078222534,7.2136325e-05,0.0003815827,0.00038340272,0.000269343,0.8489903,0.84898764,0.04853049,1.5155545,1.515548,0.11357318,8.109897e-09,8.089254e-09,1.5930937e-08,2.3581904e-06,2.3716893e-06,2.555317e-07,0.0,0.0,0.0,0.0,0.0,0.0,0.0,0.0,131731,1.7410063,0.3370062,0.08260705,0.0,4.585112e-06,0.004527807,0.0,0.0,0.0,0.023293,0,0,0,165,24,0,0,0
11063699,0.89979243,-0.039428465,0.030853592,0.43343645,-0.0012712904,-0.0035752761,-0.051257595,-0.003313615,-0.0047537903,-0.017544627,-4.0533807e-05,6.5399786e-06,-2.4872847e-05,-5.5639644e-05,-2.7617429e-05,0.0006074095,0.08266441,0.00091362605,0.39364046,0.0,0.0,0.0,0.0,0.0,2.2355658e-10,8.162565e-06,0.00059201976,6.897079e-05,0.00037110818,0.00037292353,0.0002613349,0.8850518,0.88504875,0.04596274,1.7615689,1.7615633,0.112702206,7.877407e-09,7.858989e-09,1.5235408e-08,2.3331118e-06,2.3465952e-06,2.310656e-07,0.0,0.0,0.0,0.0,0.0,0.0,0.0,0.0,131731,1.8770009,0.33571148,0.014793719,0.0,4.748389e-06,0.018141026,0.0,0.0,0.0,0.023293,0,0,0,165,24,0,0,0
11262865,0.89938515,-0.03905875,0.031034704,0.4343014,-0.0028560867,-0.0022125796,-0.06394304,-0.0033261722,-0.0045268694,-0.04834068,-4.0297447e-05,6.6747357e-06,-2.7498223e-05,-5.7537167e-05,-2.8504337e-05,0.0006254848,0.08266441,0.00091362605,0.39364046,0.0,0.0,0.0,0.0,0.0,1.973234e-10,8.450336e-06,0.0010632008,6.822894e-05,0.0003544897,0.00035620702,0.00026246818,0.88290447,0.88289976,0.04269554,1.951182,1.9511769,0.10892162,7.63819e-09,7.62122e-09,1.4656714e-08,2.3036885e-06,2.317125e-06,2.071202e-07,0.0,0.0,0.0,0.0,0.0,0.0,0.0,0.0,131731,1.975439,0.33003277,0.019849584,0.0,4.5760703e-06,0.019268787,0.0,0.0,0.0,0.023293,0,0,0,165,24,0,0,0
11466064,0.9001035,-0.038307596,0.031443536,0.43284807,-0.000979062,-0.0022752185,-0.06403411,-0.003183122,-0.0042508338,-0.056842867,-4.103357e-05,6.344461e-06,-1.9330311e-05,-5.7544665e-05,-2.828876e-05,0.0006206745,0.08266441,0.00091362605,0.39364046,0.0,0.0,0.0,0.0,0.0,2.8268243e-10,1.01171745e-05,0.001961473,6.676895e-05,0.0003429275,0.00034454395,0.00026065388,0.8750385,0.87503797,0.040517896,2.136235,2.1362312,0.10802997,7.4493762e-09,7.43499e-09,1.3963147e-08,2.2780623e-06,2.2914426e-06,1.8872088e-07,0.0,0.0,0.0,0.0,0.0,0.0,0.0,0.0,131731,2.0669944,0.3286791,0.05122511,0.0,4.2646616e-06,0.009894004,0.0,0.0,0.0,0.023293,0,0,0,165,24,0,0,0
11666104,0.8998187,-0.039310604,0.030890029,0.43339005,0.0008168135,-0.0031572164,-0.04176989,-0.002305717,-0.0041831094,-0.020892888,-4.1002342e-05,6.3874936e-06,-1.974255e-05,-5.4171738e-05,-2.6304033e-05,0.0005813342,0.08266441,0.00091362605,0.39364046,0.0,0.0,0.0,0.0,0.0,2.704299e-10,9.415453e-06,0.0015515785,6.556725e-05,0.0003289031,0.00033050645,0.0002593567,0.8347045,0.83470464,0.03772935,2.2453766,2.2453737,0.10472208,7.2669195e-09,7.2553297e-09,1.3251942e-08,2.2508762e-06,2.2641889e-06,1.7060033e-07,0.0,0.0,0.0,0.0,0.0,0.0,0.0,0.0,131731,2.119139,0.32360792,0.07056453,0.0,4.200603e-06,0.025134351,0.0,0.0,0.0,0.023293,0,0,0,165,24,0,0,0
11865264,0.9006149,-0.039465763,0.0308655,0.43172064,0.00034993104,-0.0014338754,-0.033634353,-0.0015743739,-0.0037297723,-0.008209301,-4.186114e-05,6.0111174e-06,-1.0262413e-05,-5.2878346e-05,-2.5519103e-05,0.0005647415,0.08266441,0.00091362605,0.39364046,0.0,0.0,0.0,0.0,0.0,2.103215e-10,9.313195e-06,0.0011803752,6.630067e-05,0.00032236092,0.00032394796,0.00026584626,0.7988743,0.79887587,0.035813052,2.3524582,2.3524575,0.10373979,7.130963e-09,7.1215998e-09,1.2706975e-08,2.2290556e-06,2.2423121e-06,1.5653974e-07,0.0,0.0,0.0,0.0,0.0,0.0,0.0,0.0,131731,2.169082,0.32208663,0.09268919,0.0,3.7548307e-06,0.006684161,0.0,0.0,0.0,0.023293,0,0,0,165,24,0,0,0
12064471,0.8998207,-0.038717117,0.031197203,0.43341717,0.0013057574,-0.0015119276,-0.024481382,-0.0010921103,-0.0033362706,0.004712228,-4.1216976e-05,6.332792e-06,-1.748658e-05,-5.1631472e-05,-2.481768e-05,0.00055086287,0.08266441,0.00091362605,0.39364046,0.0,0.0,0.0,0.0,0.0,2.5206953e-10,9.318164e-06,0.0014681749,6.515784e-05,0.00031630465,0.00031781415,0.00026460708,0.7399137,0.73991454,0.03340075,2.3715262,2.3715272,0.10023939,7.002741e-09,6.99684e-09,1.197294e-08,2.2077506e-06,2.2209529e-06,1.427983e-07,0.0,0.0,0.0,0.0,0.0,0.0,0.0,0.0,131731,2.1778553,0.31660604,0.040068593,0.0,3.3476624e-06,0.026809124,0.0,0.0,0.0,0.023293,0,0,0,165,24,0,0,0
12264472,0.89946777,-0.039439466,0.030844586,0.43410945,0.0034714781,-0.0022617097,-0.027300559,-0.00045464854,-0.0030727035,-0.004552764,-4.104196e-05,6.423444e-06,-1.9462144e-05,-5.1971234e-05,-2.5002071e-05,0.0005535789,0.08266441,0.00091362605,0.39364046,0.0,0.0,0.0,0.0,0.0,2.7957062e-10,9.084826e-06,0.0009997068,6.505315e-05,0.00031815207,0.00031970182,0.00026696862,0.69749516,0.69749635,0.031800788,2.4196925,2.4196942,0.09941955,6.9082176e-09,6.9054726e-09,1.13362395e-08,2.1918624e-06,2.2050249e-06,1.3226028e-07,0.0,0.0,0.0,0.0,0.0,0.0,0.0,0.0,131731,2.1998606,0.31530866,0.057491742,0.0,3.0728313e-06,0.019157764,0.0,0.0,0.0,0.023293,0,0,0,165,24,0,0,0
12471714,0.8993152,-0.0397822,0.030646812,0.43440807,0.002020472,-0.0016253481,-0.012695061,0.0002360775,-0.002993915,0.024264522,-4.108833e-05,6.4159644e-06,-1.9067804e-05,-4.9957092e-05,-2.3816909e-05,0.00053089287,0.08266441,0.00091362605,0.39364046,0.0,0.0,0.0,0.0,0.0,2.1556708e-10,8.57909e-06,0.00080379564,6.42522e-05,0.00032264783,0.0003242319,0.00026626565,0.6446069,0.6446063,0.02990541,2.408768,2.4087696,0.09701064,6.818423e-09,6.8194645e-09,1.0619592e-08,2.177166e-06,2.1902958e-06,1.2197907e-07,0.0,0.0,0.0,0.0,0.0,0.0,0.0,0.0,131731,2.1948888,0.31146532,0.0026605276,0.0,2.983414e-06,0.037645523,0.0,0.0,0.0,0.023293,0,0,0,165,24,0,0,0
12670865,0.89928436,-0.03885532,0.031096227,0.43452385,0.0027340099,-0.0012106849,-0.0062836874,0.00060753885,-0.0026878887,0.036495157,-4.115026e-05,6.3966045e-06,-1.8470237e-05,-4.917569e-05,-2.3370114e-05,0.0005217642,0.08266441,0.00091362605,0.39364046,0.0,0.0,0.0,0.0,0.0,2.3083385e-10,9.052594e-06,0.0011906454,6.317811e-05,0.0003305358,0.00033209572,0.00026413077,0.594407,0.594408,0.028081344,2.3655832,2.3655841,0.09415136,6.741687e-09,6.746425e-09,9.9265804e-09,2.165496e-06,2.1786043e-06,1.1312377e-07,0.0,0.0,0.0,0.0,0.0,0.0,0.0,0.0,131731,2.1751246,0.30684093,0.083564416,0.0,2.7147355e-06,0.006457967,0.0,0.0,0.0,0.023293,0,0,0,165,24,0,0,0
12878864,0.8998809,-0.03936756,0.030868284,0.43325734,0.0044944873,-0.0017088405,-0.0007762397,0.0013306914,-0.002511119,0.047175817,-4.1816733e-05,6.09257e-06,-1.1153786e-05,-4.8663802e-05,-2.3071692e-05,0.0005154137,0.08266441,0.00091362605,0.39364046,0.0,0.0,0.0,0.0,0.0,2.6497612e-10,9.010179e-06,0.000980726,6.240626e-05,0.00034538007,0.0003470264,0.00026287686,0.5658065,0.5658088,0.026942745,2.383364,2.3833642,0.09420067,6.68021e-09,6.6885524e-09,9.2671275e-09,2.15731e-06,2.1704072e-06,1.06234715e-07,0.0,0.0,0.0,0.0,0.0,0.0,0.0,0.0,131731,2.1832838,0.30692127,0.15611829,0.0,2.573305e-06,0.020292541,0.0,0.0,0.0,0.023293,0,0,0,165,24,0,0,0
13078071,0.8996691,-0.039857473,0.030615779,0.43366984,0.0028816392,-0.00084391545,-0.0014221552,0.0017027687,-0.0022874982,0.045749564,-4.1734e-05,6.1360897e-06,-1.2139638e-05,-4.873698e-05,-2.3172446e-05,0.00051600585,0.08266441,0.00091362605,0.39364046,0.0,0.0,0.0,0.0,0.0,2.2042548e-10,8.920055e-06,0.0018670826,6.219202e-05,0.00036023627,0.00036197115,0.00026389502,0.5278579,0.52786005,0.0253369,2.3163621,2.316363,0.09130562,6.617205e-09,6.628533e-09,8.713293e-09,2.1502192e-06,2.163312e-06,9.942776e-08,0.0,0.0,0.0,0.0,0.0,0.0,0.0,0.0,131731,2.1523767,0.3021682,0.08066565,0.0,2.3258451e-06,0.015863456,0.0,0.0,0.0,0.023293,0,0,0,165,24,0,0,0
13285272,0.90069616,-0.038768586,0.031188589,0.4315911,0.002204969,-0.0010532008,0.002711389,0.0019343711,-0.0019426313,0.053681303,-4.2617383e-05,5.727539e-06,-2.41111e-06,-4.848094e-05,-2.3020835e-05,0.0005127196,0.08266441,0.00091362605,0.39364046,0.0,0.0,0.0,0.0,0.0,2.2815888e-10,8.871307e-06,0.0015992566,6.207335e-05,0.0003809386,0.00038270047,0.00026557464,0.51185256,0.511854,0.024335006,2.3201716,2.3201728,0.09137424,6.5627725e-09,6.576973e-09,8.181949e-09,2.145531e-06,2.1586254e-06,9.411696e-08,0.0,0.0,0.0,0.0,0.0,0.0,0.0,0.0,131731,2.154146,0.30228174,0.15842961,0.0,1.9389254e-06,0.017549489,0.0,0.0,0.0,0.023293,0,0,0,165,24,0,0,0
13485265,0.9011549,-0.03907768,0.031045942,0.43061477,0.0043374207,-0.0032094521,0.0018710018,0.0022441589,-0.0019885334,0.049884446,-4.3035852e-05,5.5286864e-06,2.1846126e-06,-4.8864546e-05,-2.326158e-05,0.0005156676,0.08266441,0.00091362605,0.39364046,0.0,0.0,0.0,0.0,0.0,3.489736e-10,8.9228915e-06,0.0011600988,6.077688e-05,0.00040101254,0.00040286916,0.0002617593,0.489439,0.48944104,0.022926515,2.2483854,2.2483869,0.08862309,6.5013404e-09,6.5185914e-09,7.601375e-09,2.1417695e-06,2.1548728e-06,8.886904e-08,0.0,0.0,0.0,0.0,0.0,0.0,0.0,0.0,131731,2.1205595,0.29769632,0.05555544,0.0,2.2825561e-06,0.012001637,0.0,0.0,0.0,0.023293,0,0,0,165,24,0,0,0
13684500,0.9009922,-0.0400598,0.030554146,0.43090004,0.0026751445,-0.0021441802,0.0068686423,0.002615539,-0.0022159684,0.061287574,-4.2980373e-05,5.56081e-06,1.4576013e-06,-4.8322694e-05,-2.2945522e-05,0.00051018724,0.08266441,0.00091362605,0.39364046,0.0,0.0,0.0,0.0,0.0,2.724929e-10,8.422802e-06,0.001109774,6.0305807e-05,0.00042449843,0.0004265132,0.0002613475,0.4843923,0.4843938,0.021969117,2.2283416,2.2283425,0.087905526,6.4448105e-09,6.464619e-09,7.123331e-09,2.1395315e-06,2.152644e-06,8.4770555e-08,0.0,0.0,0.0,0.0,0.0,0.0,0.0,0.0,131731,2.111086,0.29648867,0.024133472,0.0,2.6299692e-06,0.004598292,0.0,0.0,0.0,0.023293,0,0,0,165,24,0,0,0
13884489,0.9012452,-0.038987502,0.031118149,0.43042862,0.00090031396,-0.0017180397,0.009161737,0.0025226912,-0.002061217,0.067645706,-4.315701e-05,5.492784e-06,3.3154101e-06,-4.8009908e-05,-2.2863383e-05,0.0005082891,0.08266441,0.00091362605,0.39364046,0.0,0.0,0.0,0.0,0.0,2.2526514e-10,8.493435e-06,0.0012651845,5.9723974e-05,0.00044812998,0.00045018032,0.00026070108,0.4785856,0.47858518,0.02076292,2.1641366,2.1641371,0.0854282,6.37794e-09,6.3999916e-09,6.673535e-09,2.1379783e-06,2.151104e-06,8.0741756e-08,0.0,0.0,0.0,0.0,0.0,0.0,0.0,0.0,131731,2.0804503,0.29228103,0.07824024,0.0,2.5474633e-06,0.0033012696,0.0,0.0,0.0,0.023293,0,0,0,165,24,0,0,0
14091671,0.9003926,-0.038680583,0.031240351,0.43222824,0.0021335736,-0.0025266889,0.012318835,0.002414784,-0.0020464642,0.074590296,-4.251919e-05,5.813982e-06,-3.8866597e-06,-4.7376223e-05,-2.2641087e-05,0.0005044326,0.08266441,0.00091362605,0.39364046,0.0,0.0,0.0,0.0,0.0,2.7127145e-10,8.2897295e-06,0.0009516222,5.7801757e-05,0.00047446488,0.00047659053,0.0002537275,0.4843824,0.48438406,0.0197336,2.121747,2.121748,0.08369729,6.3041226e-09,6.328754e-09,6.1413443e-09,2.1371698e-06,2.1503104e-06,7.724036e-08,0.0,0.0,0.0,0.0,0.0,0.0,0.0,0.0,131731,2.0599744,0.28930485,0.087344855,0.0,2.4525207e-06,0.014491353,0.0,0.0,0.0,0.023293,0,0,0,165,24,0,0,0
14290865,0.9003372,-0.039493874,0.030781873,0.43230277,0.0016303565,-0.0022220018,0.0073524634,0.002411094,-0.0021996198,0.06652852,-4.2538966e-05,5.8058163e-06,-3.7136633e-06,-4.783683e-05,-2.2988985e-05,0.0005089525,0.08266441,0.00091362605,0.39364046,0.0,0.0,0.0,0.0,0.0,2.1654632e-10,8.2480365e-06,0.0009793031,5.7326462e-05,0.00050139305,0.00050367886,0.00025261738,0.5023102,0.50231224,0.018992873,2.113676,2.1136768,0.083158515,6.231019e-09,6.2573693e-09,5.758103e-09,2.1368708e-06,2.1500239e-06,7.449317e-08,0.0,0.0,0.0,0.0,0.0,0.0,0.0,0.0,131731,2.0560527,0.2883722,0.00088971993,0.0,2.414125e-06,0.011964025,0.0,0.0,0.0,0.023293,0,0,0,165,24,0,0,0
14498083,0.90064967,-0.03894395,0.031059036,0.43168154,-0.0001962956,-0.0009155296,0.0036914966,0.0020772172,-0.0020022413,0.058268595,-4.27652e-05,5.707492e-06,-1.2610495e-06,-4.823966e-05,-2.3334851e-05,0.0005135501,0.08266441,0.00091362605,0.39364046,0.0,0.0,0.0,0.0,0.0,1.7311691e-10,8.256087e-06,0.0013593113,5.6185985e-05,0.0005284417,0.0005308047,0.00024879517,0.52275527,0.52275515,0.018082188,2.0800095,2.0800111,0.08142754,6.1369745e-09,6.1650187e-09,5.348638e-09,2.1367653e-06,2.1499316e-06,7.175152e-08,0.0,0.0,0.0,0.0,0.0,0.0,0.0,0.0,131731,2.039613,0.28535512,0.021646598,0.0,2.1101064e-06,0.017108316,0.0,0.0,0.0,0.023293,0,0,0,165,24,0,0,0
14698086,0.9007038,-0.038684912,0.031170273,0.43158388,0.0006277408,-0.0021245128,0.0030288273,0.0017310083,-0.001990734,0.058177844,-4.2814725e-05,5.6855224e-06,-7.9046157e-07,-4.833019e-05,-2.3363771e-05,0.0005140529,0.08266441,0.00091362605,0.39364046,0.0,0.0,0.0,0.0,0.0,2.3394245e-10,7.935168e-06,0.0009784817,5.560733e-05,0.0005551965,0.0005576478,0.0002472133,0.5541003,0.5541014,0.017426416,2.08223,2.0822318,0.08086918,6.040885e-09,6.0700533e-09,5.0156097e-09,2.1366682e-06,2.1498438e-06,6.958893e-08,0.0,0.0,0.0,0.0,0.0,0.0,0.0,0.0,131731,2.0407014,0.28437507,0.06680924,0.0,1.9941426e-06,0.004258021,0.0,0.0,0.0,0.023293,0,0,0,165,24,0,0,0
14905265,0.90044254,-0.039599884,0.030681526,0.43208095,0.00017727926,-0.001888666,0.008839745,0.0016043163,-0.0020315486,0.07314851,-4.270931e-05,5.7507505e-06,-2.124335e-06,-4.7639984e-05,-2.2881773e-05,0.0005082996,0.08266441,0.00091362605,0.39364046,0.0,0.0,0.0,0.0,0.0,1.9960394e-10,8.108189e-06,0.0010674243,5.451282e-05,0.0005806266,0.0005832429,0.00024302186,0.58790475,0.587907,0.016623935,2.0633767,2.0633779,0.07923852,5.9161733e-09,5.9463656e-09,4.662435e-09,2.1363132e-06,2.1494966e-06,6.742249e-08,0.0,0.0,0.0,0.0,0.0,0.0,0.0,0.0,131731,2.0314415,0.28149337,0.020589512,0.0,2.0541756e-06,0.031417813,0.0,0.0,0.0,0.023293,0,0,0,165,24,0,0,0
15105281,0.90035737,-0.039104734,0.030919172,0.43228653,-0.0018469562,-0.001203436,0.0034062732,0.0011334541,-0.0020142845,0.06101663,-4.2638647e-05,5.7867137e-06,-2.929132e-06,-4.8108624e-05,-2.3275375e-05,0.00051289034,0.08266441,0.00091362605,0.39364046,0.0,0.0,0.0,0.0,0.0,1.6388996e-10,8.032145e-06,0.0008678804,5.389117e-05,0.000605044,0.00060773286,0.00024113632,0.6307874,0.6307881,0.01605032,2.0800126,2.0800138,0.0786984,5.7893845e-09,5.8201772e-09,4.375884e-09,2.135581e-06,2.1487665e-06,6.570854e-08,0.0,0.0,0.0,0.0,0.0,0.0,0.0,0.0,131731,2.0396142,0.28053233,0.051210225,0.0,2.0253942e-06,0.013108436,0.0,0.0,0.0,0.023293,0,0,0,165,24,0,0,0
15312477,0.900458,-0.038552508,0.031182026,0.43210742,-0.0011954323,-0.002083721,0.00025850465,0.0006085452,-0.0020115261,0.052050438,-4.2701104e-05,5.7588604e-06,-2.267434e-06,-4.8522732e-05,-2.3570587e-05,0.00051650434,0.08266441,0.00091362605,0.39364046,0.0,0.0,0.0,0.0,0.0,2.7812733e-10,8.406278e-06,0.0007160408,5.2771724e-05,0.0006266195,0.00062935456,0.00023684805,0.67441183,0.67441255,0.015352353,2.0772452,2.0772467,0.0771499,5.6276543e-09,5.658722e-09,4.0727053e-09,2.134075e-06,2.1472572e-06,6.3988935e-08,0.0,0.0,0.0,0.0,0.0,0.0,0.0,0.0,131731,2.0382571,0.27775872,0.06998986,0.0,2.018577e-06,0.021948379,0.0,0.0,0.0,0.023293,0,0,0,165,24,0,0,0
15515692,0.900781,-0.039506156,0.030697478,0.43138233,-0.00022935319,-0.0020152044,0.002866767,0.00048270676,-0.0020048595,0.058623813,-4.298216e-05,5.641361e-06,7.5269406e-07,-4.83598e-05,-2.343192e-05,0.00051578175,0.08266441,0.00091362605,0.39364046,0.0,0.0,0.0,0.0,0.0,2.3571925e-10,8.780055e-06,0.0012420327,5.1572024e-05,0.00064315775,0.0006460284,0.00023178387,0.7164339,0.7164365,0.014661591,2.0685635,2.0685647,0.07526343,5.443192e-09,5.474202e-09,3.7936725e-09,2.1316114e-06,2.1447822e-06,6.2452635e-08,0.0,0.0,0.0,0.0,0.0,0.0,0.0,0.0,131731,2.033993,0.27434182,0.018537631,0.0,2.02811e-06,0.012744592,0.0,0.0,0.0,0.023293,0,0,0,165,24,0,0,0
15715713,0.89965314,-0.03938292,0.03073124,0.43373838,-0.0021962228,-0.00019564453,0.0019148411,2.3813234e-05,-0.0020708763,0.056402385,-4.228843e-05,5.963443e-06,-7.027821e-06,-4.819181e-05,-2.3251356e-05,0.000512814,0.08266441,0.00091362605,0.39364046,0.0,0.0,0.0,0.0,0.0,2.0525724e-10,8.452444e-06,0.0011063891,5.0977837e-05,0.0006595073,0.0006624397,0.000229695,0.77217984,0.7721837,0.0142202815,2.1176126,2.117614,0.07503705,5.2601865e-09,5.2908504e-09,3.568194e-09,2.1284663e-06,2.1416208e-06,6.122195e-08,0.0,0.0,0.0,0.0,0.0,0.0,0.0,0.0,131731,2.0579667,0.2739289,0.13430105,0.0,2.0922882e-06,0.004433472,0.0,0.0,0.0,0.023293,0,0,0,165,24,0,0,0
15914871,0.8993172,-0.03843353,0.031160412,0.43448895,-0.0014329582,-0.00074060884,-0.00045133554,-0.0002789605,-0.001716332,0.05290979,-4.209258e-05,6.0744806e-06,-9.238755e-06,-4.801664e-05,-2.3287332e-05,0.0005128107,0.08266441,0.00091362605,0.39364046,0.0,0.0,0.0,0.0,0.0,2.6203303e-10,8.910475e-06,0.0012669375,5.036036e-05,0.00066856993,0.00067147054,0.0002274032,0.81607395,0.8160791,0.013624506,2.1240551,2.1240568,0.07331285,5.0352478e-09,5.064986e-09,3.3565735e-09,2.1237713e-06,2.136899e-06,5.99782e-08,0.0,0.0,0.0,0.0,0.0,0.0,0.0,0.0,131731,2.0610948,0.27076346,0.08448709,0.0,1.7422661e-06,0.021852003,0.0,0.0,0.0,0.023293,0,0,0,165,24,0,0,0
16118104,0.8993688,-0.039115213,0.030765641,0.4343492,0.0001827369,-0.000757372,0.00029917702,-0.00033067918,-0.0015735116,0.05847363,-4.2199143e-05,6.034605e-06,-8.120028e-06,-4.785637e-05,-2.313777e-05,0.0005118036,0.08266441,0.00091362605,0.39364046,0.0,0.0,0.0,0.0,0.0,2.8222907e-10,9.971701e-06,0.0017965428,4.923077e-05,0.00067702413,0.0006800029,0.00022232228,0.86873335,0.86874354,0.013229469,2.1790745,2.1790767,0.072924405,4.815671e-09,4.8445976e-09,3.1334408e-09,2.118402e-06,2.1314984e-06,5.8955653e-08,0.0,0.0,0.0,0.0,0.0,0.0,0.0,0.0,131731,2.0876186,0.2700452,0.036021885,0.0,1.5827162e-06,0.0043106684,0.0,0.0,0.0,0.023293,0,0,0,165,24,0,0,0
16325281,0.89908785,-0.039397463,0.030577598,0.43491837,-0.0010068549,0.00025042117,-0.0052365335,-0.0003788315,-0.0013843185,0.044172946,-4.2069256e-05,6.0983807e-06,-9.520724e-06,-4.8213704e-05,-2.3522243e-05,0.0005150187,0.08266441,0.00091362605,0.39364046,0.0,0.0,0.0,0.0,0.0,2.1230764e-10,9.228647e-06,0.001529378,4.825098e-05,0.00067803735,0.00068104424,0.00021801348,0.915856,0.9158656,0.012750153,2.218461,2.218464,0.07185415,4.551668e-09,4.579295e-09,2.9276561e-09,2.1110548e-06,2.1241053e-06,5.7907762e-08,0.0,0.0,0.0,0.0,0.0,0.0,0.0,0.0,131731,2.106401,0.26805624,0.03326567,0.0,1.4043593e-06,0.0056601223,0.0,0.0,0.0,0.023293,0,0,0,165,24,0,0,0
16525268,0.8995833,-0.038572203,0.031004429,0.43393648,0.0007469569,0.00021282416,-0.008595599,-0.00035714856,-0.0010793501,0.032864682,-4.2353815e-05,5.9670247e-06,-6.320401e-06,-4.8696507e-05,-2.392421e-05,0.0005196127,0.08266441,0.00091362605,0.39364046,0.0,0.0,0.0,0.0,0.0,2.339583e-10,9.227664e-06,0.0014261372,4.714094e-05,0.0006773262,0.0006802742,0.00021331762,0.9618383,0.96185255,0.012400704,2.2822027,2.2822084,0.071483016,4.302638e-09,4.3289496e-09,2.7390479e-09,2.1033243e-06,2.116328e-06,5.7042463e-08,0.0,0.0,0.0,0.0,0.0,0.0,0.0,0.0,131731,2.1364481,0.26736307,0.04693719,0.0,1.1205328e-06,0.023846485,0.0,0.0,0.0,0.023293,0,0,0,165,24,0,0,0
16732465,0.8988219,-0.039222285,0.030650407,0.4354786,0.003074532,0.0009945969,-0.005316529,0.00015792694,-0.00067913625,0.042293023,-4.20031e-05,6.153139e-06,-1.0316099e-05,-4.7896294e-05,-2.3426946e-05,0.00051425194,0.08266441,0.00091362605,0.39364046,0.0,0.0,0.0,0.0,0.0,2.2058289e-10,8.855913e-06,0.0011175886,4.672756e-05,0.0006678446,0.00067079556,0.00021147096,0.99431324,0.9943337,0.011960137,2.3154953,2.3155034,0.07028295,4.0111883e-09,4.0355452e-09,2.5842084e-09,2.0933842e-06,2.1063279e-06,5.615461e-08,0.0,0.0,0.0,0.0,0.0,0.0,0.0,0.0,131731,2.1519756,0.26510933,0.045049004,0.0,6.9810403e-07,0.005848788,0.0,0.0,0.0,0.023293,0,0,0,165,24,0,0,0
16931665,0.8983406,-0.03916304,0.030639635,0.4364764,0.0016828672,0.0031680462,-0.007023988,0.0005110386,-0.00021189981,0.036472227,-4.178172e-05,6.257681e-06,-1.27926805e-05,-4.786468e-05,-2.3442575e-05,0.00051371334,0.08266441,0.00091362605,0.39364046,0.0,0.0,0.0,0.0,0.0,1.9507475e-10,8.5283045e-06,0.0016598771,4.6177127e-05,0.000652187,0.00065507204,0.0002090416,1.0121317,1.0121506,0.011515588,2.3251576,2.3251686,0.0687277,3.714551e-09,3.736859e-09,2.439993e-09,2.0823957e-06,2.0952702e-06,5.5336407e-08,0.0,0.0,0.0,0.0,0.0,0.0,0.0,0.0,131731,2.1564615,0.26215968,0.010549161,0.0,5.2148425e-07,0.014968298,0.0,0.0,0.0,0.023293,0,0,0,165,24,0,0,0
17139664,0.8987087,-0.03817853,0.031213908,0.43576452,0.0017575708,0.0036352125,-0.011215344,0.0006134718,0.00035926455,0.022357905,-4.1985648e-05,6.144402e-06,-1.0482763e-05,-4.8593345e-05,-2.3878963e-05,0.0005182584,0.08266441,0.00091362605,0.39364046,0.0,0.0,0.0,0.0,0.0,2.417889e-10,8.703157e-06,0.001368251,4.5234392e-05,0.0006403156,0.00064308534,0.00020489813,1.0462106,1.0462273,0.011264314,2.409945,2.4099603,0.06878976,3.4514405e-09,3.4720342e-09,2.2872255e-09,2.0719717e-06,2.0847847e-06,5.4649345e-08,0.0,0.0,0.0,0.0,0.0,0.0,0.0,0.0,131731,2.1954284,0.26227802,0.03310115,0.0,6.130164e-07,0.016378025,0.0,0.0,0.0,0.023293,0,0,0,165,24,0,0,0
17338871,0.8991274,-0.03898311,0.030846063,0.4348551,0.0032515882,0.0037095868,-0.009781153,0.0009078167,0.0008850445,0.026413549,-4.2267402e-05,6.0003945e-06,-7.382996e-06,-4.8816702e-05,-2.382591e-05,0.0005190857,0.08266441,0.00091362605,0.39364046,0.0,0.0,0.0,0.0,0.0,2.876641e-10,8.538675e-06,0.0012673863,4.4698638e-05,0.00061782013,0.0006205472,0.00020238942,1.0507748,1.0507927,0.010877485,2.4176035,2.4176195,0.067402095,3.1616432e-09,3.180084e-09,2.16225e-09,2.059769e-06,2.0725092e-06,5.394802e-08,0.0,0.0,0.0,0.0,0.0,0.0,0.0,0.0,131731,2.198914,0.25961915,0.11309362,0.0,9.016922e-07,0.028762825,0.0,0.0,0.0,0.023293,0,0,0,165,24,0,0,0
17545309,0.8991473,-0.039598573,0.030565148,0.43477792,0.0014020645,0.0049173054,-0.014198804,0.0011758399,0.0014363676,0.012790916,-4.231836e-05,5.964467e-06,-6.771934e-06,-4.9242488e-05,-2.4162082e-05,0.0005220242,0.08266441,0.00091362605,0.39364046,0.0,0.0,0.0,0.0,0.0,1.989253e-10,7.894947e-06,0.001481363,4.3802214e-05,0.0005936213,0.00059629086,0.00019828718,1.0525184,1.0525306,0.010539348,2.4376695,2.437686,0.066374764,2.8790133e-09,2.8954632e-09,2.0297708e-09,2.0471548e-06,2.0598186e-06,5.3286684e-08,0.0,0.0,0.0,0.0,0.0,0.0,0.0,0.0,131731,2.2080207,0.257633,0.038162656,0.0,1.4610654e-06,0.008227083,0.0,0.0,0.0,0.023293,0,0,0,165,24,0,0,0
17746082,0.8985859,-0.03898648,0.030847182,0.43597248,0.00079152756,0.0061177905,-0.014415022,0.001093586,0.0021582018,0.013168592,-4.2054042e-05,6.0808397e-06,-9.722986e-06,-4.89795e-05,-2.3928953e-05,0.0005189652,0.08266441,0.00091362605,0.39364046,0.0,0.0,0.0,0.0,0.0,1.5369464e-10,8.003107e-06,0.001105721,4.2809283e-05,0.00057222025,0.0005747635,0.00019390877,1.0585306,1.0585428,0.010305975,2.4893682,2.4893844,0.06611344,2.6365052e-09,2.6512854e-09,1.9078037e-09,2.0357725e-06,2.0483658e-06,5.272973e-08,0.0,0.0,0.0,0.0,0.0,0.0,0.0,0.0,131731,2.2313118,0.25712535,0.0114263715,0.0,2.1435915e-06,0.008274625,0.0,0.0,0.0,0.023293,0,0,0,165,24,0,0,0
17949321,0.89845157,-0.038688652,0.031024685,0.4362631,0.0010788839,0.0050002416,-0.010138303,0.0010085608,0.0028167148,0.020302147,-4.2018073e-05,6.0894135e-06,-1.0128272e-05,-4.87427e-05,-2.366961e-05,0.0005166814,0.08266441,0.00091362605,0.39364046,0.0,0.0,0.0,0.0,0.0,1.791191e-10,7.855991e-06,0.0009408538,4.2283016e-05,0.000549279,0.0005517073,0.00019157633,1.0585006,1.0585084,0.010085658,2.537449,2.5374641,0.06588002,2.405456e-09,2.4185176e-09,1.8081466e-09,2.0244358e-06,2.036962e-06,5.2216343e-08,0.0,0.0,0.0,0.0,0.0,0.0,0.0,0.0,131731,2.2527568,0.25667104,0.11979397,0.0,2.8138043e-06,0.00897743,0.0,0.0,0.0,0.023293,0,0,0,165,24,0,0,0
18148472,0.89877135,-0.039002027,0.030917533,0.43558362,0.0005995628,0.0056494283,-0.0024174599,0.00095844036,0.00324164,0.03730469,-4.2225438e-05,5.9767567e-06,-7.83539e-06,-4.8623115e-05,-2.333148e-05,0.00051502313,0.08266441,0.00091362605,0.39364046,0.0,0.0,0.0,0.0,0.0,1.5132744e-10,7.946324e-06,0.0009103393,4.137472e-05,0.0005195947,0.0005219168,0.00018736131,1.0365736,1.0365776,0.009782901,2.525658,2.525671,0.0647336,2.162788e-09,2.1740543e-09,1.7024533e-09,2.012011e-06,2.0244636e-06,5.167853e-08,0.0,0.0,0.0,0.0,0.0,0.0,0.0,0.0,131731,2.2475162,0.254428,0.05058511,0.0,3.211782e-06,0.027670618,0.0,0.0,0.0,0.023293,0,0,0,165,24,0,0,0
18356465,0.8990566,-0.038615704,0.031125449,0.43501404,-0.0013614874,0.0058392277,0.0031629633,0.00067815365,0.0037379642,0.055082913,-4.2389518e-05,5.882589e-06,-5.999022e-06,-4.8507696e-05,-2.3017303e-05,0.0005132721,0.08266441,0.00091362605,0.39364046,0.0,0.0,0.0,0.0,0.0,1.3294801e-10,7.998533e-06,0.0006647418,4.0952626e-05,0.0004913411,0.00049352605,0.00018555284,1.0136223,1.0136186,0.009515799,2.5215988,2.5216103,0.063822195,1.9406323e-09,1.9501918e-09,1.6159873e-09,2.0001403e-06,2.0125226e-06,5.1190888e-08,0.0,0.0,0.0,0.0,0.0,0.0,0.0,0.0,131731,2.245709,0.25263056,0.084417835,0.0,3.7092382e-06,0.030132076,0.0,0.0,0.0,0.023293,0,0,0,165,24,0,0,0
18555666,0.89924455,-0.03849951,0.031212557,0.43462938,0.00046177313,0.0045909104,0.0035863908,0.00039495787,0.003884658,0.055358347,-4.248308e-05,5.816062e-06,-4.8595825e-06,-4.8811093e-05,-2.3153223e-05,0.0005143742,0.08266441,0.00091362605,0.39364046,0.0,0.0,0.0,0.0,0.0,2.9197217e-10,8.6234395e-06,0.0006442801,4.0060062e-05,0.00046298158,0.0004650388,0.0001815543,0.9828347,0.982833,0.0092457095,2.4947467,2.4947548,0.06268951,1.7384476e-09,1.7465224e-09,1.5241632e-09,1.9889023e-06,2.0012178e-06,5.0733046e-08,0.0,0.0,0.0,0.0,0.0,0.0,0.0,0.0,131731,2.233719,0.25037873,0.0661514,0.0,3.8917487e-06,0.04288201,0.0,0.0,0.0,0.023293,0,0,0,165,24,0,0,0
18763712,0.89965457,-0.039793253,0.030565342,0.4337097,0.0017664258,0.0034678287,0.005394953,0.00058415567,0.0037902698,0.06276468,-4.271912e-05,5.6849462e-06,-2.1567778e-06,-4.9078546e-05,-2.3221492e-05,0.0005157806,0.08266441,0.00091362605,0.39364046,0.0,0.0,0.0,0.0,0.0,2.7545327e-10,8.6716755e-06,0.00047873618,3.9310962e-05,0.0004363891,0.00043840145,0.00017804516,0.9543607,0.95435894,0.009014675,2.4833927,2.483399,0.06188898,1.5552079e-09,1.5619706e-09,1.438881e-09,1.9783247e-06,1.990576e-06,5.0308355e-08,0.0,0.0,0.0,0.0,0.0,0.0,0.0,0.0,131731,2.22863,0.24877496,0.070280984,0.0,3.8426783e-06,0.0047373953,0.0,0.0,0.0,0.023293,0,0,0,165,24,0,0,0
18962865,0.9002632,-0.03957917,0.030709423,0.4324542,6.40307e-05,0.00459388,0.0057094744,0.00088999193,0.0040219515,0.06354443,-4.299619e-05,5.544325e-06,1.0049779e-06,-4.9318594e-05,-2.34838e-05,0.0005189764,0.08266441,0.00091362605,0.39364046,0.0,0.0,0.0,0.0,0.0,2.914468e-10,8.748903e-06,0.00048652905,3.8485334e-05,0.00041486206,0.00041677954,0.0001744205,0.9364746,0.93647075,0.008865089,2.5103889,2.5103931,0.06179506,1.4068675e-09,1.412638e-09,1.3604364e-09,1.9694612e-06,1.9816596e-06,5.000007e-08,0.0,0.0,0.0,0.0,0.0,0.0,0.0,0.0,131731,2.2407103,0.24858612,0.16012725,0.0,3.9877327e-06,0.012234431,0.0,0.0,0.0,0.023293,0,0,0,165,24,0,0,0
19166084,0.9001723,-0.038271986,0.03139378,0.4327119,0.0013887152,0.0037788884,0.0018876705,0.0007360983,0.0039210604,0.056545734,-4.2916177e-05,5.5636356e-06,2.1045615e-07,-4.9547176e-05,-2.3658664e-05,0.0005194375,0.08266441,0.00091362605,0.39364046,0.0,0.0,0.0,0.0,0.0,3.0176373e-10,9.154297e-06,0.00120737,3.7996186e-05,0.0003898021,0.00039155182,0.00017253413,0.89957434,0.8995719,0.008637442,2.470201,2.4702036,0.060756903,1.2567075e-09,1.2613529e-09,1.2960264e-09,1.9601812e-06,1.972325e-06,5e-08,0.0,0.0,0.0,0.0,0.0,0.0,0.0,0.0,131731,2.2227023,0.24648915,0.019319877,0.0,3.97027e-06,0.00014991037,0.0,0.0,0.0,0.023293,0,0,0,165,24,0,0,0
19365290,0.9004607,-0.039112926,0.030972518,0.4320667,0.0031880024,0.0022163899,-0.002364277,0.0010957404,0.0035417227,0.042301875,-4.3054206e-05,5.4768725e-06,1.8446239e-06,-5.026934e-05,-2.4133487e-05,0.0005233924,0.08266441,0.00091362605,0.39364046,0.0,0.0,0.0,0.0,0.0,3.318479e-10,8.865602e-06,0.0010092304,3.723774e-05,0.000369929,0.00037162963,0.00016908211,0.8794501,0.87944895,0.008513969,2.4947662,2.494768,0.06078264,1.1349637e-09,1.138792e-09,1.2275562e-09,1.9524073e-06,1.9645063e-06,5.000004e-08,0.0,0.0,0.0,0.0,0.0,0.0,0.0,0.0,131731,2.2337265,0.24654135,0.068309024,0.0,3.5631172e-06,0.0058436743,0.0,0.0,0.0,0.023293,0,0,0,165,24,0,0,0
19565284,0.9002801,-0.03978751,0.030707315,0.4324001,0.0015523128,0.003147727,0.002059083,0.0012690374,0.003483768,0.05820681,-4.3005173e-05,5.490483e-06,1.2990706e-06,-4.9951697e-05,-2.377702e-05,0.0005203544,0.08266441,0.00091362605,0.39364046,0.0,0.0,0.0,0.0,0.0,2.5650682e-10,8.974244e-06,0.0010181419,3.649922e-05,0.00035096312,0.00035261334,0.00016577396,0.8552585,0.85525626,0.008384561,2.5041058,2.5041065,0.06065238,1.0247666e-09,1.0278823e-09,1.1637576e-09,1.9451559e-06,1.9572117e-06,5e-08,0.0,0.0,0.0,0.0,0.0,0.0,0.0,0.0,131731,2.2379036,0.24627703,0.12638848,0.0,3.552046e-06,0.021202795,0.0,0.0,0.0,0.023293,0,0,0,165,24,0,0,0
19764465,0.9006574,-0.03898047,0.03110222,0.43165883,0.0011887266,0.0036589415,0.0040450334,0.0012267977,0.0034452253,0.06310354,-4.3150794e-05,5.4082243e-06,2.9551259e-06,-5.014465e-05,-2.3847522e-05,0.00052158313,0.08266441,0.00091362605,0.39364046,0.0,0.0,0.0,0.0,0.0,1.983496e-10,8.406066e-06,0.0008541587,3.6068224e-05,0.00032934878,0.00033087513,0.00016405027,0.8150567,0.8150551,0.008185103,2.449751,2.4497514,0.059646137,9.13759e-10,9.1607766e-10,1.1113209e-09,1.9376128e-06,1.9496233e-06,5e-08,0.0,0.0,0.0,0.0,0.0,0.0,0.0,0.0,131731,2.213482,0.24422559,0.022408787,0.0,3.5140392e-06,0.030327054,0.0,0.0,0.0,0.023293,0,0,0,165,24,0,0,0
19971672,0.9007148,-0.03856949,0.03137273,0.43155643,0.0010384576,0.0024595188,0.005381517,0.0011794447,0.0034364313,0.07056283,-4.3164873e-05,5.391344e-06,3.1349928e-06,-5.011306e-05,-2.3756094e-05,0.00052086636,0.08266441,0.00091362605,0.39364046,0.0,0.0,0.0,0.0,0.0,1.8267443e-10,8.04448e-06,0.0009481474,3.5414356e-05,0.0003131331,0.00031457096,0.00016126511,0.7937663,0.79376364,0.008092358,2.4710674,2.471068,0.059800953,8.2552903e-10,8.272941e-10,1.0552171e-09,1.931437e-06,1.9434133e-06,5e-08,0.0,0.0,0.0,0.0,0.0,0.0,0.0,0.0,131731,2.2230914,0.24454233,0.044822633,0.0,3.4584373e-06,0.0055053434,0.0,0.0,0.0,0.023293,0,0,0,165,24,0,0,0
20171673,0.9010443,-0.038653567,0.03138178,0.4308598,0.00045558717,0.0023439594,0.002845551,0.0010397908,0.003106941,0.06501518,-4.3294942e-05,5.3148724e-06,4.6333516e-06,-5.0594525e-05,-2.4032393e-05,0.00052348984,0.08266441,0.00091362605,0.39364046,0.0,0.0,0.0,0.0,0.0,2.0829753e-10,8.330159e-06,0.0006511302,3.5007364e-05,0.00029437657,0.0002957373,0.00015955234,0.75435084,0.7543483,0.007911647,2.410403,2.4104028,0.058798403,7.371997e-10,7.383515e-10,1.0088009e-09,1.925066e-06,1.9370086e-06,5.0000036e-08,0.0,0.0,0.0,0.0,0.0,0.0,0.0,0.0,131731,2.1956332,0.24248382,0.13729726,0.0,3.1125608e-06,0.016335772,0.0,0.0,0.0,0.023293,0,0,0,165,24,0,0,0
20378911,0.9009496,-0.03900094,0.03121325,0.43103883,-0.00041780522,0.0012194394,0.0027388067,0.000848264,0.0028221274,0.06449954,-4.3259297e-05,5.3226418e-06,4.2705565e-06,-5.064195e-05,-2.4046329e-05,0.0005231836,0.08266441,0.00091362605,0.39364046,0.0,0.0,0.0,0.0,0.0,1.7807948e-10,8.496668e-06,0.0012927266,3.4394292e-05,0.00027772915,0.0002790299,0.00015687034,0.7209892,0.72098476,0.007767654,2.372878,2.3728764,0.05815119,6.597015e-10,6.603717e-10,9.592304e-10,1.9193135e-06,1.9312254e-06,5e-08,0.0,0.0,0.0,0.0,0.0,0.0,0.0,0.0,131731,2.1784751,0.24114558,0.010017138,0.0,2.8668337e-06,0.013428231,0.0,0.0,0.0,0.023293,0,0,0,165,24,0,0,0
20578065,0.9004972,-0.03886087,0.031328786,0.43198738,-0.0013872865,0.001082484,-0.004927524,0.0005822282,0.0024660975,0.043166444,-4.306056e-05,5.409949e-06,2.1162891e-06,-5.0831066e-05,-2.4280069e-05,0.00052330067,0.08266441,0.00091362605,0.39364046,0.0,0.0,0.0,0.0,0.0,1.5874473e-10,8.3755185e-06,0.0010293359,3.3734243e-05,0.00026465708,0.00026589367,0.00015399679,0.69773775,0.69773036,0.007683041,2.370088,2.3700855,0.058064826,5.982187e-10,5.985522e-10,9.1290653e-10,1.9146228e-06,1.9265096e-06,5e-08,0.0,0.0,0.0,0.0,0.0,0.0,0.0,0.0,131731,2.1771939,0.24096644,0.17907968,0.0,2.489439e-06,0.028343698,0.0,0.0,0.0,0.023293,0,0,0,165,24,0,0,0
20786065,0.9004984,-0.037981503,0.031740766,0.43203303,-0.0017110173,0.00034415865,-0.0067885225,0.0002136618,0.0021379266,0.036917634,-4.303372e-05,5.416538e-06,1.8543224e-06,-5.0930248e-05,-2.4371688e-05,0.00052360987,0.08266441,0.00091362605,0.39364046,0.0,0.0,0.0,0.0,0.0,2.1452731e-10,8.381707e-06,0.0012925148,3.3405388e-05,0.00025037114,0.0002515145,0.00015272414,0.66561574,0.66560525,0.0075551486,2.3272738,2.3272705,0.0574102,5.3662985e-10,5.365717e-10,8.745078e-10,1.9097877e-06,1.9216498e-06,5e-08,0.0,0.0,0.0,0.0,0.0,0.0,0.0,0.0,131731,2.1574392,0.23960425,0.12120518,0.0,2.1553922e-06,0.010643612,0.0,0.0,0.0,0.023293,0,0,0,165,24,0,0,0
20985279,0.9007366,-0.038759355,0.03140246,0.43149185,-0.0003464067,-0.001336364,-0.005913494,-3.2788736e-05,0.0015696754,0.032554973,-4.314108e-05,5.3580657e-06,3.0778192e-06,-5.1312712e-05,-2.4550924e-05,0.00052554277,0.08266441,0.00091362605,0.39364046,0.0,0.0,0.0,0.0,0.0,3.3121256e-10,9.507826e-06,0.0015082757,3.3055494e-05,0.00023917864,0.0002402989,0.00015113955,0.6436422,0.64363086,0.0074862526,2.322408,2.322403,0.05735786,4.8784443e-10,4.875118e-10,8.382765e-10,1.9058563e-06,1.917698e-06,5.0000036e-08,0.0,0.0,0.0,0.0,0.0,0.0,0.0,0.0,131731,2.1551824,0.23949501,0.065287426,0.0,1.5936823e-06,0.0068203025,0.0,0.0,0.0,0.023293,0,0,0,165,24,0,0,0
21193279,0.900413,-0.039941836,0.030801287,0.4321023,-0.0028584243,-0.00069587777,-0.00743096,-0.00036374154,0.0009858758,0.030518822,-4.3041793e-05,5.4005995e-06,1.9943598e-06,-5.132615e-05,-2.4479281e-05,0.00052416214,0.08266441,0.00091362605,0.39364046,0.0,0.0,0.0,0.0,0.0,3.2550732e-10,9.104369e-06,0.0010780517,3.226767e-05,0.00022711258,0.00022821932,0.00014749405,0.614351,0.6143368,0.0073775016,2.2802188,2.2802124,0.05674921,4.3921625e-10,4.386654e-10,7.9465184e-10,1.9018428e-06,1.9136621e-06,5e-08,0.0,0.0,0.0,0.0,0.0,0.0,0.0,0.0,131731,2.1355166,0.23822093,0.023028966,0.0,1.0349258e-06,0.035560105,0.0,0.0,0.0,0.023293,0,0,0,165,24,0,0,0
21392488,0.90065086,-0.038250666,0.031656526,0.43169755,-0.004583182,-0.0003201489,-0.0030290666,-0.0011368741,0.00074859627,0.04487749,-4.3107804e-05,5.3671283e-06,2.735714e-06,-5.119787e-05,-2.4327892e-05,0.0005233238,0.08266441,0.00091362605,0.39364046,0.0,0.0,0.0,0.0,0.0,3.2717817e-10,9.129862e-06,0.0009023873,3.1673662e-05,0.00021595976,0.00021696363,0.00014497136,0.58437747,0.58436126,0.00726142,2.2241118,2.2241032,0.055926356,3.9640943e-10,3.9564937e-10,7.585371e-10,1.8982117e-06,1.9100112e-06,5e-08,0.0,0.0,0.0,0.0,0.0,0.0,0.0,0.0,131731,2.1090791,0.23648754,0.014714965,0.0,1.148698e-06,0.005581902,0.0,0.0,0.0,0.023293,0,0,0,165,24,0,0,0
21591665,0.90044385,-0.038605627,0.03144435,0.432113,-0.0010451047,-0.0032359362,-0.003556408,-0.0014170308,0.00035658997,0.0421071,-4.3031756e-05,5.4051075e-06,1.9179704e-06,-5.0994364e-05,-2.4304996e-05,0.0005224812,0.08266441,0.00091362605,0.39364046,0.0,0.0,0.0,0.0,0.0,3.658126e-10,1.0327078e-05,0.0014250343,3.1586616e-05,0.00020749583,0.00020847292,0.0001446708,0.5661654,0.56614953,0.0072194263,2.2211146,2.2211053,0.05594952,3.6262288e-10,3.6167716e-10,7.327119e-10,1.895269e-06,1.9070536e-06,5.000007e-08,0.0,0.0,0.0,0.0,0.0,0.0,0.0,0.0,131731,2.1076574,0.2365365,0.13500477,0.0,1.4149647e-06,0.011173572,0.0,0.0,0.0,0.023293,0,0,0,165,24,0,0,0
21791687,0.9007354,-0.03935934,0.031082274,0.43146333,-0.0030148083,-0.0023991961,-0.0038386034,-0.0014790731,-0.00022624257,0.039094623,-4.315546e-05,5.345864e-06,3.318984e-06,-5.1242525e-05,-2.4488512e-05,0.00052472134,0.08266441,0.00091362605,0.39364046,0.0,0.0,0.0,0.0,0.0,3.358293e-10,9.708223e-06,0.0009564696,3.104448e-05,0.0001981371,0.00019909702,0.0001421522,0.5395174,0.5394999,0.007122561,2.1691895,2.1691802,0.055203084,3.2874983e-10,3.276643e-10,7.0011275e-10,1.892253e-06,1.904022e-06,5e-08,0.0,0.0,0.0,0.0,0.0,0.0,0.0,0.0,131731,2.0828753,0.23495336,0.0004752479,0.0,1.4957742e-06,0.0023502507,0.0,0.0,0.0,0.023293,0,0,0,165,24,0,0,0
21998871,0.90113825,-0.03787466,0.031869538,0.43069687,-0.0028087331,-0.0031563998,-0.003161178,-0.00198876,-0.00069675053,0.03846481,-4.32724e-05,5.2894857e-06,4.638691e-06,-5.152349e-05,-2.4634312e-05,0.00052660116,0.08266441,0.00091362605,0.39364046,0.0,0.0,0.0,0.0,0.0,2.9705668e-10,8.919364e-06,0.0007573334,3.0535048e-05,0.00019115662,0.00019204074,0.00014000632,0.524975,0.52495855,0.007110538,2.1802182,2.1802063,0.05550042,3.0166133e-10,3.004901e-10,6.6942085e-10,1.889781e-06,1.901539e-06,5e-08,0.0,0.0,0.0,0.0,0.0,0.0,0.0,0.0,131731,2.088163,0.23558527,0.06980511,0.0,1.9877818e-06,0.019328298,0.0,0.0,0.0,0.023293,0,0,0,165,24,0,0,0
22202105,0.90109223,-0.038507637,0.031547934,0.43076077,-0.0002292652,-0.0050769253,-0.002967606,-0.0019066313,-0.0013614006,0.03691325,-4.32627e-05,5.2967252e-06,4.54779e-06,-5.1490722e-05,-2.4650499e-05,0.00052658166,0.08266441,0.00091362605,0.39364046,0.0,0.0,0.0,0.0,0.0,3.4707823e-10,1.0339584e-05,0.0022672485,3.0017702e-05,0.00018310429,0.00018396955,0.00013765955,0.50078195,0.5007672,0.0070303287,2.131351,2.1313376,0.054841947,2.7429212e-10,2.730201e-10,6.4053696e-10,1.8872204e-06,1.8989679e-06,5e-08,0.0,0.0,0.0,0.0,0.0,0.0,0.0,0.0,131731,2.064628,0.23418358,0.023150738,0.0,1.9237928e-06,0.02341266,0.0,0.0,0.0,0.023293,0,0,0,165,24,0,0,0
22402073,0.90138704,-0.039421197,0.031109732,0.43009278,-0.0019465864,-0.0040810695,-0.0022690438,-0.0017380493,-0.0019311131,0.03613482,-4.3379496e-05,5.2443756e-06,5.8534033e-06,-5.1595318e-05,-2.479381e-05,0.0005285924,0.08266441,0.00091362605,0.39364046,0.0,0.0,0.0,0.0,0.0,2.5408187e-10,9.256657e-06,0.0017991924,2.9738403e-05,0.00017696877,0.00017783373,0.00013640693,0.48560587,0.4855922,0.0070125647,2.1275465,2.1275322,0.05493526,2.5251343e-10,2.511693e-10,6.1675826e-10,1.8851331e-06,1.8968708e-06,5.0000075e-08,0.0,0.0,0.0,0.0,0.0,0.0,0.0,0.0,131731,2.0627842,0.23438272,0.015341588,0.0,1.8810262e-06,0.010568805,0.0,0.0,0.0,0.023293,0,0,0,165,24,0,0,0
