timestamp,accel_inconsistency_m_s_s,gyro_inconsistency_rad_s,mag_inconsistency_ga
3376546,0.29406765,0.02683401,0.1299335
3579416,0.30016285,0.03220238,0.13196503
3782499,0.30374494,0.028601468,0.12964147
3986473,0.3002005,0.024880294,0.12522696
4187071,0.299889,0.03239911,0.12601142
4388958,0.30929244,0.029530115,0.13078733
4593301,0.30219814,0.030266803,0.1290975
4796193,0.29857183,0.033001862,0.13060519
4995296,0.30249673,0.025777128,0.12927543
5200259,0.3005876,0.029692866,0.12668142
5402539,0.30088454,0.03165526,0.12825705
5606594,0.3051752,0.028258037,0.1290585
5810475,0.30397364,0.029997418,0.12710443
6012838,0.30472958,0.028948834,0.12967697
6213838,0.29956737,0.025829988,0.12771222
6418603,0.3069227,0.02943213,0.13015261
6620709,0.30354986,0.029017624,0.12975404
6822650,0.30508226,0.026267435,0.12858196
7022459,0.3033911,0.028326467,0.12958649
7226747,0.30077028,0.030157182,0.12985672
7429820,0.305055,0.030956764,0.12869771
7633373,0.30620286,0.029680783,0.1332034
7836098,0.30257753,0.031907782,0.13450857
8040209,0.29539177,0.028696526,0.12887748
8243429,0.30188912,0.027764523,0.12696198
8443606,0.2973476,0.027804568,0.12705581
8646222,0.30154288,0.030864498,0.12576614
8846642,0.3000187,0.027058,0.1268632
9049460,0.30113387,0.029264603,0.1303786
9253438,0.30604517,0.030907009,0.13038112
9456646,0.29800424,0.025351927,0.12506446
9659920,0.30091187,0.028528778,0.12635441
9863056,0.3044789,0.032189637,0.1269815
10067879,0.2960897,0.028727608,0.12723508
10270316,0.29543132,0.022203762,0.12664148
10470186,0.29988647,0.030233003,0.12718147
10674553,0.295625,0.030247828,0.12612006
10876626,0.29863337,0.022944001,0.13027635
11081848,0.3001856,0.030371305,0.13027951
11283775,0.307902,0.03115275,0.12850392
11486964,0.30859986,0.01990661,0.12920767
11691170,0.29832157,0.02617807,0.12235051
11894292,0.29666376,0.032373905,0.12925912
12097628,0.29048237,0.024929637,0.12689891
12297739,0.2921739,0.027720083,0.1318725
12500612,0.29393733,0.03205509,0.13096829
12704402,0.29800165,0.022524133,0.12737985
12906988,0.2992276,0.027817607,0.12881087
13111314,0.30160546,0.031686738,0.123613395
13314204,0.30485752,0.02381891,0.1240368
13517994,0.30526417,0.02481044,0.12680179
13721459,0.30796438,0.03155847,0.12769435
13921464,0.3085848,0.02853624,0.13036771
14124931,0.2984895,0.022982921,0.13074978
14327848,0.30312216,0.03013132,0.13285562
14531344,0.3046042,0.027329275,0.13353483
14734937,0.29926634,0.023915008,0.1273199
14938542,0.3027036,0.031897023,0.12480278
15141369,0.30521905,0.029805193,0.12572984
15345755,0.3049335,0.02061072,0.12567115
15548894,0.3042714,0.02910886,0.13029629
15749649,0.3009225,0.02883581,0.13415657
15951862,0.29187188,0.024380269,0.12859376
16155060,0.29853427,0.02938729,0.12858096
16358595,0.29516444,0.032187212,0.12648869
16562294,0.29524586,0.022627557,0.12852488
16765710,0.3013087,0.029966507,0.12985045
16968665,0.29443443,0.031445824,0.12688617
17172916,0.29173115,0.019913763,0.12762833
17372242,0.2941782,0.027733807,0.13414216
17575051,0.3013965,0.032102622,0.13336156
17775036,0.3008774,0.030169211,0.13020054
17978222,0.30174598,0.028878527,0.12631854
18182368,0.30297884,0.030754691,0.12454664
18385426,0.29607278,0.030162003,0.12554899
18589419,0.29392895,0.02079175,0.12629363
18789835,0.30362123,0.03018137,0.12883314
18991862,0.29200342,0.031427372,0.13117823
19191933,0.29632434,0.020475304,0.12825736
19394252,0.29927355,0.02733474,0.12704992
19594261,0.30068073,0.033020373,0.12482125
19797733,0.2962167,0.028795676,0.12671804
20000620,0.2954909,0.02845603,0.12600462
20200633,0.29930252,0.024774848,0.12903117
20404989,0.29422656,0.030667687,0.13268399
20607975,0.3028618,0.032019302,0.13226664
20812595,0.30273253,0.021244397,0.13013858
21014234,0.29894274,0.0230062,0.13267183
21219104,0.29683173,0.031246535,0.12413352
21420678,0.29185444,0.022146227,0.124447845
21625796,0.29608607,0.025979405,0.12433747
21824947,0.29916534,0.030160695,0.12555669
22027075,0.29685947,0.021846628,0.13058928
22228148,0.2985538,0.023512095,0.12625754
22430481,0.3028192,0.032503195,0.12761724
22634904,0.3002182,0.025106106,0.12739272
22837387,0.2945974,0.023518352,0.1275825
23041819,0.3002754,0.03003043,0.1267254
23244707,0.30071166,0.028064674,0.12802899
23447217,0.29718953,0.02313795,0.1260709
23651207,0.2941799,0.029244559,0.1277074
23851391,0.2950017,0.026955629,0.12726164
24054248,0.29619238,0.023941316,0.12756841
24257384,0.3064246,0.031336352,0.12948805
24461337,0.29931435,0.022836195,0.1271585
24664666,0.2983581,0.023323094,0.13031925
24869056,0.29945666,0.03162311,0.12733078
25071808,0.29555824,0.023399707,0.1274695
25275937,0.30098256,0.023173936,0.1267452
25476209,0.29735395,0.031127255,0.1276505
25679025,0.2939559,0.027526382,0.13588154
25881474,0.29653117,0.021209095,0.13019167
26086380,0.29884064,0.032172874,0.12777714
26288613,0.30230093,0.029195622,0.12593366
26492194,0.30124372,0.023022851,0.1279111
26693045,0.29724705,0.030040897,0.12851512
26895102,0.29868045,0.030173127,0.13003896
27701648,0.29645115,0.02134295,0.1277777
27901346,0.300653,0.029167825,0.1282968
28103846,0.296554,0.031617448,0.12376944
28308511,0.29553273,0.022806596,0.12830552
28511041,0.30110264,0.026461447,0.13083507
28715206,0.2958627,0.031680897,0.1287521
28917438,0.30035847,0.025117775,0.12872827
29121636,0.2982847,0.02373374,0.12789176
29325322,0.29683065,0.03294149,0.12516259
29525031,0.28853303,0.02524331,0.12678598
29727748,0.30333272,0.022848526,0.12951437
29931279,0.29848313,0.030681126,0.12686588
30134267,0.3037248,0.02799446,0.13069484
30339042,0.29515207,0.022646816,0.12978989
30541502,0.29948562,0.02961759,0.12896383
30741493,0.30136797,0.030430477,0.13442239
30945411,0.29300413,0.026388792,0.12426946
31147771,0.29474324,0.032440767,0.12683474
31351011,0.29074866,0.030823924,0.12633456
31551426,0.30097905,0.021782883,0.12771638
31754360,0.30255514,0.031217882,0.13125649
31959825,0.3007328,0.026659695,0.12807924
32161486,0.2962753,0.026572244,0.13017818
32365008,0.30130583,0.02963039,0.12818778
32567804,0.2992407,0.02593322,0.12828167
32772155,0.29914364,0.027886558,0.13301247
32975119,0.3009666,0.030582892,0.12569615
33174221,0.30179292,0.026351891,0.12410225
33379323,0.29935262,0.030490005,0.12889422
33581555,0.29722518,0.028565124,0.1275919
33784926,0.29585838,0.027422676,0.1257228
33988534,0.29948762,0.030984381,0.12721547
34191741,0.29756665,0.026183708,0.12650517
34395390,0.29620898,0.026635034,0.124108866
34595398,0.2983423,0.029348943,0.12496492
34798293,0.30016887,0.029729258,0.12838967
35001529,0.2991621,0.02869847,0.13361286
35201416,0.3036585,0.027015978,0.12749696
35405344,0.30989775,0.027989805,0.1307116
35607032,0.29511186,0.029774666,0.121857494
35807836,0.29518923,0.026256496,0.12637058
36011741,0.29549193,0.028410044,0.12740453
36214322,0.2968013,0.030620093,0.12713796
36418552,0.3006818,0.02823476,0.12796187
36622414,0.29165232,0.029111084,0.13168561
36824768,0.29960766,0.029974153,0.12726904
37024739,0.29171947,0.027657773,0.12792309
37228138,0.2980645,0.027758589,0.1259172
37430111,0.30334103,0.028966807,0.12781823
37631096,0.30069074,0.03158825,0.124919035
37835189,0.29897478,0.029493976,0.12804127
38038249,0.30911666,0.025659781,0.12907502
38238512,0.29977572,0.027502416,0.12973134
38440615,0.2985558,0.029055748,0.13085778
38644990,0.30290294,0.030906178,0.1274516
38847884,0.30202496,0.026732095,0.12809838
39051416,0.30312452,0.030637495,0.12377191
39254238,0.2941811,0.03143376,0.129575
40065394,0.2962873,0.031121012,0.12815069
40269166,0.29634234,0.02768301,0.12441689
40470247,0.29857486,0.026253765,0.12719527
40670955,0.3021027,0.029826125,0.12645282
40875094,0.29844594,0.02856658,0.12777714
41075132,0.3070799,0.028086025,0.12847182
41277438,0.2960594,0.027364084,0.1346328
41480637,0.30193803,0.028098937,0.1322665
41685015,0.30121344,0.028754225,0.12913255
41886143,0.2981919,0.029370835,0.1248387
42087365,0.2961718,0.029367534,0.1252875
42290290,0.29808488,0.029524624,0.12689312
42495086,0.296475,0.028425768,0.12558754
42697459,0.29405144,0.028184563,0.12917748
42896695,0.29461583,0.030184992,0.1308271
43100913,0.29970288,0.023061937,0.12898159
43300940,0.30078915,0.023744697,0.12900917
43503734,0.29449418,0.032755483,0.127858
43706952,0.2971501,0.026387373,0.12857112
43910946,0.30443674,0.026699197,0.12743896
44111562,0.3024875,0.031338602,0.12816676
44313353,0.29585782,0.029305037,0.12694484
44517357,0.29725128,0.028507562,0.13404822
44720635,0.3053541,0.03010641,0.13705797
44920672,0.29877815,0.025728824,0.13228379
45123791,0.2953817,0.028934933,0.12827231
45324230,0.29613295,0.0286712,0.12557614
45526281,0.2957484,0.025279485,0.12844922
45725418,0.29799438,0.02687785,0.1274153
45929827,0.30176064,0.031039124,0.13008119
46132632,0.29691893,0.027273322,0.13186571
46335755,0.29991335,0.024493903,0.12742719
46540556,0.30220717,0.030572448,0.13176605
46743142,0.29774937,0.02934607,0.12857269
46946800,0.2973472,0.026707543,0.12746248
47147157,0.30000767,0.028615966,0.13068584
47349535,0.29707325,0.029272752,0.13140407
47553218,0.30044803,0.028413571,0.12572807
47755145,0.29922727,0.030561049,0.13080831
47956431,0.2989215,0.030581448,0.13586757
48158992,0.30439928,0.025745222,0.12881114
48363735,0.30077463,0.02439033,0.12918006
48566990,0.30282968,0.0300408,0.12520844
48769520,0.29821375,0.032042492,0.124691635
48969541,0.29468864,0.02191908,0.12578563
49173150,0.30008426,0.029325075,0.12846985
49375100,0.30031016,0.03000706,0.12909675
49575782,0.29937863,0.021687038,0.13000868
49779895,0.29835787,0.03029723,0.13053711
49982200,0.2997432,0.028936913,0.12551357
50187203,0.29563716,0.025521502,0.12618072
50389445,0.29475808,0.028279578,0.12813173
50592966,0.30124095,0.031769022,0.12709953
50793024,0.2973679,0.022885414,0.12644896
50996576,0.2973673,0.027498966,0.13189805
51199149,0.29819593,0.029243119,0.13531306
51399173,0.29632625,0.027361982,0.12922257
51603176,0.29867047,0.024779366,0.129123
51805565,0.30029282,0.027775044,0.12423268
52009940,0.29511997,0.027105689,0.12648256
52212956,0.302845,0.029304251,0.12744217
52414981,0.29818892,0.028007446,0.1302157
52620548,0.2905049,0.026756013,0.1303229
52822970,0.29463395,0.02986612,0.12887132
53027140,0.29303104,0.026595702,0.13336393
53226988,0.30726862,0.02332063,0.1277724
54243560,0.29586574,0.030092537,0.13132107
54443809,0.28812256,0.026736375,0.13265519
54646213,0.29362243,0.026739927,0.13376547
54846216,0.296012,0.03229876,0.12846707
55050004,0.29413542,0.028109951,0.12744085
55253016,0.298172,0.025354497,0.1323449
55455034,0.29267085,0.028705532,0.13182573
55655784,0.2997604,0.030012766,0.13409862
55859535,0.29970443,0.026913125,0.13516763
56062206,0.30540216,0.030891648,0.12977225
56267823,0.29982272,0.028769944,0.13172895
56470497,0.29280376,0.023809817,0.13414481
56672677,0.29620293,0.029193094,0.13251041
56873448,0.29269215,0.026442472,0.12820786
57076800,0.2977692,0.025839519,0.13417266
57276583,0.29672158,0.030380782,0.13176043
57479022,0.30117586,0.02787245,0.13307293
57682943,0.3002671,0.027133696,0.13475852
57886912,0.30192485,0.03223238,0.1309352
58089532,0.29883972,0.02316998,0.13032058
58293557,0.294831,0.028042207,0.13098267
58494974,0.29888442,0.030829238,0.12662263
58700514,0.30083808,0.020770831,0.1327844
58902932,0.28944412,0.02743692,0.13712998
59107088,0.2976381,0.02893553,0.1331479
59306797,0.29247418,0.022184929,0.13338324
59509551,0.29160348,0.023929976,0.13417147
59713486,0.29128996,0.031288784,0.13061492
59916558,0.29661787,0.025885962,0.13042757
60120882,0.30148414,0.022952478,0.13256048
60322126,0.30181673,0.03134937,0.13317077
60522996,0.290451,0.027879838,0.13363741
60727094,0.29634127,0.024057606,0.13117938
60930309,0.29149267,0.028430244,0.13479568
61130248,0.2948576,0.030865893,0.13369258
61332653,0.29338866,0.027663872,0.13364811
61539125,0.29086962,0.029949034,0.13245113
61739937,0.29943573,0.028075535,0.13250618
62549491,0.29133454,0.02623261,0.13616608
62751727,0.29510412,0.029180055,0.13334212
62952623,0.3011908,0.029493509,0.13265094
63156367,0.2992765,0.029724827,0.13146596
63359935,0.29651695,0.026762487,0.13342942
63563987,0.30309328,0.02982121,0.13333541
63766167,0.29891363,0.029156229,0.13769655
63971212,0.29384723,0.02713092,0.13526401
64173364,0.30318815,0.026621029,0.13689134
64373423,0.30667874,0.030337017,0.1336298
64576582,0.30180523,0.027100883,0.13218679
64775751,0.3026687,0.024476796,0.13256267
64979872,0.30375293,0.030098472,0.13248757
65180156,0.30217326,0.028949149,0.13123576
65383240,0.293698,0.028159056,0.13642672
65585449,0.29813263,0.030007195,0.13124743
65790164,0.30292094,0.027400207,0.13423182
65992558,0.29353008,0.028916016,0.1275398
66196559,0.29444364,0.031276744,0.13363323
66398952,0.29815385,0.024974948,0.13246135
66603601,0.2976355,0.027785422,0.13258441
66803200,0.29375356,0.02962188,0.13037394
67005565,0.29739663,0.027073499,0.1339728
67205331,0.29391998,0.026510658,0.13842048
67409192,0.29534784,0.030638225,0.13260362
67612646,0.3008372,0.02958082,0.13055247
67815954,0.29602522,0.02455379,0.1309539
68020113,0.2986102,0.027615543,0.1294029
68223074,0.29981843,0.028129302,0.13007608
68426372,0.29368016,0.0276217,0.13141811
68630461,0.29781923,0.027946867,0.13554358
68832658,0.29978588,0.02554268,0.13335639
69032670,0.29314572,0.028187338,0.13328901
69236549,0.28729975,0.028939728,0.13315037
69438952,0.30276227,0.02974652,0.1296965
69644048,0.29761848,0.028393961,0.13179787
69846287,0.2928865,0.027877305,0.13014016
70051068,0.29587257,0.029311026,0.1328024
70253755,0.29291314,0.030191157,0.1338968
70456612,0.29903245,0.029067762,0.13705821
70656603,0.2925852,0.025027843,0.13279077
70860339,0.3040548,0.02912957,0.13075124
71063050,0.29420397,0.030173868,0.133271
71267642,0.30234766,0.02501732,0.13339502
71470269,0.30031776,0.031291824,0.13576895
71674594,0.2963984,0.02891174,0.13362539
71874903,0.2927146,0.026610596,0.13462508
73090655,0.29260486,0.02731902,0.13344923
73294052,0.29973304,0.027422708,0.13421878
73496691,0.29579982,0.030985786,0.13462657
73701332,0.30629897,0.025683578,0.13554306
73903879,0.2969763,0.02878962,0.12923297
74107404,0.30065572,0.031562287,0.13259543
74307599,0.29787332,0.024882717,0.1329335
74510302,0.29778588,0.028285202,0.13209443
74714106,0.2964981,0.030279938,0.13540749
75121315,0.29703224,0.026630381,0.1354587
75324213,0.2992604,0.026906952,0.13468198
75524367,0.30095115,0.02678871,0.13079967
75727137,0.30572045,0.02988313,0.13284624
75931158,0.30210787,0.02983322,0.13523048
76131115,0.29049397,0.028229943,0.13311863
76333432,0.29607418,0.030750621,0.13329175
76537658,0.28582206,0.029746592,0.135311
76740583,0.2977674,0.028260242,0.1362251
76944605,0.29806682,0.02901976,0.13131681
77147571,0.29681557,0.025840543,0.12923725
77347459,0.29298326,0.029138716,0.13199195
77550329,0.29884323,0.027391149,0.13337544
77754265,0.29917654,0.02710147,0.12681042
77954185,0.3028129,0.02593619,0.12913789
78156700,0.30194676,0.030320153,0.13163395
78356401,0.29944134,0.027876964,0.13277952
78559946,0.2975618,0.02696565,0.13402629
78966337,0.3041831,0.02885154,0.13031435
79170724,0.3002088,0.024652481,0.13144366
79373506,0.29429692,0.027206492,0.13216719
79576618,0.29611447,0.026207583,0.13335583
79780243,0.29564133,0.027881423,0.13653432
79980415,0.29054934,0.027165046,0.134306
80183088,0.29471135,0.025045766,0.13406628
80382968,0.2981451,0.026687171,0.13170843
80587053,0.29896823,0.02898909,0.13142283
80789512,0.29847094,0.028250914,0.12952872
80994231,0.298024,0.02683332,0.12711003
81196579,0.29743358,0.026490415,0.13287704
81400593,0.30304012,0.029343694,0.13913603
81603774,0.29936808,0.02717217,0.13930723
81807600,0.28920427,0.02580093,0.131975
82010232,0.29844743,0.029860148,0.1320225
82209563,0.29799566,0.028014433,0.1290353
82413437,0.28884542,0.027451562,0.13302742
82617291,0.29345974,0.029674958,0.13630909
82820618,0.30193475,0.028334126,0.13243562
83023792,0.2981995,0.027466202,0.13510709
83227449,0.29632658,0.028478311,0.1370671
83431154,0.2996346,0.025872104,0.1354801
83630455,0.2983708,0.02461092,0.13142951
83833859,0.2942531,0.02828399,0.1291068
84033763,0.29253477,0.02808751,0.13427098
84236533,0.29565075,0.030406635,0.13424301
84440389,0.29653645,0.025780346,0.13121666
84643789,0.29597285,0.02665863,0.13652232
84846938,0.29500318,0.029588623,0.13514315
85051288,0.2944594,0.02790838,0.13155833
85251626,0.2988603,0.029191192,0.13062468
85453500,0.30116877,0.028383795,0.12984091
85657204,0.2947968,0.027635163,0.1330377
85857569,0.29459763,0.029352779,0.13174544
86055864,0.30093718,0.029887017,0.13653786
86259104,0.30137068,0.025458058,0.13541082
86462957,0.29842192,0.028487682,0.13219334
86662784,0.2971192,0.029679907,0.13665396
86865466,0.30176124,0.028877243,0.13293438
87070261,0.2977968,0.02843682,0.13203834
87272666,0.29312503,0.028646206,0.13262242
87476752,0.3038593,0.026842538,0.13445817
87677767,0.29516423,0.027910478,0.13436234
87879023,0.29863715,0.028435081,0.13556214
88083061,0.28707594,0.02722822,0.13497192
88283883,0.2875006,0.023678817,0.13284926
88485459,0.29583582,0.029622272,0.13244297
88689201,0.30149472,0.027092142,0.1314029
88892575,0.2941403,0.022196714,0.13496795
89095045,0.29181063,0.030736769,0.13369872
89300021,0.2921262,0.029335035,0.13208874
89503144,0.29325777,0.024360292,0.13307166
89707441,0.29477715,0.030085461,0.1294518
89909500,0.2919427,0.027744832,0.13298008
90109473,0.2936773,0.026344538,0.13063896
90313529,0.2918452,0.029327927,0.13675123
90515813,0.29210475,0.02818033,0.12828356
90720545,0.2964818,0.02466902,0.1315028
90923027,0.2963969,0.030300297,0.13387468
91126653,0.2965885,0.029514633,0.1344025
91327169,0.28702536,0.02592216,0.13445666
91529559,0.29562747,0.028231392,0.13387525
91733409,0.29044703,0.02973434,0.13278335
91933338,0.2954201,0.02545042,0.1337637
92136395,0.29518825,0.027670573,0.1320704
92339014,0.3023254,0.029974716,0.13581114
92543412,0.29572403,0.026556809,0.13684914
92746407,0.29622838,0.028038213,0.14018813
92949458,0.2958032,0.027577471,0.13552439
93154039,0.29577655,0.026282888,0.13536927
93356595,0.29789686,0.025376655,0.13107745
93560553,0.29257318,0.028468847,0.13544555
93763041,0.29350337,0.025139198,0.13104005
93963097,0.30170932,0.026394146,0.12883769
94167014,0.29176903,0.028538756,0.13509811
94369420,0.29141217,0.028097255,0.13273981
94573985,0.29363307,0.024970733,0.13262096
94776563,0.29227665,0.030341122,0.1339426
94981525,0.295542,0.027846051,0.13315405
95183789,0.29838768,0.026498478,0.12968121
95387716,0.29891816,0.030125799,0.13311544
95590174,0.30139384,0.029172193,0.13537087
95791179,0.29375738,0.027260613,0.13891056
95993489,0.30007845,0.03074343,0.1365556
96198026,0.28668004,0.029547669,0.13338995
96400645,0.2995918,0.030389287,0.13138808
96604560,0.2983595,0.028840257,0.13594267
96805353,0.29411966,0.024751304,0.13381234
97007057,0.29164335,0.028771674,0.13613063
97211415,0.29565758,0.028718602,0.13646278
97411234,0.2897446,0.02660151,0.13257913
97613425,0.30098027,0.028120903,0.13494009
97817063,0.2962967,0.027812675,0.13199931
98019730,0.2997161,0.02652842,0.13354039
98220524,0.29877317,0.028140828,0.13233235
98422958,0.29771537,0.02865744,0.1330665
98627538,0.2918149,0.02455938,0.13523008
98830465,0.3025032,0.026864154,0.13755496
99034404,0.30001277,0.02887175,0.1343674
99234254,0.29595032,0.02736391,0.1361497
99436595,0.29202336,0.028055761,0.13011059
99636794,0.29614273,0.030314643,0.13170074
100853574,0.30443022,0.029187769,0.13869567
101056822,0.2989105,0.028198825,0.1345816
101259899,0.29267815,0.027245611,0.1353927
101463873,0.30380082,0.028734906,0.13048813
101663028,0.30224773,0.025770737,0.13590285
101866213,0.30245408,0.02635268,0.1334038
102071020,0.29616964,0.030045277,0.13765045
102272550,0.29028377,0.028596267,0.13852093
102478529,0.2985741,0.02462612,0.13614063
102679878,0.29846427,0.030736351,0.13263918
102882938,0.29982483,0.02956723,0.13448283
103083412,0.30403587,0.02355605,0.13030094
103283874,0.29629382,0.028438874,0.13525136
103485456,0.29310927,0.03156045,0.12916136
103685377,0.2985308,0.026686916,0.1332093
103889472,0.29216704,0.02865403,0.1361335
104088388,0.30401987,0.029745312,0.13114917
104291910,0.29912916,0.025204431,0.13720146
104495065,0.30019945,0.027955841,0.13397622
104698963,0.29841402,0.030104034,0.13117409
104902220,0.29930833,0.022282636,0.12930669
105106144,0.30140716,0.028824953,0.135112
105309502,0.29248792,0.02949793,0.13449588
105512750,0.29551545,0.02380562,0.1363377
105711779,0.29420382,0.029628279,0.13557045
105915819,0.29794288,0.02879273,0.13231573
106115794,0.29721454,0.025648631,0.1335479
106318176,0.29695725,0.029718976,0.13546179
106521440,0.29641262,0.02970984,0.1340052
106726233,0.29701504,0.028344125,0.13118042
106928599,0.29982844,0.030371929,0.13538487
107132559,0.2876737,0.026885128,0.13594219
107335810,0.2967185,0.028851293,0.13658352
107539818,0.2983042,0.02056532,0.13067918
107738785,0.28691635,0.021166304,0.13540415
107942343,0.29895923,0.030316908,0.12983312
108145387,0.29487017,0.027205074,0.13454846
109362793,0.29763737,0.03092386,0.12979728
109565938,0.29488295,0.020986855,0.13081324
109766357,0.29429096,0.029510166,0.12931618
109968601,0.29549268,0.029455096,0.1340613
110172990,0.2961098,0.020455189,0.1332847
110375912,0.29515865,0.029376231,0.13622944
110579727,0.2849271,0.029883726,0.1365601
110783139,0.28870863,0.020886105,0.13272904
110986139,0.28736672,0.023393355,0.12848799
111189994,0.29840314,0.030890068,0.13183303
111389983,0.2950886,0.025153978,0.13048491
111588956,0.2956857,0.024428528,0.13302042
111790977,0.29465234,0.031220874,0.13214399
111995892,0.2938788,0.027236588,0.13477942
112198907,0.29267228,0.023951467,0.13517602
112403207,0.2976145,0.029808922,0.13188861
112606388,0.28955087,0.02619855,0.12686867
112809497,0.28821024,0.02393202,0.1296513
113013514,0.28907338,0.029622383,0.1338526
113215822,0.29135096,0.028136414,0.13151576
113415771,0.2937802,0.02650911,0.13401987
113619957,0.28867984,0.028525777,0.13689858
113822600,0.29827598,0.02575695,0.1317483
114026399,0.29489574,0.026870864,0.13572776
114230495,0.29717082,0.025308449,0.13369727
114431784,0.29570484,0.02713747,0.12979984
114637428,0.29989412,0.029101528,0.13487156
114839915,0.29588416,0.028927244,0.13275033
115043148,0.29546434,0.026330577,0.13702482
115246905,0.29312703,0.02835053,0.13479804
115446760,0.29291958,0.02902649,0.13442248
115649576,0.29288846,0.027503366,0.13154152
115854448,0.2961774,0.028448658,0.13033472
116056674,0.29351196,0.029632302,0.13086078
116259861,0.28970292,0.02567847,0.13144146
116464612,0.29643577,0.028049309,0.12921396
116666984,0.29288375,0.028080652,0.13656855
116870936,0.29264554,0.028413957,0.1363516
117069992,0.295088,0.02986617,0.13532409
117273403,0.2902479,0.028137092,0.13246627
117477334,0.2913659,0.025850309,0.13404974
117680674,0.2849868,0.029896956,0.13291024
117885830,0.28987682,0.028786283,0.13148281
118087154,0.2906984,0.02754926,0.1354996
118292226,0.2920679,0.029032368,0.1379528
118494752,0.29732338,0.025600705,0.13687417
118694320,0.29394904,0.026428409,0.1336586
118897459,0.29151642,0.02945287,0.13533583
119101422,0.2876635,0.026914936,0.1312352
119303756,0.2807745,0.02547834,0.1301514
119508759,0.2900495,0.027383957,0.13212427
119710966,0.28663278,0.028380746,0.1327563
119915055,0.30067438,0.023525441,0.1365235
120114975,0.29939425,0.021940596,0.13635348
120317417,0.2985444,0.03056807,0.13538025
120521388,0.2949284,0.023485338,0.13317798
120720722,0.29174003,0.02010132,0.13621373
120924907,0.30161193,0.030530289,0.13287437
121126994,0.29647738,0.032210935,0.1329696
121331452,0.29915756,0.023028575,0.13297068
121534314,0.29693937,0.030809192,0.13419668
121737478,0.29228705,0.02917134,0.13455231
121941301,0.28929272,0.022108888,0.13059022
122141134,0.2923327,0.029019548,0.12947795
122343903,0.30206072,0.031465035,0.12794806
122547826,0.29878908,0.022334987,0.13501017
122747439,0.29387915,0.026449524,0.13475876
122950286,0.29109347,0.028207568,0.1351295
123153774,0.3012948,0.023725357,0.13352726
123357480,0.29342538,0.02505745,0.13399956
123560405,0.29388672,0.02874104,0.1373224
123764234,0.29654065,0.028084874,0.13185032
123964346,0.3007408,0.027206918,0.1320966
124167018,0.29408118,0.027384741,0.1328181
124370766,0.2956536,0.026996648,0.13546649
124570602,0.2920567,0.027275074,0.13881768
124773417,0.29533997,0.029375358,0.13364102
125995073,0.29025272,0.030322278,0.13161263
126195163,0.2955973,0.029162254,0.13752942
126397347,0.29356194,0.03134151,0.13714853
126601495,0.29326996,0.029291898,0.13731499
126804351,0.30184612,0.026659468,0.13314077
127007845,0.2997865,0.029485585,0.13546608
127211990,0.29941133,0.02982786,0.13019639
127414921,0.29203457,0.028319065,0.12824202
127615386,0.30149132,0.029727828,0.13279195
127817449,0.29481798,0.027703146,0.1368905
128021566,0.29932773,0.025563663,0.135464
128221379,0.29408965,0.02903456,0.13627905
128423776,0.29692495,0.027273346,0.13333337
128627065,0.30117166,0.026581354,0.13316633
128832421,0.29228628,0.028555492,0.13273646
129034296,0.29578024,0.03031568,0.138858
129238348,0.2977869,0.029672932,0.13653049
129440717,0.29905316,0.028756378,0.13903086
129645479,0.29159394,0.028257985,0.13562723
129847839,0.28801903,0.029690033,0.13534227
130047874,0.3027441,0.030754544,0.13175647
130251919,0.29944044,0.026998546,0.13246313
130454259,0.2892673,0.028123518,0.13256258
130658272,0.28876463,0.02855683,0.13262047
130861427,0.29101697,0.028745042,0.13414727
131065558,0.29745194,0.0285726,0.13429128
131267615,0.29553008,0.02813879,0.13429868
131671031,0.30348545,0.028635494,0.13520762
131870380,0.29238105,0.02942989,0.1334823
132074271,0.2929105,0.029888812,0.13124667
132278373,0.2982405,0.02655035,0.13229969
132480641,0.28842658,0.026013697,0.13396022
132686476,0.29800487,0.029810186,0.13737875
132888809,0.29196197,0.029237922,0.1368752
133090188,0.29853716,0.024450434,0.12968196
133295602,0.2964598,0.030839732,0.12929408
133498287,0.29385695,0.027502589,0.13534176
133702052,0.29265895,0.021998663,0.13706343
133902312,0.2909285,0.02821349,0.1368018
134104607,0.28858274,0.02805243,0.13515942
134308432,0.2926238,0.024813252,0.13263677
134511728,0.29517484,0.030219136,0.13833785
134716044,0.29693452,0.027946621,0.13317278
134918112,0.28713295,0.023849454,0.13237758
135122799,0.29894164,0.029228855,0.13206345
135326186,0.2969784,0.029692493,0.1312501
135528577,0.29113033,0.026384603,0.13194956
135728640,0.29015094,0.028813891,0.13550355
135932199,0.30029857,0.027950903,0.1372901
136135430,0.29508337,0.025502449,0.13443933
136339030,0.2915746,0.027056322,0.13317224
136543148,0.29432195,0.02919151,0.13443743
136745503,0.29746848,0.023035146,0.13118798
136949853,0.2958967,0.028181585,0.13111082
137152537,0.29879236,0.029320575,0.13215019
137351866,0.29370755,0.030796934,0.13428633
137556245,0.289161,0.028708616,0.13656186
137759050,0.29871583,0.02630822,0.13295631
137962763,0.29010883,0.02591244,0.13460164
138166261,0.28858107,0.029220425,0.13351206
138370258,0.29139,0.024012944,0.12892853
138573615,0.29646695,0.028653625,0.13063227
138776668,0.289691,0.029026994,0.12971772
138975762,0.29047513,0.029928287,0.13488072
139180118,0.29097533,0.026394842,0.13615452
139382239,0.30228665,0.02868002,0.13423945
139582127,0.29701608,0.027165197,0.13503996
139785990,0.29339468,0.020586126,0.13173059
139988574,0.29481876,0.030386213,0.13446757
140192602,0.28953052,0.02656501,0.14261532
140396409,0.29319564,0.021104513,0.1336357
140599090,0.2911349,0.029257473,0.13214797
140803456,0.29290926,0.026581608,0.1355957
141005438,0.29427925,0.023666212,0.13173345
141207187,0.29653338,0.028972594,0.13657224
141409487,0.29421532,0.029060714,0.13041395
141613022,0.29360127,0.01966381,0.12768131
141816408,0.297909,0.028416876,0.13000539
142019886,0.2951204,0.0271794,0.13366894
142223947,0.286252,0.028912717,0.13352413
142426799,0.2916775,0.02483961,0.13284345
142627159,0.29449195,0.028199166,0.13431983
142829834,0.28657043,0.025222113,0.13233599
143032590,0.28954977,0.028012184,0.12768316
143232577,0.2958498,0.02977009,0.13125284
143436920,0.29090494,0.028808687,0.13708521
143639074,0.29322243,0.025336912,0.13212489
143843391,0.2935827,0.028111858,0.13585486
144046310,0.2996161,0.024525775,0.13749658
144249459,0.29668882,0.027374532,0.1326649
144449525,0.287546,0.027932916,0.1340405
144653305,0.29496333,0.023660194,0.13245355
144855031,0.2964797,0.025632836,0.13163744
145055851,0.29482993,0.030369379,0.13436788
145259128,0.28782976,0.024286276,0.1346445
145463161,0.29432893,0.026520275,0.13192153
145666327,0.29521126,0.027642075,0.12963054
145869470,0.28512388,0.020916658,0.13500923
146072978,0.28725758,0.025234012,0.13573354
146273023,0.28944147,0.0311382,0.13477819
146475883,0.298916,0.020873597,0.13473286
146678998,0.29767153,0.026175572,0.13197084
146879037,0.29315698,0.029249253,0.13211517
147082590,0.2969338,0.021800902,0.13379727
147285862,0.29613546,0.02701848,0.13792093
147489524,0.29514903,0.029243847,0.13432533
147693650,0.29522893,0.02445964,0.13131402
147895821,0.29418623,0.028634993,0.13639453
148099583,0.2968351,0.029864166,0.13408625
148303047,0.28983766,0.024095966,0.13219962
148507087,0.2921792,0.026340678,0.13262372
148709504,0.2897292,0.029452952,0.13374758
148909490,0.29912174,0.025216512,0.1400838
149113325,0.29098997,0.02368245,0.1355204
149316709,0.2956392,0.030022485,0.13377117
149517503,0.28984055,0.021938814,0.13247637
149719011,0.29272863,0.025444346,0.13232431
149923847,0.2902884,0.030704139,0.13500641
150126278,0.29481402,0.026342599,0.131519
150330421,0.2969141,0.023739194,0.12943569
150531823,0.29464588,0.029788759,0.13261901
150732726,0.29607588,0.027850965,0.12876387
150931785,0.2960227,0.02393072,0.1339517
151135848,0.29170936,0.026537426,0.13173336
151340086,0.2920077,0.029443627,0.13250239
151542225,0.3028696,0.025227427,0.12924433
151745438,0.30093375,0.02577942,0.13178185
151949604,0.2892345,0.02812615,0.13111685
152153551,0.30150047,0.02550592,0.13252352
152356244,0.2896746,0.027774915,0.13540426
152558171,0.29248673,0.030225962,0.13916592
153569347,0.28720006,0.025585879,0.13085544
153772562,0.29729253,0.029394083,0.13167499
153975736,0.28627676,0.02212065,0.13184637
154179550,0.2935726,0.029170198,0.1370103
154379754,0.3016949,0.030357651,0.13581774
154582269,0.2884605,0.023020737,0.131297
154783064,0.29223633,0.028907321,0.1358443
154982116,0.29842094,0.031322524,0.13450599
155184653,0.2902142,0.02462137,0.131901
155383856,0.29427552,0.028892294,0.13910604
155588560,0.290722,0.026254853,0.13374044
155790943,0.29045144,0.021905018,0.13536789
155994616,0.2930896,0.02887343,0.1330469
156198201,0.29520696,0.027216598,0.13301948
156402394,0.28544927,0.026471214,0.13186915
156605032,0.29350957,0.027140629,0.12826182
156805516,0.29108498,0.024592662,0.13062935
157007800,0.28705066,0.026175776,0.13161604
157211606,0.2956753,0.029265214,0.1330694
157411769,0.2956897,0.025637988,0.13445814
157614353,0.29537177,0.02507134,0.13277082
157818093,0.29142275,0.028026965,0.133339
158021431,0.28999922,0.024260156,0.13404898
158225581,0.29213917,0.025633179,0.129211
158428366,0.28953028,0.028832046,0.12875617
158631778,0.29750314,0.02665472,0.12701201
158835424,0.2976546,0.026259765,0.13170663
159035066,0.2945423,0.030757546,0.13059768
159237355,0.29607022,0.029761048,0.13058119
159437364,0.29546368,0.025376119,0.12964672
159641034,0.28647268,0.027169123,0.1289013
159842977,0.29065362,0.029512977,0.12592629
160043787,0.27769783,0.025300585,0.12508036
160246971,0.30312866,0.026185399,0.12624994
160451036,0.29699185,0.02784571,0.1291604
160654364,0.2912095,0.026378212,0.13338016
160858237,0.29649287,0.02506745,0.13362682
161060583,0.29243848,0.029406348,0.124045156
161464348,0.294737,0.026912753,0.13006133
161670212,0.2920822,0.026381308,0.12856765
161871160,0.29020435,0.027405256,0.1306209
162074204,0.29236874,0.02737309,0.13046567
162278156,0.3017218,0.029556122,0.12964621
162479306,0.29476562,0.02083792,0.12943245
162680621,0.30142224,0.023493087,0.13046063
162884245,0.27175662,0.020972176,0.12969345
163085344,0.302742,0.02548012,0.13242057
163286985,0.29976112,0.020837396,0.12575205
163490989,0.29848936,0.027361637,0.12688276
163690894,0.29535943,0.028457321,0.12505789
163893862,0.28927323,0.022923639,0.13324326
164096544,0.29131228,0.027599929,0.13001089
164301315,0.28616512,0.029933201,0.1290066
164503742,0.28751463,0.027022274,0.12610285
164707745,0.29196754,0.02852832,0.12594102
164907997,0.28626865,0.029956192,0.12788182
165110300,0.29074782,0.027806317,0.12707807
166327035,0.288415,0.02918053,0.12882312
166531315,0.28134334,0.01855598,0.12637867
166735404,0.28979298,0.026657717,0.12794098
166937462,0.29324692,0.03039266,0.13006192
167141363,0.29526192,0.021808844,0.1302288
167340986,0.29896852,0.022766253,0.13137925
167543873,0.29929394,0.029307745,0.12583688
167747444,0.29668173,0.024094671,0.12734367
167951183,0.29451135,0.023277402,0.12789832
168154206,0.29351774,0.028936574,0.12907225
168357959,0.287331,0.026572961,0.13284618
168560627,0.29438898,0.023767482,0.13537507
168760547,0.2959317,0.030604903,0.129698
168964216,0.29027468,0.028893288,0.12794891
169167059,0.28663647,0.02491975,0.12881453
169370646,0.2943314,0.02888025,0.12585418
169571182,0.29481152,0.027741592,0.13160989
169774602,0.293177,0.020159867,0.12678686
169977472,0.29372162,0.028205995,0.12695514
170181162,0.29693988,0.028437326,0.13229018
170383939,0.2890945,0.024475707,0.13204186
170587924,0.29377815,0.028708551,0.12996854
170791052,0.29700816,0.024388244,0.12843297
170990261,0.29672974,0.029394876,0.12582853
171194991,0.2933699,0.028964927,0.13233446
171397398,0.29564598,0.024335874,0.13371158
171601041,0.29146123,0.023961024,0.13355099
171803810,0.29529458,0.031638425,0.13021174
172005977,0.2991614,0.02976048,0.12855278
172207417,0.298437,0.025975596,0.13009481
172410242,0.2903624,0.025458315,0.12816897
172614994,0.29526317,0.02779154,0.12593636
172817415,0.29306355,0.027907098,0.124894604
173017399,0.2954951,0.028013038,0.1310789
173221711,0.28302526,0.026555222,0.13042688
173423900,0.2931138,0.02562705,0.1294456
173627775,0.28804362,0.027985755,0.12808141
173830964,0.29582915,0.024828754,0.1286335
174034457,0.29297742,0.028205132,0.12399676
174238793,0.2943315,0.02598081,0.12680846
174441569,0.2882183,0.027059054,0.13445373
174645435,0.2925943,0.025938483,0.13105139
174843764,0.29254344,0.026944133,0.13105415
175048203,0.29919523,0.024927834,0.13192584
175250952,0.29791376,0.027717115,0.12642245
175454766,0.29696357,0.026461026,0.13294359
175658290,0.2943886,0.029190894,0.12800518
175862249,0.29259884,0.02524509,0.13067947
176064606,0.2915377,0.024468292,0.12717262
176269028,0.29286686,0.030202383,0.12956288
176468618,0.2875822,0.02594686,0.12787259
176671079,0.28861085,0.026446369,0.12974429
176871128,0.29489663,0.027335908,0.12987696
177074651,0.29385528,0.024606502,0.13048647
177277390,0.2821576,0.0265306,0.13014185
177482250,0.29223981,0.02902911,0.12767828
177684752,0.29174542,0.023526903,0.12871061
177887832,0.29139072,0.022186354,0.12832926
178090923,0.2927417,0.03027995,0.12804165
178292646,0.29631197,0.026158573,0.13288611
178494942,0.29889873,0.022618538,0.12957138
178695062,0.28663474,0.028919568,0.12774506
178898234,0.2858322,0.030687837,0.1264638
179100560,0.28809613,0.019305484,0.1278888
179304395,0.2951394,0.025267892,0.12404485
180524684,0.29540083,0.023348708,0.1259167
180724812,0.2910356,0.029262103,0.12415189
180928655,0.28789532,0.022355707,0.12793922
181131083,0.28739,0.02601857,0.12828673
181335850,0.29423192,0.027821427,0.13213626
181538244,0.2868874,0.021338135,0.13101897
181742094,0.2963321,0.02974384,0.12640454
181942176,0.29127857,0.029302489,0.130602
182144563,0.28581527,0.018624537,0.12768841
182348572,0.2903493,0.024323732,0.12669802
182548344,0.28592664,0.031576477,0.12846708
182751117,0.29269868,0.023697332,0.122692406
182955044,0.28877825,0.023765985,0.13517018
183158241,0.29107678,0.030508315,0.13069387
183361434,0.28961655,0.02381293,0.12926672
183563032,0.28738344,0.023015242,0.124060534
183765318,0.2813515,0.027596194,0.124915615
183967766,0.28928703,0.02632896,0.12218954
184171762,0.2967745,0.023600653,0.12853764
184375309,0.29680112,0.03004677,0.12776606
184575253,0.2969957,0.02644936,0.13461335
184777444,0.290668,0.02259198,0.12739749
184981343,0.29000705,0.027880682,0.12859093
185184635,0.2985203,0.030282767,0.12589638
185388567,0.29448512,0.023904437,0.12599504
185590162,0.29565135,0.023203984,0.13077082
185795693,0.30327275,0.030213648,0.13213366
185998183,0.29672313,0.029625313,0.12790357
186201849,0.29744062,0.021936454,0.1283052
186401825,0.2979972,0.025578067,0.13540293
186604555,0.28644857,0.028952617,0.12944156
186807834,0.29230034,0.021587083,0.12643112
187012400,0.29154927,0.027557869,0.1280966
187215133,0.2931354,0.031674545,0.1283359
187418199,0.29469332,0.019951835,0.12798043
187623438,0.2832678,0.02194675,0.12900461
187825493,0.28311726,0.029790854,0.13170747
188026288,0.29149503,0.020953104,0.12806685
188229447,0.29256192,0.021605253,0.12581326
188432065,0.2926935,0.029439988,0.13048668
188636211,0.28816992,0.025505079,0.12936635
188838184,0.28213292,0.020680532,0.13217299
189043047,0.2804111,0.029542848,0.12888445
189245481,0.2883759,0.026062747,0.13155045
189449966,0.28818348,0.018263271,0.12997444
189653184,0.2859988,0.027652944,0.12688352
189852585,0.2842885,0.027119715,0.12891093
190055142,0.2886904,0.021319542,0.12529334
190255052,0.2941163,0.028710743,0.12562756
190459594,0.29024604,0.026158957,0.12501974
190661422,0.28477645,0.018875085,0.12782072
190865410,0.29380497,0.030432098,0.12861283
191069204,0.29059944,0.027950328,0.13007914
191271846,0.29062495,0.019457808,0.12624294
191477362,0.28932443,0.02656433,0.12728372
191680162,0.29240474,0.027828483,0.12697615
191880166,0.2920088,0.019511532,0.12975009
192082216,0.28930265,0.025951844,0.12425854
192286277,0.29393077,0.02911892,0.1258921
192488667,0.29294795,0.020850183,0.12536289
192693021,0.2943194,0.026883012,0.13048533
192896559,0.28765038,0.028044773,0.12684713
193099055,0.28605142,0.021711662,0.12723298
193299049,0.27283287,0.020834623,0.1315304
193502977,0.29433137,0.025798138,0.12735045
194311854,0.30600214,0.024735853,0.13933699
194515899,0.3341452,0.02700781,0.13966312
194718955,0.29081905,0.023877557,0.1356128
194922766,0.29594946,0.021167673,0.14434676
195126296,0.27579805,0.025357287,0.15706176
195330242,0.29357752,0.02726837,0.17991821
195533412,0.26097688,0.023299081,0.2090434
195734968,0.28260607,0.021276662,0.22408248
195935860,0.28634077,0.02827175,0.21649364
196139605,0.31460503,0.028023548,0.21619812
196342175,0.32257938,0.01944539,0.21496293
196546760,0.2944629,0.02225183,0.21259274
196750441,0.306994,0.026213104,0.21466377
196952681,0.31623918,0.024085052,0.21427147
197152685,0.3165442,0.022184039,0.21697403
197356646,0.27785808,0.023605695,0.2191106
197558304,0.25532037,0.024196897,0.21275744
197759050,0.23190197,0.021564947,0.21248856
197963146,0.28520578,0.025299745,0.21338086
198165520,0.31062952,0.020662744,0.2166215
198370307,0.30479443,0.026431635,0.22525972
198572733,0.287799,0.023290137,0.25570583
198775843,0.27774432,0.023601307,0.25688773
198980636,0.30201247,0.027238013,0.25988755
199183098,0.30265802,0.02409206,0.26286146
199382234,0.29536933,0.023465792,0.2600007
199585405,0.36656442,0.022926612,0.29318267
199785486,0.3043989,0.021061664,0.37391073
199989060,0.2911797,0.029276919,0.43234026
200192627,0.28722882,0.024014337,0.44082782
200396226,0.24856003,0.02053639,0.42816913
200599092,0.29697448,0.02547146,0.4532145
200802564,0.29038447,0.024929266,0.50870836
201002913,0.30686,0.022619346,0.5637016
201205426,0.32094902,0.024878554,0.632589
201405734,0.2802299,0.02503489,0.7045176
201608701,0.29043028,0.022889227,0.775303
201807827,0.30016074,0.02452915,0.9655344
202010985,0.34057075,0.020951105,1.0820175
202211735,0.3055009,0.024730818,1.2225716
202414289,0.2751992,0.02175731,1.3702136
202618169,0.32436964,0.02305621,1.5806739
202821406,0.3532811,0.028677678,1.7985394
203025131,0.31329525,0.028677722,2.1270936
203227837,0.41408828,0.02562745,2.431512
203432682,0.33506835,0.024381429,2.655131
203635087,0.3973477,0.0208619,2.6628535
203835246,0.3403547,0.019846266,2.6697083
204034982,0.3332184,0.02583604,2.6482747
204237489,0.29265517,0.022668703,2.650708
204440709,0.2788407,0.02179213,2.6532993
204646099,0.43327826,0.024996178,2.6342556
204847986,0.28935105,0.023077229,2.628456
205052075,0.36303768,0.021630097,2.6032434
205254321,0.30725694,0.019262668,2.6095545
205459282,0.22005527,0.022794908,2.5994055
205661475,0.49878415,0.023288934,2.6028342
205861364,0.46758595,0.028111786,2.5650597
206064693,0.3491877,0.031464033,2.4413905
206268722,0.3146928,0.04501132,2.3208778
206470327,1.3673782,0.051004823,2.1821733
206671077,0.47596565,0.07412439,2.0514774
206874347,0.42395976,0.027446413,1.9531246
207079189,0.7335939,0.061960947,1.857424
207281490,0.3588293,0.02943877,1.7688452
207485422,0.40217778,0.03914731,1.7157698
207688158,0.71042836,0.044875666,1.681482
208498591,0.49930933,0.029180685,1.610035
208701575,0.36947832,0.029657157,1.6052849
208904726,0.35740122,0.03159305,1.58571
209109193,0.48485488,0.025868097,1.586931
209311917,0.5460305,0.02573711,1.5837523
209515965,0.28563112,0.032307435,1.5788733
209718266,0.42331213,0.038482215,1.5589298
209918320,0.34041616,0.04163321,1.5458367
210121807,0.29391333,0.045340016,1.5309887
210327202,0.44915858,0.04747309,1.5122625
210528800,0.34109643,0.04452002,1.4887117
210732198,0.26737225,0.038349904,1.473128
210935316,0.29905003,0.03932678,1.4391283
211139909,0.24072415,0.034757193,1.4348979
211342268,0.23967512,0.03280128,1.427446
211542311,0.22413093,0.031198157,1.4204787
211742453,0.23186424,0.030567346,1.3990195
211944749,0.3275851,0.030434122,1.3902116
212148689,0.30434352,0.038088024,1.3820332
212352075,0.27749825,0.043676384,1.3480079
212555871,0.26475823,0.04692585,1.3257552
212758270,0.29274037,0.04404189,1.3204765
212963389,0.24012968,0.040555123,1.3284897
213165831,0.24562094,0.038091023,1.3098034
213368617,0.24055865,0.035763096,1.2965944
213568630,0.36172754,0.025989514,1.2882957
213772806,0.38054404,0.024720218,1.2896678
213975243,0.29527268,0.04144314,1.2869282
214179031,0.31714982,0.04197301,1.2902544
214382381,0.40908605,0.040519197,1.2882626
214585849,0.4329501,0.0424227,1.2987589
214788731,0.29023415,0.050668903,1.3019867
214993044,0.25188485,0.05004641,1.2980566
215192029,0.31402045,0.052750826,1.2937442
215395770,0.26258403,0.048638277,1.2686869
215595436,0.31107756,0.04663424,1.2740589
215798535,0.43423343,0.04873183,1.2689464
216002504,0.32352084,0.04312236,1.2723485
216205853,0.30813304,0.039468434,1.271492
216408788,0.31765097,0.03310046,1.2686697
216613180,0.32433495,0.0390832,1.2794125
216815892,0.35474327,0.036543056,1.2922901
217019981,0.34034523,0.025642123,1.307326
217219124,0.3492692,0.033703018,1.3362417
217422407,0.37934986,0.04538722,1.3469718
217626381,0.29702485,0.032346737,1.3387743
217828686,0.25447807,0.024057647,1.3419718
218033150,0.25897765,0.021381138,1.3248844
218236210,0.29691383,0.03449323,1.3279116
219045513,0.36607233,0.03329914,1.3320706
219248993,0.34470809,0.035401147,1.3542145
219449207,0.35107163,0.040874716,1.3569444
219651866,0.37339535,0.027649771,1.3487386
219857036,0.24113777,0.025877928,1.3447281
220059453,0.24811536,0.024617609,1.3376063
220262335,0.26336285,0.032387692,1.3384479
220466135,0.39055434,0.040019725,1.3462502
220666355,0.41272512,0.04001034,1.3627613
220868741,0.4860707,0.043479584,1.3932147
221072404,0.3849408,0.030942127,1.3997833
221272186,0.39868233,0.049519528,1.3869377
221475955,0.40493783,0.04722734,1.3581387
221678237,0.37722862,0.043667473,1.3310626
221882590,0.38110712,0.042988833,1.3202144
222085821,0.3586824,0.036121447,1.3308027
222288731,0.29905236,0.028896883,1.3296157
222492993,0.31154755,0.030577624,1.3389187
222692897,0.28635666,0.027766325,1.3616016
222895611,0.25683138,0.024935963,1.3626119
223098374,0.26792488,0.038820773,1.3824234
223298404,0.3452473,0.039308924,1.3860978
223501851,0.31800306,0.034713037,1.3944796
223704734,0.35798907,0.044741876,1.3948501
223909540,0.37906548,0.04549323,1.3704008
224111949,0.37173033,0.046463225,1.3562511
224315751,0.36142597,0.044308905,1.3445362
224516042,0.33288804,0.039885033,1.3294958
224718564,0.41958162,0.038979758,1.336563
224919085,0.33323824,0.028937897,1.3348296
225121516,0.3536435,0.029881615,1.3431715
225324691,0.31351247,0.029236747,1.3384682
225524027,0.22865817,0.028655436,1.3508056
225728669,0.27182722,0.029665567,1.3503752
225931112,0.3585279,0.029637463,1.3608097
226135165,0.3674009,0.024782233,1.3731178
226338359,0.36966237,0.03194027,1.3843133
226541793,0.34415832,0.03382396,1.388624
226744756,0.36839187,0.03429395,1.3989367
226949029,0.43717816,0.035772555,1.377532
227148250,0.29314688,0.035266962,1.3805927
227351151,0.45245183,0.038312968,1.3821976
227554988,0.3003725,0.037391312,1.3790714
227755189,0.21436067,0.035393767,1.3739315
227957515,0.2305994,0.032835238,1.3483922
228161464,0.33078685,0.029482309,1.3427786
228364866,0.3359751,0.027913278,1.3398515
228567952,0.29971838,0.030282503,1.3426105
228770605,0.3046604,0.0293633,1.3532163
228971758,0.39412367,0.02400924,1.3348082
229174324,0.37970942,0.034351792,1.3125788
229378111,0.33234116,0.033836983,1.280253
229577850,0.36711788,0.032679696,1.2755814
229780753,0.5295554,0.033249635,1.2808594
229983913,0.43730444,0.03708826,1.2865002
230188649,0.41289592,0.035205394,1.2828646
230391069,0.3787154,0.03580805,1.287353
231599993,0.3510891,0.027984234,1.2900554
231803892,0.35590196,0.02710232,1.2793515
232006244,0.27087042,0.025792647,1.2903155
232206350,0.31857872,0.0281697,1.3036331
232409669,0.29377598,0.03637468,1.2965235
232612707,0.3379903,0.032766942,1.2873416
232816655,0.3416873,0.027058493,1.2890722
233020854,0.31615987,0.027146544,1.2939107
233223216,0.3466316,0.026760098,1.2981169
233423561,0.37748024,0.03207013,1.3017491
233626594,0.42573354,0.034735832,1.2904974
233829592,0.44796765,0.035439175,1.2781489
234029573,0.3570498,0.033719175,1.2831287
234233553,0.38336182,0.03210308,1.2920299
234437922,0.37705457,0.025424002,1.295278
234640082,0.33163232,0.024108028,1.2976182
234843427,0.33923423,0.027967159,1.2920959
235046298,0.30752033,0.031193877,1.2907667
235246569,0.36865288,0.034460735,1.2883801
235449960,0.37702844,0.034068473,1.2881125
235652953,0.3033237,0.02858958,1.2867196
235856154,0.30632585,0.026795438,1.2964398
236055907,0.38845742,0.025903845,1.293911
236259416,0.24268526,0.03473478,1.3011059
236463168,0.37452108,0.04208551,1.2965493
236666893,0.32901353,0.043250628,1.2816696
236869557,0.42883435,0.04160606,1.2829592
237073471,0.35226297,0.035971783,1.2815042
237273374,0.29690403,0.036630124,1.294648
237476569,0.32914045,0.040566605,1.2914099
237679112,0.31853077,0.037704702,1.3023198
237879119,0.2816595,0.036084555,1.3054986
238083189,0.2536866,0.029112518,1.2980639
238281821,0.18732809,0.03256639,1.2949224
238485616,0.2668473,0.031677637,1.3040729
238688699,0.32667932,0.03244147,1.3017772
238892181,0.27803573,0.04141039,1.2956021
239095955,0.25239244,0.03924293,1.285386
239299742,0.34014425,0.03938407,1.2811192
239502287,0.34513524,0.043681648,1.2875147
239707072,0.2786464,0.035564315,1.2866919
239905862,0.25767672,0.03818664,1.2905797
240108720,0.25557905,0.039914913,1.2918944
240308760,0.26189563,0.0445304,1.2989718
240511879,0.292184,0.046290692,1.3048276
240715791,0.2144293,0.051628042,1.3036295
240918412,0.19403143,0.042021155,1.3052431
241123105,0.39888734,0.03363036,1.319901
241325587,0.23340721,0.04483546,1.3282756
241525574,0.27816546,0.049904734,1.3103211
241729053,0.20899203,0.043408528,1.2775295
241929052,0.2901788,0.03900935,1.2804677
242130409,0.23882851,0.040555168,1.2663816
242331113,0.30351457,0.03589797,1.2498567
242531151,0.2476807,0.028884718,1.2512326
242733636,0.3106236,0.02957793,1.2415339
242933526,0.34379092,0.035924233,1.2497311
243136957,0.2763082,0.034157477,1.2624924
243340358,0.2967561,0.045367014,1.2856157
243543827,0.25945884,0.027894918,1.2938255
243747546,0.1993639,0.032750707,1.3152469
243950590,0.20957573,0.04821775,1.3121943
244155024,0.41256455,0.04616959,1.2995058
244357475,0.37357342,0.03377038,1.3000257
244561213,0.21128392,0.03214061,1.2920458
244761204,0.20746656,0.02079569,1.2973757
245575158,0.23714182,0.04015002,1.3005071
245777542,0.3079938,0.036018457,1.3067472
245981388,0.24263363,0.032493606,1.314019
246184791,0.3017997,0.031240579,1.3172888
246384074,0.33405823,0.034896538,1.3181059
246588194,0.2686948,0.030069146,1.3301737
246787554,0.4860455,0.032103002,1.3321612
246991114,0.23125874,0.048175834,1.3296374
247193483,0.4138931,0.04660762,1.3301798
247397592,0.20309399,0.042226173,1.3244379
247600712,0.46638355,0.047084343,1.3289018
247804780,0.33030692,0.048325073,1.3161017
248007145,0.31714576,0.044153415,1.3116494
248207278,0.2768957,0.040405534,1.3090429
248411142,0.27095833,0.045652293,1.2922378
248610641,0.28886783,0.043591842,1.2758904
248813841,0.17275463,0.044529192,1.2648796
249016859,0.20128796,0.04958481,1.2530364
249220636,0.38026676,0.04397975,1.2398169
249423998,0.22943673,0.03776953,1.2035743
249627428,0.21249689,0.03671428,1.2018229
249830381,0.22813495,0.03663163,1.1883698
250034599,0.26192307,0.032987844,1.1635242
250237594,0.32115802,0.03450263,1.1471547
250441599,0.32527235,0.037204478,1.1254869
250641023,0.35362113,0.040132027,1.1228081
250844627,0.4083023,0.041559055,1.1076348
251047146,0.36203104,0.03563347,1.0981333
251250972,0.38981414,0.03263557,1.1084923
251454374,0.4028958,0.034151528,1.1180651
251657480,0.32348797,0.023799887,1.1372768
251857579,0.35020795,0.024059063,1.1534381
252061352,0.36575776,0.026436651,1.1685154
252264134,0.16688335,0.021214906,1.1646
252467947,0.20763618,0.024989923,1.1777138
252667618,0.22397314,0.030582966,1.178009
252870292,0.28622296,0.04380497,1.1801986
253075205,0.232041,0.04803241,1.1714212
253277489,0.2646056,0.047558412,1.1595588
253481441,0.25235674,0.04279146,1.1732593
253686215,0.26486996,0.0384084,1.176753
253887990,0.26146823,0.032732423,1.1815745
254091810,0.23232733,0.031882137,1.2043449
254291073,0.2790804,0.030518955,1.2035125
254493460,0.31023902,0.029006287,1.2242053
254694331,0.340552,0.033485856,1.2241703
254896663,0.3074437,0.037789416,1.2321546
255100074,0.41835836,0.044819918,1.2434583
255300827,0.30825663,0.04933423,1.2577184
255503245,0.2829261,0.047476605,1.2726383
255706466,0.278347,0.050872933,1.2815751
255910753,0.41325238,0.049415268,1.2975216
256113579,0.2520757,0.051314566,1.3183247
256317295,0.45324987,0.047823302,1.3247076
256517018,0.34824654,0.047214627,1.3305094
256720031,0.27418193,0.048865613,1.3377893
256923458,0.3506251,0.04766419,1.3385624
257127262,0.5454573,0.04551169,1.3383455
257330780,0.5641041,0.043307777,1.3555293
257533590,0.23256773,0.04608416,1.3530393
257737932,0.30529726,0.04452583,1.3565396
257941013,0.3159317,0.04081302,1.3573622
258143892,0.38231525,0.037218265,1.3547997
258344026,0.48503986,0.03623583,1.3539175
258547945,0.7657898,0.032811765,1.3605635
258750352,0.6990624,0.03709716,1.3400964
258953496,0.31554183,0.0366261,1.3260975
259158171,0.28168598,0.041412733,1.3078657
259360756,0.47471988,0.040355157,1.3071369
259564567,0.54314643,0.045392293,1.2983093
259764775,0.4426187,0.03950064,1.2900885
259967197,0.26969182,0.04040432,1.2838453
260170638,0.47304112,0.040030453,1.2847615
260370891,0.4209485,0.036646426,1.271139
260569588,0.27608183,0.035651255,1.2661035
260973379,0.2829731,0.035012737,1.244646
261175936,0.23343238,0.03699544,1.228805
261379820,0.32023793,0.037081562,1.2188869
261583096,0.21475552,0.03726776,1.2011223
261787046,0.21520476,0.03606026,1.1974748
261989723,0.2705409,0.034246046,1.1789002
262189687,0.42398864,0.037126824,1.1640943
262393027,0.2620325,0.036616992,1.154293
262596089,0.29236576,0.039214958,1.1372067
262799814,0.24267183,0.041882075,1.1227564
262999710,0.29877156,0.04009088,1.1142318
264220383,0.38700312,0.04762217,1.1305556
264423145,0.43443325,0.040228017,1.038416
264622394,0.2824575,0.03964544,0.9695023
264826584,0.3517885,0.028130218,0.9861348
265029695,0.32976863,0.031408835,0.99875283
265233201,0.32925487,0.02688011,0.9729149
265436693,0.26654786,0.02339953,0.6027664
265640527,0.2942996,0.022009186,0.39954576
265843590,0.28171602,0.021354359,0.36814427
266046283,0.29810402,0.022457754,0.3787844
266246268,0.30244887,0.024064744,0.38192755
266449463,0.44564557,0.028543571,0.38635218
266649524,0.33431035,0.028951237,0.38800994
266853196,0.28046125,0.035218023,0.3923069
267056145,0.2904205,0.041296694,0.38274148
267259071,0.3220095,0.04690295,0.39564285
267463451,0.3117588,0.044006214,0.42873585
267666213,0.2664497,0.03449065,0.5396655
267871445,0.18021622,0.030820828,0.6627757
268073508,0.2280553,0.024849582,0.6636522
268277456,0.22478993,0.034317773,0.7939652
268476918,0.50838375,0.028538927,1.0337981
268676237,0.4699387,0.02352555,1.1007736
268879052,0.65991443,0.025900958,1.1024164
269082644,0.42052016,0.02214402,1.1305104
269285514,0.62873816,0.02397499,1.1140076
269490219,0.29345906,0.026027597,1.2067757
269692633,0.28620237,0.03145381,1.2194481
269897030,0.33481786,0.038839523,1.209747
270100181,0.34037203,0.041293565,1.1793048
270303077,0.34511074,0.04872944,1.1607268
270506167,0.2891973,0.048152246,1.1373976
270706377,0.32271007,0.041234434,1.1309595
270909839,0.20451038,0.035748582,1.1358203
271112584,0.31611118,0.02349144,1.1289043
271317319,0.2696829,0.03513336,1.1491442
271520053,0.29161766,0.06337748,1.1367412
271723343,0.31308767,0.06743603,1.1098989
271923405,0.399092,0.069470175,1.1123554
272126355,0.32586524,0.05945459,1.1495157
272329616,0.2792811,0.05183316,1.1663324
272529569,0.20805362,0.0452817,1.1710595
272732958,0.24896146,0.045927912,1.171203
272935916,0.42183307,0.057192508,1.1580122
273140516,0.4669018,0.0368569,1.1776471
273343170,0.45540372,0.027240125,1.2391407
273546967,0.5102512,0.037503734,1.3016094
273749617,0.52445924,0.05608015,1.2904147
273954059,0.28771162,0.05499199,1.2143099
274156654,0.23398569,0.049808756,1.059031
274355939,0.21439421,0.037012506,1.1287919
274560531,0.2830507,0.030676365,1.206683
274763228,0.2337907,0.034057904,1.2391193
274966923,0.30967703,0.026866183,1.2293037
275170365,0.2823009,0.02583054,1.2194872
275373655,0.38174903,0.03425607,1.2095655
275573614,0.3714281,0.041250505,1.23464
275776657,0.38664326,0.037936978,1.2820982
275980356,0.40232387,0.048601195,1.324831
276184001,0.49380007,0.0378725,1.3559018
276383855,0.28970844,0.044683356,1.3226641
276586386,0.34352666,0.066481166,1.2870154
276789848,0.29033443,0.06188888,1.2496449
276992674,0.32918802,0.06185432,1.2168458
277196964,0.34379283,0.07204731,1.173752
277400016,0.3386673,0.07863514,1.1591046
277600178,0.19792709,0.06861327,1.1586219
277803331,0.3001022,0.048090152,1.1816704
278006356,0.3485008,0.029873423,1.2091318
278206325,0.32680506,0.029327672,1.1937621
278405632,0.30404645,0.03353318,1.1854352
278609037,0.38066426,0.04038567,1.1737667
278810262,0.40387994,0.05210502,1.1769085
279011987,0.35137534,0.043010004,1.1813377
279215117,0.39237073,0.04581718,1.1735784
279419139,0.31099364,0.05609159,1.172555
279622272,0.42767617,0.05426048,1.1590378
279826126,0.3120726,0.048968337,1.1663007
280028638,0.2039771,0.043995213,1.1520092
280228933,0.22544324,0.038585205,1.1575875
280432564,0.37188584,0.033173006,1.1699148
280635136,0.20421915,0.040999427,1.1753738
280834364,0.4232662,0.035649564,1.1840308
281039155,0.38555062,0.03480683,1.1844205
281241983,0.41208902,0.042839494,1.1850649
281445511,0.6547622,0.039661337,1.187448
281649009,0.31604466,0.03816193,1.2071723
281851822,0.49778098,0.031932067,1.2137691
282054925,0.24345565,0.023305373,1.2373517
282255420,0.22470166,0.0370484,1.2356676
282459063,0.45269182,0.041324593,1.2273834
282661450,0.20077334,0.043853533,1.2311531
282861479,0.4211336,0.04854951,1.2141536
283471880,0.4909699,0.049249604,1.2090627
283675857,0.24976261,0.041876018,1.1900139
283878331,0.36451206,0.038491026,1.1949
284082662,0.33684242,0.035162326,1.1911187
284285494,0.5202181,0.04807881,1.1846763
284484738,0.33964536,0.040130246,1.18022
284687943,0.3216538,0.039702702,1.1757073
284887991,0.38069218,0.045321096,1.1719253
285091719,0.2152441,0.052740186,1.1645703
286109458,0.22917911,0.042059977,1.1348215
286312014,0.36767402,0.045422833,1.1121502
286515133,0.23058695,0.044460725,1.0921274
286715199,0.30272165,0.042437132,1.072727
286919406,0.3066892,0.04330882,0.94940436
287121432,0.37884742,0.039979726,0.38467786
287326052,0.3776251,0.039212603,0.36138365
287528772,0.4761547,0.04116075,0.3632921
287732183,0.44615406,0.04128833,0.36984617
287932638,0.4503307,0.04011392,0.372177
288135279,0.43101886,0.04165147,0.40365422
288338404,0.38983855,0.041960713,0.3846333
288538353,0.38652217,0.040359788,0.38843834
288741779,0.34331673,0.039689064,0.4023799
288944712,0.30921504,0.03708,0.4049465
289148580,0.24110273,0.037138313,0.41443244
289351975,0.31635153,0.04018264,0.4192897
289555588,0.3186932,0.03982762,0.423522
289759128,0.27716938,0.041794967,0.44068912
289962296,0.30477592,0.036105648,0.44842377
290165847,0.2643641,0.028203018,0.4525319
290365144,0.27524635,0.021779476,0.48422563
290568780,0.26239052,0.037409153,0.48171476
290772224,0.27965042,0.035118923,0.516542
290975223,0.2374294,0.039206088,0.52424806
291179274,0.18697798,0.0382208,0.5254127
291382417,0.19581331,0.03380969,0.52570295
291586371,0.28116322,0.04473856,0.5419441
291789546,0.22650988,0.047926553,0.53107965
291993048,0.25618777,0.0465421,0.5224837
292192844,0.30742618,0.05264236,0.5141287
292395792,0.17405678,0.054290455,0.49691516
292595888,0.2723081,0.05785006,0.4846644
292798357,0.2882405,0.055101287,0.47027928
293001751,0.1719619,0.048408773,0.46990365
293205694,0.27437934,0.039122723,0.44871825
293408808,0.26599252,0.03734175,0.42652687
293609571,0.27582103,0.036600545,0.40821454
293812681,0.46143135,0.04012893,0.39996547
294015189,0.4372509,0.043588102,0.39307523
294218652,0.4480195,0.044144426,0.39238322
294418898,0.4170741,0.04544652,0.40026018
294621485,0.41733775,0.049842972,0.39653912
294825088,0.47106835,0.048814517,0.4127434
295027918,0.41739938,0.040273204,0.4202645
295232193,0.39792433,0.041389033,0.42355925
295432203,0.34596372,0.026061837,0.4280478
295634923,0.30817178,0.019368224,0.43786913
295835012,0.33665708,0.022008691,0.44227198
296037623,0.34493572,0.026034359,0.449808
296241380,0.3564429,0.048115056,0.4734246
296441511,0.37031293,0.062376972,0.5067625
296643993,0.2776617,0.05754194,0.5760585
296847612,0.45438534,0.05293888,0.6507925
297047921,0.42441317,0.044666544,0.6916582
297250544,0.21077293,0.02776466,0.7449331
297453947,0.20036918,0.037680265,0.7111498
