timestamp,lat,lon,alt,alt_ellipsoid,delta_alt,vel_n,vel_e,vel_d,yaw,eph,epv,terrain_alt,lat_lon_reset_counter,alt_reset_counter,terrain_alt_valid,dead_reckoning
45058065,49.089604988393134,2.1103567541754815,81.222015,127.2518,-0.0,0.032076895,0.024377624,0.021219404,0.904258,1.6796334,1.7458361,0.0,2,0,0,0
45066073,49.08960498895763,2.1103567553798976,81.22204,127.25183,-0.0,0.03185893,0.024356041,0.021123236,0.9046162,1.679846,1.7459826,0.0,2,0,0,0
45266104,49.08960497946271,2.1103567914830577,81.22532,127.255005,-0.0,0.025246019,0.0247881,0.016891018,0.91066086,1.6254961,1.7473729,0.0,2,0,0,0
45465271,49.08960494899502,2.110356812136189,81.217735,127.24786,-0.0,0.014514125,0.022564491,0.02066159,0.9135139,1.5891328,1.7484235,0.0,2,0,0,0
45672465,49.08960492327517,2.1103568263839754,81.207535,127.23822,-0.0,0.0050196797,0.021404548,0.024900027,0.91209745,1.5371933,1.7489866,0.0,2,0,0,0
45872465,49.089604932546976,2.1103568608205947,81.205154,127.23616,-0.0,0.002991757,0.022190874,0.02436562,0.9093031,1.5222416,1.7495345,0.0,2,0,0,0
46079671,49.089604930793676,2.1103568917982334,81.21445,127.24615,-0.0,-0.00052897155,0.020807715,0.017612483,0.90585,1.510906,1.7503563,0.0,2,0,0,0
46279669,49.08960490948604,2.1103569578625314,81.215805,127.24866,-0.0,-0.007877439,0.023990422,0.014663586,0.9037465,1.5017041,1.750433,0.0,2,0,0,0
46482865,49.089604894055014,2.1103569870895633,81.21761,127.25107,-0.0,-0.014388145,0.022478089,0.012931035,0.90339285,1.4944197,1.7507087,0.0,2,0,0,0
46690065,49.08960481429248,2.1103569471375327,81.217834,127.25215,-0.0,-0.027559878,0.014569291,0.012081527,0.90094423,1.4890201,1.7506602,0.0,2,0,0,0
46889326,49.08960473250369,2.1103568708115237,81.2177,127.25232,-0.0,-0.03714633,0.006929698,0.011984047,0.8984212,1.4841844,1.7506539,0.0,2,0,0,0
47089327,49.089604659159356,2.1103569008921035,81.20951,127.24366,-0.0,-0.042973932,0.008769012,0.014685041,0.8978227,1.4801922,1.7505646,0.0,2,0,0,0
47296465,49.0896045391989,2.11035688361789,81.200714,127.23425,-0.0,-0.053027835,0.0058671976,0.017620418,0.89780563,1.477283,1.7502002,0.0,2,0,0,0
47495671,49.0896044195453,2.110356808824541,81.199326,127.23276,-0.0,-0.061154466,-0.00077316014,0.01577052,0.89817846,1.4744899,1.7496856,0.0,2,0,0,0
47695665,49.08960431168938,2.110356806063024,81.198944,127.231705,-0.0,-0.06831991,-0.000555384,0.014974597,0.8985287,1.4721546,1.7495006,0.0,2,0,0,0
47898865,49.08960419136733,2.1103567810737025,81.19522,127.22792,-0.0,-0.0749342,-0.0018814382,0.015109039,0.8987477,1.470157,1.7493098,0.0,2,0,0,0
48106865,49.089604122644914,2.1103568139041724,81.187065,127.21971,-0.0,-0.07484056,0.0008645264,0.017468167,0.89908135,1.4691416,1.7489578,0.0,2,0,0,0
48306102,49.08960414281258,2.1103569293598423,81.17969,127.21288,-0.0,-0.066853896,0.0074275797,0.018392162,0.8989954,1.4676421,1.7484615,0.0,2,0,0,0
48509319,49.0896042265017,2.110357001232739,81.17917,127.21289,-0.0,-0.05763422,0.01165278,0.01728206,0.89883316,1.4665129,1.7482923,0.0,2,0,0,0
48710087,49.08960428446455,2.1103570180938753,81.17633,127.21107,-0.0,-0.051891983,0.012044969,0.015842076,0.89853764,1.4656788,1.7478973,0.0,2,0,0,0
48908471,49.08960434900292,2.1103570048693676,81.17331,127.20836,-0.0,-0.04385589,0.009132856,0.01589233,0.89797735,1.4647927,1.7477618,0.0,2,0,0,0
49115673,49.08960445935808,2.110357038051181,81.17806,127.2133,-0.0,-0.035628777,0.012002794,0.013290836,0.8977285,1.4645303,1.74748,0.0,2,0,0,0
49314884,49.08960452616922,2.1103570918740004,81.17622,127.21217,-0.0,-0.031614866,0.0140013285,0.013264827,0.89686656,1.463919,1.7474022,0.0,2,0,0,0
49514865,49.08960454645845,2.110357118457154,81.16492,127.20175,-0.0,-0.029618397,0.013588863,0.014861438,0.8959401,1.4634606,1.7470984,0.0,2,0,0,0
49722065,49.08960457430272,2.1103571169720334,81.16524,127.20315,-0.0,-0.028987633,0.014014462,0.013983845,0.8946933,1.4634614,1.7471552,0.0,2,0,0,0
49922094,49.08960465549854,2.1103570922938055,81.16474,127.20459,-0.0,-0.022926822,0.012743032,0.01278718,0.8939636,1.4631019,1.7471403,0.0,2,0,0,0
50129325,49.0896047832698,2.110357095950693,81.17003,127.21187,-0.0,-0.015012717,0.012378261,0.009388561,0.8943484,1.4632163,1.7469804,0.0,2,0,0,0
50328465,49.089604934814666,2.1103571204228584,81.17376,127.217896,-0.0,-0.0070345094,0.013998091,0.008197783,0.8941789,1.4629592,1.746776,0.0,2,0,0,0
50536472,49.08960514267764,2.1103572245396625,81.17982,127.22739,-0.0,0.004903741,0.01853859,0.004140634,0.89396137,1.463133,1.7466791,0.0,2,0,0,0
50735688,49.08960530233803,2.1103573257098596,81.17727,127.228615,-0.0,0.012140369,0.022397744,0.0017412767,0.8947024,1.462995,1.7467648,0.0,2,0,0,0
50938865,49.08960544016231,2.1103573955031294,81.17603,127.23124,-0.0,0.016718537,0.025390554,0.0009056763,0.8951514,1.4627938,1.7468541,0.0,2,0,0,0
51138901,49.08960555375454,2.1103574229181676,81.184715,127.24359,-0.0,0.019878928,0.025332728,-0.0033423903,0.89530087,1.4628477,1.7467577,0.0,2,0,0,0
51346078,49.08960563143193,2.1103574009545443,81.19656,127.25954,-0.0,0.02069189,0.024135642,-0.0050680726,0.8954427,1.4630567,1.7467152,0.0,2,0,0,0
51545271,49.08960563605941,2.110357285753204,81.19999,127.26581,-0.0,0.016996952,0.01565338,-0.007085396,0.8957062,1.4628441,1.7468393,0.0,2,0,0,0
51753281,49.089605572423054,2.110357100131754,81.18878,127.25679,-0.0,0.007850319,0.010755936,-0.004430955,0.89640796,1.4630545,1.7468038,0.0,2,0,0,0
51952464,49.08960551832903,2.11035695505444,81.1769,127.24754,-0.0,0.005615201,0.0053305277,0.0017284048,0.896868,1.4628807,1.7469221,0.0,2,0,0,0
52155671,49.08960547101053,2.1103567806609758,81.17572,127.24907,-0.0,0.0016019006,0.0010054329,0.004675335,0.89691305,1.462812,1.7468042,0.0,2,0,0,0
52363674,49.08960547363578,2.110356624094473,81.18472,127.26114,-0.0,-0.001600887,-0.0054468876,-0.002258792,0.89685726,1.4632524,1.7470677,0.0,2,0,0,0
52562882,49.08960547969226,2.1103565318506097,81.18607,127.26565,-0.0,-0.0010389981,-0.005657188,-0.002361079,0.8968655,1.4631827,1.7469505,0.0,2,0,0,0
52770111,49.08960548191769,2.110356474968942,81.19205,127.275055,-0.0,-7.8536774e-05,-0.0029646682,-0.0028449218,0.8973988,1.4633541,1.7471454,0.0,2,0,0,0
52969345,49.08960553506004,2.110356429623474,81.200226,127.286255,-0.0,-0.0006555067,0.0050670723,-0.0066674957,0.8973802,1.4631523,1.7469974,0.0,2,0,0,0
53169326,49.08960557793324,2.110356439521411,81.20907,127.298096,-0.0,0.0010928386,-0.0019110412,-0.010866703,0.89634734,1.4629593,1.7470864,0.0,2,0,0,0
54186864,49.089606064885416,2.1103566958075057,81.20499,127.29683,-0.0,0.021510538,0.0144329695,-0.008493495,0.8973653,1.4631065,1.7470007,0.0,2,0,0,0
54386065,49.08960610212649,2.1103567599534268,81.19108,127.2815,-0.0,0.024789916,0.016369348,-0.00028837472,0.8969653,1.4627001,1.747071,0.0,2,0,0,0
54593264,49.089606039408494,2.1103567635031113,81.17784,127.266525,-0.0,0.018077934,0.018978667,0.0027781427,0.8967302,1.4626629,1.7469852,0.0,2,0,0,0
54793314,49.089605958119485,2.110356811216894,81.167336,127.254196,-0.0,0.01373727,0.020028519,0.005808025,0.89709157,1.4621453,1.7470433,0.0,2,0,0,0
54992482,49.08960588845961,2.110356835968919,81.167755,127.252235,-0.0,0.01287466,0.022834279,0.0051282328,0.89765304,1.4615362,1.7468462,0.0,2,0,0,0
55195665,49.08960579372149,2.1103567780278287,81.17034,127.25274,-0.0,0.0091125555,0.019300608,0.004330967,0.8978708,1.4609592,1.7469026,0.0,2,0,0,0
55403672,49.08960574388978,2.1103567567546087,81.16728,127.24786,-0.0,0.009166125,0.022324018,0.006481297,0.8979125,1.4608245,1.7468333,0.0,2,0,0,0
55602874,49.08960577172077,2.110356632199218,81.17029,127.25125,-0.0,0.012392586,0.018724151,0.0047105127,0.8983501,1.4601109,1.746868,0.0,2,0,0,0
55809329,49.08960577362176,2.110356451038043,81.17751,127.25891,-0.0,0.0145351365,0.01264641,0.0024946046,0.8989227,1.4598615,1.7467673,0.0,2,0,0,0
56010073,49.08960577045258,2.110356313144432,81.184395,127.26738,-0.0,0.0154987285,0.009349391,0.0010129944,0.89939594,1.459179,1.7467991,0.0,2,0,0,0
56209319,49.08960575928471,2.1103561977575915,81.19125,127.27527,-0.0,0.015181039,0.0061871596,-0.00038437455,0.8997363,1.45847,1.7468231,0.0,2,0,0,0
56412465,49.08960571192218,2.1103561226313174,81.20449,127.289215,-0.0,0.014772304,0.0060172626,-0.004809103,0.9001249,1.4578733,1.7466205,0.0,2,0,0,0
56612471,49.089605643812256,2.11035604148263,81.22403,127.30905,-0.0,0.012019668,0.0049780137,-0.011043917,0.900627,1.4573989,1.7464592,0.0,2,0,0,0
56819694,49.08960560991793,2.1103559669244416,81.23988,127.32435,-0.0,0.012161431,0.0045139426,-0.015545586,0.9012464,1.4570612,1.7465771,0.0,2,0,0,0
57018865,49.08960558065599,2.1103558799120585,81.246155,127.3302,-0.0,0.012455314,0.0031282958,-0.017102543,0.9016328,1.4564369,1.7463831,0.0,2,0,0,0
57218865,49.089605540592544,2.1103557358747644,81.24787,127.33157,-0.0,0.011025339,3.754387e-05,-0.016325435,0.90180314,1.4557855,1.7464149,0.0,2,0,0,0
57426065,49.08960550350854,2.1103555256326914,81.24711,127.3309,-0.0,0.009306219,-0.0061533987,-0.015600396,0.9023654,1.4554873,1.746296,0.0,2,0,0,0
57625267,49.08960545724414,2.1103553423406276,81.24978,127.331985,-0.0,0.00770509,-0.010557024,-0.014887823,0.9028211,1.4548606,1.7463443,0.0,2,0,0,0
57833271,49.08960538768651,2.110355164461813,81.25496,127.33635,-0.0,0.0046126107,-0.012262602,-0.015971893,0.90295035,1.4546012,1.7462353,0.0,2,0,0,0
58036506,49.08960537744786,2.1103550597881546,81.25761,127.338036,-0.0,0.007695357,-0.013866191,-0.015990946,0.9028604,1.4540117,1.7462814,0.0,2,0,0,0
58235664,49.08960540795536,2.110355015819876,81.25183,127.33158,-0.0,0.009997222,-0.014120499,-0.01390436,0.90282714,1.4535977,1.746128,0.0,2,0,0,0
58443665,49.08960540915803,2.1103549944617597,81.244415,127.32211,-0.0,0.011494725,-0.01030552,-0.011445355,0.90273374,1.4533641,1.7460248,0.0,2,0,0,0
58642883,49.08960541573883,2.1103550037533063,81.24163,127.317,-0.0,0.01442348,-0.008892592,-0.010557912,0.90258884,1.4528792,1.7460742,0.0,2,0,0,0
58842899,49.089605359743075,2.1103549447637713,81.22425,127.2975,-0.0,0.010149054,-0.008552609,-0.0054825195,0.9025436,1.4523969,1.7461168,0.0,2,0,0,0
59050065,49.08960526346432,2.110354860299323,81.20533,127.27551,-0.0,0.0062852455,-0.008908028,-3.956735e-05,0.9027644,1.4523149,1.7460095,0.0,2,0,0,0
59249342,49.08960517272182,2.1103547582253204,81.19466,127.26149,-0.0,0.0034011074,-0.012911185,0.0032694186,0.9032539,1.4519044,1.746051,0.0,2,0,0,0
59456474,49.08960510497788,2.1103546609818737,81.18593,127.249466,-0.0,0.0026933167,-0.012135532,0.005022685,0.9035597,1.4518816,1.7459457,0.0,2,0,0,0
59656471,49.089605027076004,2.110354578844405,81.186844,127.24655,-0.0,-0.00024504235,-0.011820442,0.0052464562,0.90400386,1.451484,1.7459886,0.0,2,0,0,0
59863665,49.08960490094973,2.1103545026105888,81.18776,127.2439,-0.0,-0.0017480456,-0.012644968,0.00582853,0.9044565,1.4514616,1.7458905,0.0,2,0,0,0
60062871,49.0896047532899,2.1103543906532454,81.186935,127.23922,-0.0,-0.006805918,-0.0153412055,0.0074834893,0.9048175,1.4511406,1.7459434,0.0,2,0,0,0
60262864,49.089604649385,2.110354318298853,81.19092,127.23861,-0.0,-0.0111795,-0.01332677,0.0066555557,0.90518165,1.4508009,1.745988,0.0,2,0,0,0
60470106,49.08960454785549,2.110354285610645,81.195244,127.237724,-0.0,-0.012470762,-0.012736005,0.0079951985,0.9053487,1.4508128,1.7458915,0.0,2,0,0,0
60669336,49.08960444066338,2.1103542829498125,81.20445,127.24031,-0.0,-0.01221155,-0.009426063,0.004629516,0.90561783,1.441917,1.7457863,0.0,2,0,0,0
60869364,49.08960437339936,2.110354365580246,81.20712,127.23567,-0.0,-0.0127745,-0.003978954,0.0035587056,0.9059304,1.4416608,1.7456136,0.0,2,0,0,0
61072474,49.08960424557199,2.1103544291221463,81.20713,127.22733,-0.0,-0.014660235,-7.0504095e-05,0.0050742966,0.90604454,1.4499722,1.7458034,0.0,2,0,0,0
61271674,49.08960411124599,2.1103545006115665,81.21588,127.22724,-0.0,-0.0184523,0.0037331108,0.002670858,0.90632147,1.4498574,1.7456778,0.0,2,0,0,0
61479665,49.08960397295825,2.1103546119617747,81.22043,127.22337,-0.0,-0.021363067,0.009247696,0.0016573874,0.90668625,1.4413086,1.7456673,0.0,2,0,0,0
61678888,49.08960385708652,2.1103547140108176,81.22904,127.22215,-0.0,-0.021549124,0.012608602,-0.00065663276,0.9066867,1.4410381,1.7455038,0.0,2,0,0,0
62082097,49.089603595330054,2.1103548491520217,81.249985,127.22291,-0.0,-0.026917098,0.016296118,-0.0049501527,0.9071425,1.4407072,1.7454363,0.0,2,0,0,0
62688465,49.08960316777467,2.110355074548371,81.24813,127.18731,-0.0,-0.034091007,0.022350758,-0.0037675526,0.9084106,1.4402523,1.7454727,0.0,2,0,0,0
62891699,49.089603024213105,2.110355170042826,81.25264,127.18076,-0.0,-0.036768764,0.024135528,-0.0053631896,0.90878147,1.4400277,1.7453364,0.0,2,0,0,0
63091690,49.08960287936695,2.1103552116229407,81.25105,127.16789,-0.0,-0.038762186,0.02489833,-0.0054102377,0.9091523,1.4399498,1.7454377,0.0,2,0,0,0
63290865,49.08960273546328,2.110355278510784,81.24158,127.14768,-0.0,-0.040078603,0.025502853,-0.0017904525,0.90990263,1.4397194,1.7452971,0.0,2,0,0,0
63498065,49.08960252870909,2.110355307803942,81.237686,127.132904,-0.0,-0.04613726,0.025002507,-0.000843234,0.9104086,1.4398365,1.7454424,0.0,2,0,0,0
63697283,49.089602369601906,2.110355364205696,81.23907,127.12311,-0.0,-0.048407715,0.026529487,-0.0008164082,0.91059786,1.4396214,1.7455003,0.0,2,0,0,0
63905283,49.08960224469178,2.1103554194039025,81.23394,127.1068,-0.0,-0.04799923,0.027224548,0.0014848652,0.91099274,1.4397333,1.7454245,0.0,2,0,0,0
64104471,49.08960212293785,2.1103554897719303,81.236984,127.09906,-0.0,-0.048525106,0.028780403,0.0014760343,0.911834,1.4395964,1.7454894,0.0,2,0,0,0
64312465,49.089602000406124,2.110355576305828,81.23552,127.08505,-0.0,-0.049425382,0.029958814,0.0030836242,0.91208184,1.4396851,1.7454194,0.0,2,0,0,0
64515690,49.089601890593755,2.1103556623961843,81.2397,127.077866,-0.0,-0.049096465,0.030745635,0.0029347937,0.9122376,1.4395224,1.7452867,0.0,2,0,0,0
64714865,49.089601810039916,2.1103557444447905,81.24406,127.07021,-0.0,-0.047097575,0.030963115,0.0016753243,0.9126835,1.4394865,1.7453902,0.0,2,0,0,0
64922104,49.08960173333618,2.110355834017685,81.24692,127.06082,-0.0,-0.044635106,0.03229436,0.0015819975,0.9130112,1.4396102,1.745327,0.0,2,0,0,0
65122065,49.08960163101226,2.1103558738344264,81.2477,127.04938,-0.0,-0.044933554,0.03170739,0.0015163121,0.91342235,1.4394358,1.7453954,0.0,2,0,0,0
65325277,49.08960154076687,2.110355920644076,81.24624,127.035416,-0.0,-0.044217706,0.032393366,0.0027573172,0.9137537,1.4392802,1.7452652,0.0,2,0,0,0
65524465,49.08960147576457,2.1103559887856984,81.24309,127.01999,-0.0,-0.042409185,0.033560142,0.0031701298,0.9137439,1.4392444,1.745365,0.0,2,0,0,0
65732465,49.08960139098113,2.1103560645238955,81.24243,127.00719,-0.0,-0.041326065,0.03429668,0.0055795433,0.91391695,1.4393699,1.7452985,0.0,2,0,0,0
65931673,49.08960129526012,2.1103560963801224,81.24514,126.99811,-0.0,-0.040774968,0.034064103,0.004974017,0.9142016,1.4392227,1.745173,0.0,2,0,0,0
66138911,49.0896012035417,2.110356125513662,81.24179,126.98271,-0.0,-0.0399817,0.033416733,0.0075617693,0.9144178,1.4393576,1.7453215,0.0,2,0,0,0
66338882,49.08960115249619,2.1103561983459223,81.24217,126.96982,-0.0,-0.036143012,0.034464076,0.0075140526,0.9142433,1.4391005,1.7453936,0.0,2,0,0,0
66538065,49.08960111230357,2.110356277852836,81.243004,126.95943,-0.0,-0.033698075,0.035531137,0.007282767,0.91452074,1.4389477,1.7452633,0.0,2,0,0,0
66745272,49.089601103455465,2.1103563811698995,81.24829,126.95372,-0.0,-0.030361976,0.038160603,0.0071582245,0.91520315,1.4391559,1.7454034,0.0,2,0,0,0
66945265,49.089601110773444,2.1103564923686426,81.25686,126.94953,-0.0,-0.024371447,0.039077688,0.0059501254,0.91568625,1.4390252,1.7452652,0.0,2,0,0,0
67144464,49.089601120301246,2.1103565862005245,81.26377,126.94408,-0.0,-0.019693082,0.040257208,0.003903904,0.915755,1.438958,1.745341,0.0,2,0,0,0
67343695,49.089601135406774,2.110356692115848,81.268745,126.935844,-0.0,-0.015789758,0.041733935,0.0039205244,0.9156977,1.4388028,1.7454057,0.0,2,0,0,0
67543665,49.08960112554503,2.1103567847572946,81.26183,126.91645,-0.0,-0.012174471,0.04223526,0.0054043136,0.915495,1.4386522,1.7452708,0.0,2,0,0,0
67751671,49.0896010965789,2.1103568613146857,81.25079,126.89287,-0.0,-0.010305592,0.04295131,0.008230664,0.915428,1.4388515,1.7452202,0.0,2,0,0,0
67954068,49.08960106305486,2.1103569123105017,81.241875,126.87201,-0.0,-0.009711532,0.041739788,0.0114400815,0.91564727,1.4388933,1.7453254,0.0,2,0,0,0
68154069,49.08960101420657,2.1103569433712948,81.233864,126.85251,-0.0,-0.0100441165,0.04015146,0.013464377,0.9156588,1.43878,1.7451893,0.0,2,0,0,0
68357272,49.08960098860274,2.1103569625229586,81.230995,126.838745,-0.0,-0.008145551,0.038947888,0.012899083,0.91577893,1.4387009,1.7452618,0.0,2,0,0,0
68565265,49.08960100090105,2.110357000216635,81.22531,126.82233,-0.0,-0.0041514384,0.038914867,0.015568256,0.9157343,1.4390491,1.7452374,0.0,2,0,0,0
68764496,49.08960102509991,2.1103570731694234,81.21665,126.80318,-0.0,0.00012635664,0.038870238,0.01816239,0.91555774,1.4389359,1.7453126,0.0,2,0,0,0
68971679,49.08960103532189,2.110357151197355,81.21353,126.79007,-0.0,0.0025261985,0.039593756,0.018057039,0.9156172,1.4391724,1.7452674,0.0,2,0,0,0
69171682,49.08960103189741,2.1103572237526964,81.20624,126.7726,-0.0,0.0052868947,0.040313605,0.019021362,0.9155308,1.4390446,1.7451475,0.0,2,0,0,0
69370871,49.08960103548778,2.11035728638259,81.19461,126.75203,-0.0,0.007054419,0.040899944,0.02195161,0.9153008,1.4389846,1.7452264,0.0,2,0,0,0
69578073,49.08960104144316,2.1103573055877147,81.1788,126.72641,-0.0,0.008882369,0.038929436,0.027254906,0.91541815,1.4392303,1.7453793,0.0,2,0,0,0
69777265,49.08960104853306,2.110357306021945,81.16779,126.70653,-0.0,0.012522731,0.037028547,0.029186396,0.91546047,1.4391387,1.7452462,0.0,2,0,0,0
69985265,49.08960107080542,2.1103573362624943,81.16303,126.693375,-0.0,0.013221238,0.03597183,0.030569565,0.9155242,1.4393989,1.7451866,0.0,2,0,0,0
70188465,49.08960108160015,2.1103573692540727,81.15617,126.67828,-0.0,0.016035186,0.03617358,0.03166551,0.9154539,1.4393616,1.7452698,0.0,2,0,0,0
70387669,49.089601074472725,2.1103573900100563,81.15622,126.670265,-0.0,0.015666423,0.034516204,0.030734196,0.91577274,1.4394515,1.7451842,0.0,2,0,0,0
70595676,49.08960108368346,2.110357430191349,81.1566,126.663155,-0.0,0.017477516,0.033896457,0.028789552,0.9158999,1.4397258,1.7451367,0.0,2,0,0,0
70794865,49.089601098340864,2.110357469221634,81.15939,126.65843,-0.0,0.018861072,0.034103226,0.027514696,0.91605836,1.4397149,1.7452255,0.0,2,0,0,0
70994865,49.089601109739164,2.1103575174979357,81.161545,126.65323,-0.0,0.018710392,0.03325611,0.025084063,0.91630036,1.4396776,1.7453008,0.0,2,0,0,0
71194073,49.08960113577101,2.1103575765812916,81.16627,126.65056,-0.0,0.021676991,0.03447586,0.023555178,0.91625637,1.4396417,1.7453732,0.0,2,0,0,0
71401320,49.08960116983432,2.110357614695131,81.16624,126.64308,-0.0,0.021774383,0.03382553,0.024254702,0.916414,1.4399304,1.7453219,0.0,2,0,0,0
71600465,49.089601171896454,2.110357632900062,81.16735,126.63677,-0.0,0.022406965,0.03178459,0.023543667,0.9169687,1.4398698,1.745393,0.0,2,0,0,0
71808464,49.089601163460024,2.1103576347308075,81.1676,126.62976,-0.0,0.021153262,0.029501917,0.022402875,0.91775626,1.4401242,1.7453388,0.0,2,0,0,0
72007665,49.08960117544663,2.110357662686481,81.170074,126.62513,-0.0,0.022274535,0.029675303,0.023534529,0.91811323,1.4401263,1.7452197,0.0,2,0,0,0
73025287,49.08960123981159,2.1103579788446147,81.132416,126.54587,-0.0,0.023341775,0.03023236,0.03135064,0.91741586,1.4405448,1.745365,0.0,2,0,0,0
73228465,49.08960120605276,2.1103581282486914,81.130135,126.536446,-0.0,0.019308086,0.031084122,0.030574245,0.91789377,1.4405183,1.7452428,0.0,2,0,0,0
73427673,49.08960119321332,2.1103582452062293,81.127686,126.52699,-0.0,0.016975004,0.029845072,0.031968027,0.91804856,1.4405932,1.745349,0.0,2,0,0,0
73635710,49.08960119918664,2.110358368820772,81.12567,126.517975,-0.0,0.019451145,0.032683413,0.030929651,0.9183448,1.4408464,1.7452863,0.0,2,0,0,0
73834865,49.08960118657958,2.1103584561728885,81.127014,126.51216,-0.0,0.01570791,0.030060386,0.030899893,0.9183601,1.440804,1.7453611,0.0,2,0,0,0
74036465,49.08960117308645,2.1103585409167582,81.131424,126.5094,-0.0,0.014909566,0.029272836,0.030116566,0.9184945,1.4406966,1.7454284,0.0,2,0,0,0
74242083,49.08960114245565,2.110358611284371,81.1426,126.51311,-0.0,0.013507012,0.027093189,0.025191154,0.91824585,1.4409128,1.745362,0.0,2,0,0,0
74441265,49.08960113486402,2.1103586917197026,81.15975,126.523445,-0.0,0.01303992,0.025573932,0.019911267,0.91826355,1.4408368,1.7454286,0.0,2,0,0,0
74648488,49.0896011576633,2.1103587771996373,81.17678,126.53273,-0.0,0.014764768,0.024851117,0.014155758,0.91870505,1.441116,1.7453585,0.0,2,0,0,0
74848479,49.089601195430355,2.1103588333806913,81.19004,126.53843,-0.0,0.016253773,0.023083845,0.011425638,0.918918,1.4410021,1.7454258,0.0,2,0,0,0
75047677,49.08960121592306,2.110358879657119,81.20299,126.543915,-0.0,0.017016748,0.020950802,0.0073491326,0.91885865,1.4409238,1.7452959,0.0,2,0,0,0
75247665,49.08960124919492,2.1103589252783137,81.21576,126.549225,-0.0,0.017782519,0.019137882,0.003071742,0.91859746,1.4408364,1.7453629,0.0,2,0,0,0
75458917,49.089601302118155,2.1103589721481777,81.229225,126.55425,-0.0,0.02005275,0.017065668,-0.0007776085,0.9183397,1.4412489,1.7453347,0.0,2,0,0,0
75658065,49.08960132975009,2.110358978710541,81.23999,126.55713,-0.0,0.020809826,0.0136287855,-0.0026472288,0.91831917,1.4411517,1.7454041,0.0,2,0,0,0
75865265,49.08960134505314,2.110358939766918,81.2484,126.55706,-0.0,0.020645099,0.008857318,-0.004607993,0.9180584,1.4413952,1.7453353,0.0,2,0,0,0
76065265,49.08960137427469,2.11035896669943,81.24733,126.547195,-0.0,0.02066497,0.0068116034,-0.0045272163,0.91809255,1.4413098,1.7453998,0.0,2,0,0,0
76272464,49.08960141050198,2.110359008272993,81.247635,126.53871,-0.0,0.02144548,0.0063106907,-0.0050996253,0.9182785,1.4415983,1.7453388,0.0,2,0,0,0
76472471,49.089601387625514,2.110359014213066,81.24929,126.53258,-0.0,0.01961249,0.0030077759,-0.005981409,0.91844237,1.433714,1.7452714,0.0,2,0,0,0
76671685,49.0896013883497,2.110359010787108,81.24861,126.523605,-0.0,0.017758954,0.0014142856,-0.006220195,0.9186224,1.4414197,1.745466,0.0,2,0,0,0
76878870,49.08960141629413,2.1103590147352898,81.25292,126.52039,-0.0,0.018613907,-0.0014048201,-0.008229421,0.9189785,1.4338837,1.745275,0.0,2,0,0,0
77082065,49.08960144623075,2.1103590506849357,81.2565,126.51674,-0.0,0.018624153,-0.0022843925,-0.0087768445,0.91903037,1.4338324,1.7453387,0.0,2,0,0,0
77282072,49.08960143795996,2.1103590778192136,81.26441,126.517075,-0.0,0.018160546,-0.0041200346,-0.011813493,0.9193905,1.4339217,1.7452332,0.0,2,0,0,0
77481265,49.089601417268916,2.1103591283223255,81.266,126.51131,-0.0,0.016985592,-0.0044515077,-0.012502687,0.9193513,1.4338958,1.7452995,0.0,2,0,0,0
77689328,49.08960141552116,2.110359190389429,81.257256,126.495636,-0.0,0.014178908,-0.0044619786,-0.008839218,0.91883653,1.4341145,1.7452302,0.0,2,0,0,0
77888502,49.089601430634204,2.110359241885829,81.255035,126.486984,-0.0,0.012347097,-0.005920838,-0.009114618,0.9186101,1.4340458,1.7452898,0.0,2,0,0,0
78095670,49.089601440740914,2.110359293650502,81.26023,126.486,-0.0,0.014223119,-0.005312693,-0.011887759,0.9176706,1.434332,1.7452286,0.0,2,0,0,0
78295665,49.089601432833554,2.1103593315942906,81.261604,126.48093,-0.0,0.011812162,-0.008192458,-0.009273153,0.91708755,1.4342455,1.7452897,0.0,2,0,0,0
78498878,49.08960145224293,2.110359338466876,81.2618,126.47537,-0.0,0.012560517,-0.009611748,-0.010186857,0.9163104,1.4343556,1.7453878,0.0,2,0,0,0
78698104,49.089601488102495,2.1103593960384095,81.25944,126.467064,-0.0,0.013955436,-0.008944309,-0.009712351,0.9163683,1.4343486,1.7452494,0.0,2,0,0,0
78906081,49.08960150378052,2.1103594191794883,81.25903,126.46097,-0.0,0.0152663,-0.011233644,-0.008861188,0.9162388,1.4346113,1.7453815,0.0,2,0,0,0
79105265,49.08960151732835,2.1103594128299457,81.25921,126.45535,-0.0,0.014117344,-0.014467289,-0.007936877,0.9163132,1.4346099,1.7452446,0.0,2,0,0,0
79312465,49.08960153517597,2.110359439851882,81.25828,126.44867,-0.0,0.014256277,-0.014133786,-0.0069359257,0.9166803,1.4348783,1.7453775,0.0,2,0,0,0
79513274,49.089601543178475,2.1103595010218767,81.25352,126.438446,-0.0,0.014715477,-0.01409651,-0.0054338295,0.91686046,1.434854,1.7452352,0.0,2,0,0,0
79715664,49.08960155250739,2.11035962106548,81.24975,126.429756,-0.0,0.014864232,-0.010870699,-0.0040320773,0.9168115,1.4350032,1.7453395,0.0,2,0,0,0
79914865,49.0896015813564,2.1103597590572023,81.24875,126.42314,-0.0,0.014981638,-0.007241564,-0.0040927017,0.91693705,1.4350047,1.7452085,0.0,2,0,0,0
80122112,49.08960158416469,2.1103598726599953,81.24886,126.41818,-0.0,0.014092597,-0.005699083,-0.0030710178,0.9169027,1.435277,1.7453463,0.0,2,0,0,0
80322104,49.08960156197568,2.1103599756577034,81.24848,126.412766,-0.0,0.012415822,-0.0037205154,-0.0042917957,0.9169811,1.4352257,1.745208,0.0,2,0,0,0
80521295,49.08960154504359,2.1103601097632456,81.24622,126.406044,-0.0,0.009994429,-0.0012366401,-0.0028753255,0.9169133,1.4352336,1.7452798,0.0,2,0,0,0
80721279,49.08960154236367,2.1103602311267284,81.24336,126.39874,-0.0,0.0100423405,0.0009407842,-0.002219773,0.9166255,1.4351876,1.745345,0.0,2,0,0,0
80928465,49.08960154599184,2.110360382968595,81.239555,126.39077,-0.0,0.010843315,0.0028163944,-0.0005213803,0.9165331,1.435475,1.7452803,0.0,2,0,0,0
81127665,49.089601535372395,2.110360528281863,81.230644,126.377556,-0.0,0.008958989,0.004510053,0.003003445,0.9157418,1.4354963,1.7451589,0.0,2,0,0,0
81334918,49.0896015292503,2.1103606908608,81.22939,126.37239,-0.0,0.009088882,0.008217759,0.0023494312,0.9152475,1.4357603,1.745303,0.0,2,0,0,0
81534871,49.0896015406277,2.1103608337152053,81.23303,126.372025,-0.0,0.008147419,0.008901313,0.0019160687,0.9152846,1.4356956,1.745172,0.0,2,0,0,0
81742066,49.089601559379346,2.1103609767537805,81.23295,126.368256,-0.0,0.009472497,0.011852839,0.0006438216,0.9158969,1.4360238,1.7453227,0.0,2,0,0,0
81942065,49.08960155882482,2.110361095637116,81.23211,126.36344,-0.0,0.007595218,0.013492412,-0.0003017881,0.9161237,1.4360211,1.7451912,0.0,2,0,0,0
82141309,49.08960154438424,2.1103612289613713,81.23576,126.363174,-0.0,0.0055372617,0.014630835,-0.0018830849,0.91609955,1.4360176,1.7452607,0.0,2,0,0,0
82344471,49.08960154010906,2.1103613612137617,81.23968,126.363434,-0.0,0.0055394107,0.016060535,-0.002421536,0.91585714,1.4360411,1.745137,0.0,2,0,0,0
82543665,49.08960155633116,2.110361486916275,81.23999,126.35986,-0.0,0.005323958,0.018280733,-0.0019482089,0.91595703,1.4361684,1.7452488,0.0,2,0,0,0
82743671,49.08960156422376,2.1103616346249736,81.23945,126.35582,-0.0,0.0026677707,0.019421503,-0.0006234342,0.9158874,1.4361559,1.7451258,0.0,2,0,0,0
82946865,49.08960155709285,2.1103617872743197,81.22796,126.34088,-0.0,0.002769969,0.020319015,0.0025971888,0.9160774,1.4361496,1.7452096,0.0,2,0,0,0
83154119,49.089601541088115,2.110361961110502,81.22106,126.3307,-0.0,0.00039514934,0.022193719,0.00675353,0.9162576,1.4365834,1.7451954,0.0,2,0,0,0
83354080,49.08960154228829,2.1103621216770825,81.22239,126.32883,-0.0,0.00097133004,0.024511652,0.0039687105,0.91664946,1.4365627,1.7452799,0.0,2,0,0,0
83561306,49.08960157111959,2.1103623069870183,81.22292,126.32637,-0.0,0.0010217787,0.026288645,0.005387191,0.91702044,1.4368224,1.7452282,0.0,2,0,0,0
83760473,49.089601597026004,2.1103624605187434,81.222015,126.3224,-0.0,0.0021461796,0.027767178,0.0053075827,0.91686237,1.436786,1.7453028,0.0,2,0,0,0
83968464,49.089601622664404,2.110362585100691,81.218376,126.31552,-0.0,0.0024323591,0.027731935,0.0057619503,0.916528,1.4370872,1.7452509,0.0,2,0,0,0
84167669,49.089601650236546,2.110362715869908,81.21765,126.31119,-0.0,0.0033277706,0.027896373,0.004893397,0.9163722,1.4370828,1.7451377,0.0,2,0,0,0
84367665,49.08960169871067,2.110362876825297,81.220665,126.31114,-0.0,0.005557854,0.02891436,0.002695453,0.91619796,1.4370574,1.7452157,0.0,2,0,0,0
84574865,49.089601748452,2.1103630610768764,81.224,126.31201,-0.0,0.006173682,0.031749576,0.0020366283,0.9164242,1.4374015,1.7451715,0.0,2,0,0,0
84778064,49.08960177545943,2.1103632495152356,81.216484,126.30206,-0.0,0.007907103,0.033778105,0.0030690392,0.9164925,1.4374156,1.7452474,0.0,2,0,0,0
84977265,49.0896018059779,2.1103634059097724,81.207466,126.29112,-0.0,0.007918757,0.03528622,0.0054331026,0.9165709,1.4376063,1.7451588,0.0,2,0,0,0
85185305,49.08960181837806,2.110363530855146,81.1958,126.27786,-0.0,0.00642949,0.0346596,0.009137868,0.91664916,1.4379103,1.7453083,0.0,2,0,0,0
85384489,49.0896018318098,2.1103636244270727,81.19122,126.272194,-0.0,0.004793338,0.03322781,0.010217595,0.9165559,1.4379429,1.745191,0.0,2,0,0,0
85591665,49.089601844807355,2.110363692287327,81.19209,126.27224,-0.0,0.004144411,0.029890746,0.008403324,0.9163871,1.438253,1.7451442,0.0,2,0,0,0
85791665,49.08960187037045,2.1103637746347506,81.194855,126.27461,-0.0,0.0037056298,0.029311825,0.0075151105,0.9167169,1.4382503,1.7452235,0.0,2,0,0,0
85994865,49.089601891749496,2.1103638400991676,81.19711,126.27655,-0.0,0.002571878,0.026588008,0.0064764554,0.9169669,1.4382503,1.7453092,0.0,2,0,0,0
86198071,49.089601917230034,2.110363911689466,81.20557,126.284645,-0.0,0.0033539024,0.024979535,0.0050053983,0.91724336,1.4383593,1.7452167,0.0,2,0,0,0
86398077,49.08960194301155,2.110364032686252,81.20986,126.28876,-0.0,0.002948921,0.026006373,0.0044079684,0.9172379,1.4384537,1.7453178,0.0,2,0,0,0
86597281,49.08960195888684,2.1103640915312143,81.218544,126.29742,-0.0,0.002467439,0.024188882,0.002244913,0.91730005,1.4384949,1.7452034,0.0,2,0,0,0
86796464,49.0896020009572,2.1103641280073853,81.224464,126.3035,-0.0,0.005195431,0.021517329,0.0017541214,0.91765034,1.4384782,1.7452761,0.0,2,0,0,0
87004465,49.089602024605014,2.110364136516011,81.22248,126.30172,-0.0,0.0054731835,0.017476672,0.0020660786,0.918276,1.4387705,1.7452191,0.0,2,0,0,0
87203672,49.08960203937687,2.1103641398981803,81.21823,126.29813,-0.0,0.0024934737,0.014582576,0.0035535006,0.9185219,1.4387531,1.7453043,0.0,2,0,0,0
87402872,49.08960209105865,2.1103641857186943,81.22128,126.302,-0.0,0.004933419,0.0122464225,0.0013994548,0.91858214,1.4387385,1.7451799,0.0,2,0,0,0
87610865,49.0896021604101,2.1103642822078728,81.21571,126.2973,-0.0,0.0072255377,0.010793786,0.0026194705,0.9185832,1.439108,1.7451357,0.0,2,0,0,0
87810083,49.08960219991123,2.110364309336428,81.21136,126.29414,-0.0,0.007996458,0.007963339,0.0022731277,0.9183037,1.4390972,1.7452166,0.0,2,0,0,0
88011665,49.08960223591231,2.110364338834628,81.21174,126.29614,-0.0,0.008126409,0.0057901586,0.0008757504,0.91824865,1.4390872,1.745297,0.0,2,0,0,0
88217270,49.08960226426386,2.110364415005423,81.21064,126.29675,-0.0,0.010247181,0.0054597007,0.0022518572,0.91861993,1.4394588,1.7452638,0.0,2,0,0,0
88416465,49.08960229556898,2.1103645161520332,81.21314,126.30121,-0.0,0.009694502,0.007079229,0.00064527616,0.9190575,1.4393858,1.7451373,0.0,2,0,0,0
88623694,49.08960230811171,2.1103645863410065,81.21141,126.301094,-0.0,0.010421225,0.0055652657,0.001404839,0.9190065,1.4396921,1.745292,0.0,2,0,0,0
88823695,49.08960233484067,2.1103647094733393,81.20892,126.30037,-0.0,0.009760823,0.006975166,0.0019182181,0.91908383,1.4396613,1.7451713,0.0,2,0,0,0
89029339,49.089602409429204,2.1103648681961955,81.207985,126.30334,-0.0,0.013444413,0.010116199,0.0006428804,0.9192698,1.4396629,1.7452569,0.0,2,0,0,0
89222865,49.08960245904617,2.1103650053843346,81.2101,126.30545,-0.0,0.014027635,0.011748863,-0.00027615728,0.9195104,1.4395585,1.7453194,0.0,2,0,0,0
89434072,49.08960251117685,2.11036519893074,81.21379,126.31282,-0.0,0.017187094,0.014793079,-0.0015180724,0.9195898,1.4400737,1.7453152,0.0,2,0,0,0
89633265,49.0896025334366,2.1103653957136097,81.212715,126.31328,-0.0,0.015244416,0.017305661,-0.00089034694,0.9190502,1.4400473,1.7451975,0.0,2,0,0,0
89841265,49.08960250013151,2.110365539939458,81.20565,126.3076,-0.0,0.012671403,0.017733602,0.001026984,0.91840917,1.4403428,1.7453434,0.0,2,0,0,0
90040478,49.08960243824357,2.1103656544010847,81.204315,126.30756,-0.0,0.009218683,0.01708222,0.0010471798,0.91768426,1.4403219,1.7454187,0.0,2,0,0,0
90239664,49.089602358707396,2.1103658046013765,81.21102,126.31555,-0.0,0.004192795,0.018756045,-0.0027416549,0.9176182,1.440329,1.7452816,0.0,2,0,0,0
90446883,49.08960227392422,2.1103658824836984,81.21462,126.32003,-0.0,-0.00047791674,0.017424263,-0.0038813995,0.9179763,1.4405795,1.7454219,0.0,2,0,0,0
90646889,49.08960217453456,2.110365965030821,81.2193,126.32539,-0.0,-0.005653577,0.01617787,-0.006100573,0.91795903,1.4405408,1.7454747,0.0,2,0,0,0
90846064,49.08960210586815,2.1103660847310386,81.22268,126.329636,-0.0,-0.009130876,0.014957193,-0.0098119145,0.9174648,1.4406009,1.7453433,0.0,2,0,0,0
91045293,49.08960208473058,2.1103662618814494,81.22186,126.33006,-0.0,-0.0099752685,0.020643188,-0.0075173248,0.9171605,1.4405736,1.7454036,0.0,2,0,0,0
91253314,49.08960208267244,2.1103664400402935,81.22452,126.333954,-0.0,-0.009559986,0.020821292,-0.0076854364,0.91662383,1.4408721,1.7453324,0.0,2,0,0,0
91452465,49.089602078067344,2.110366552701163,81.231316,126.34152,-0.0,-0.008650684,0.021165632,-0.009569249,0.916592,1.4408797,1.7454029,0.0,2,0,0,0
91660465,49.08960202356062,2.1103666124178466,81.235886,126.346695,-0.0,-0.011587494,0.01878291,-0.0085274065,0.91684043,1.4411601,1.7453411,0.0,2,0,0,0
91859665,49.089601994269124,2.11036671602904,81.24152,126.35281,-0.0,-0.011579818,0.01804534,-0.009883791,0.917256,1.4411476,1.7452133,0.0,2,0,0,0
92062865,49.089601995198336,2.1103668290107738,81.23924,126.350746,-0.0,-0.010423663,0.017693255,-0.007832428,0.91748136,1.4411373,1.7452943,0.0,2,0,0,0
92270864,49.08960202344241,2.1103669257340467,81.2331,126.3443,-0.0,-0.008844179,0.017362824,-0.005060399,0.9179643,1.4415884,1.7452754,0.0,2,0,0,0
92470065,49.08960194451785,2.110367049188859,81.22487,126.33595,-0.0,-0.012764426,0.017536353,-0.0013422056,0.9185323,1.4415426,1.74535,0.0,2,0,0,0
92677265,49.08960189980346,2.110367254567099,81.22262,126.334076,-0.0,-0.013996832,0.019777542,0.00056572637,0.9187861,1.4341574,1.745166,0.0,2,0,0,0
92880464,49.08960185264181,2.110367392604034,81.226585,126.33833,-0.0,-0.015663948,0.020752989,-0.0019763322,0.91895944,1.4341396,1.7452356,0.0,2,0,0,0
93080465,49.089601798176375,2.110367490704875,81.2295,126.341606,-0.0,-0.01800912,0.019348545,-0.00087811623,0.91935027,1.4342512,1.7451452,0.0,2,0,0,0
93287671,49.08960180775346,2.1103677016867843,81.23043,126.34335,-0.0,-0.015798269,0.024944747,-0.00010375344,0.9198042,1.4345934,1.7451047,0.0,2,0,0,0
93486884,49.08960179775072,2.110367853654294,81.23856,126.35227,-0.0,-0.015140609,0.025353124,-7.5665565e-05,0.9205675,1.4345893,1.7451867,0.0,2,0,0,0
93694864,49.08960176266733,2.1103679540241047,81.24576,126.35988,-0.0,-0.015784211,0.024884557,-0.0014343802,0.92087924,1.4348662,1.74514,0.0,2,0,0,0
93894066,49.08960174093608,2.110368090376509,81.24893,126.36331,-0.0,-0.016213935,0.02683799,-0.0021648547,0.9211214,1.4348441,1.7452258,0.0,2,0,0,0
94094106,49.089601688347315,2.1103682044067673,81.246895,126.3618,-0.0,-0.019135315,0.028005455,0.00024940557,0.9211154,1.4347882,1.7451016,0.0,2,0,0,0
94301284,49.08960164414377,2.11036833350044,81.246796,126.36213,-0.0,-0.019235758,0.028864967,-0.0011727714,0.92101705,1.4350559,1.7452501,0.0,2,0,0,0
94500464,49.089601622145054,2.110368459234051,81.2421,126.35837,-0.0,-0.018152649,0.029145442,-0.00019086547,0.92120874,1.435034,1.7451321,0.0,2,0,0,0
94699664,49.089601569087534,2.110368517296483,81.23232,126.349464,-0.0,-0.019617086,0.028822692,0.002813364,0.92094034,1.4349515,1.7452054,0.0,2,0,0,0
94899665,49.08960152700804,2.110368596350944,81.22413,126.34212,-0.0,-0.020595074,0.028299516,0.005640931,0.92048,1.434878,1.7452784,0.0,2,0,0,0
95106865,49.08960145364221,2.1103686357255067,81.22552,126.34414,-0.0,-0.023787355,0.026745616,0.0050036707,0.92051077,1.4351574,1.7452291,0.0,2,0,0,0
95306071,49.08960138282148,2.1103686373928356,81.225685,126.34448,-0.0,-0.026515469,0.02455786,0.0044027455,0.92066467,1.4351001,1.7453003,0.0,2,0,0,0
95514087,49.08960129988737,2.1103686598762046,81.22488,126.34365,-0.0,-0.02938558,0.022002833,0.006897813,0.92062694,1.4352905,1.745242,0.0,2,0,0,0
95713265,49.08960120488142,2.1103687106676214,81.22354,126.342636,-0.0,-0.032646954,0.020774331,0.0053517856,0.920733,1.4352385,1.7453188,0.0,2,0,0,0
95916505,49.089601133604795,2.1103687459176097,81.22261,126.34259,-0.0,-0.034024112,0.018510683,0.004878535,0.9210216,1.4351106,1.745186,0.0,2,0,0,0
96116465,49.089601054104534,2.1103687251203733,81.21915,126.34082,-0.0,-0.035835303,0.014527965,0.006985037,0.921283,1.4350829,1.7452924,0.0,2,0,0,0
96323669,49.089600979656716,2.1103686567206927,81.2136,126.33769,-0.0,-0.037190467,0.010605668,0.0077872165,0.9215086,1.4351444,1.7452449,0.0,2,0,0,0
96523665,49.089600927439704,2.110368626859878,81.20951,126.33641,-0.0,-0.037703928,0.007961618,0.0076008984,0.9217095,1.4349148,1.7451215,0.0,2,0,0,0
96722865,49.08960087908271,2.110368557113721,81.20989,126.34035,-0.0,-0.03655163,0.0041755373,0.008482822,0.9219241,1.434754,1.7452042,0.0,2,0,0,0
96922064,49.08960081691684,2.1103685243111063,81.21445,126.34917,-0.0,-0.03635702,0.0032911545,0.006918891,0.9225346,1.4345312,1.7452787,0.0,2,0,0,0
97129328,49.08960078500707,2.1103684884545624,81.22021,126.35951,-0.0,-0.036112927,0.0023437608,0.0054005296,0.9230445,1.4345925,1.7452238,0.0,2,0,0,0
97329336,49.08960074899045,2.1103684372923204,81.22285,126.36683,-0.0,-0.034063973,-0.00043779504,0.00479324,0.92341834,1.4343177,1.7452953,0.0,2,0,0,0
97528471,49.08960070542079,2.1103683934436446,81.2245,126.37326,-0.0,-0.033042964,-0.0027368995,0.003821899,0.92359406,1.4340919,1.7451733,0.0,2,0,0,0
97735664,49.08960065886353,2.110368325443414,81.22204,126.37601,-0.0,-0.03250827,-0.0048246314,0.0050765937,0.92338073,1.4340937,1.745317,0.0,2,0,0,0
97935666,49.089600602249945,2.110368245933009,81.21444,126.37365,-0.0,-0.030865476,-0.0069555393,0.0076608127,0.92337817,1.433816,1.7451932,0.0,2,0,0,0
98138864,49.08960053493168,2.110368178942022,81.2049,126.37002,-0.0,-0.031038778,-0.008560648,0.011304332,0.92336494,1.433521,1.7452768,0.0,2,0,0,0
98346083,49.08960047365323,2.1103681077527945,81.20099,126.37187,-0.0,-0.031199275,-0.008918437,0.013212226,0.92344636,1.4336399,1.7452632,0.0,2,0,0,0
98546083,49.08960042321748,2.110368028199828,81.1989,126.37538,-0.0,-0.029721593,-0.010423552,0.013361607,0.9235429,1.4333092,1.74514,0.0,2,0,0,0
98745265,49.08960036225476,2.110367950446807,81.19567,126.3779,-0.0,-0.030392816,-0.011113128,0.014961664,0.9237681,1.4329922,1.745222,0.0,2,0,0,0
98952488,49.08960029245196,2.1103678989014862,81.19596,126.38388,-0.0,-0.031396303,-0.010728236,0.015102037,0.92398137,1.4329159,1.7451683,0.0,2,0,0,0
99152465,49.08960022986156,2.1103678578284426,81.19749,126.391136,-0.0,-0.030707868,-0.00988098,0.014942635,0.92439616,1.4325502,1.7452415,0.0,2,0,0,0
99351665,49.08960018945023,2.110367793071232,81.19255,126.39198,-0.0,-0.029392255,-0.010410007,0.015725767,0.9244697,1.4322082,1.7451267,0.0,2,0,0,0
99559665,49.08960017251199,2.1103676800297455,81.18142,126.38646,-0.0,-0.026333718,-0.01181698,0.018395301,0.924681,1.4321475,1.7452744,0.0,2,0,0,0
99762871,49.089600175082836,2.1103675458734577,81.17654,126.38721,-0.0,-0.02280582,-0.014898322,0.01847522,0.9248443,1.4319094,1.7451798,0.0,2,0,0,0
99966082,49.08960018776229,2.1103674327550364,81.179054,126.39522,-0.0,-0.019240383,-0.01658366,0.017588802,0.9248608,1.4315675,1.7452593,0.0,2,0,0,0
100779665,49.08960031712637,2.1103672354720855,81.20833,126.44151,-0.0,-0.007590998,-0.015370832,0.008667854,0.9248923,1.4308084,1.7453138,0.0,2,0,0,0
100979665,49.089600328131745,2.1103672414146177,81.20492,126.44116,-0.0,-0.006706644,-0.013608573,0.01032506,0.9245599,1.4304284,1.7451857,0.0,2,0,0,0
101182886,49.08960032794601,2.1103672392954427,81.208046,126.44706,-0.0,-0.0065360116,-0.011822197,0.009220679,0.9245266,1.4300439,1.745265,0.0,2,0,0,0
101382095,49.08960032834134,2.1103672479211144,81.20745,126.44864,-0.0,-0.006014086,-0.010527311,0.00831287,0.92459524,1.4297715,1.7453694,0.0,2,0,0,0
101590080,49.08960033580565,2.110367291526678,81.20272,126.44585,-0.0,-0.0049890354,-0.0076966733,0.010743351,0.9248002,1.4296535,1.7453065,0.0,2,0,0,0
101789319,49.08960034252407,2.1103673514324526,81.19955,126.44451,-0.0,-0.0042357687,-0.0050775995,0.011516512,0.9248539,1.429311,1.7451841,0.0,2,0,0,0
101997265,49.08960035058259,2.1103674237340497,81.20253,126.44932,-0.0,-0.0040006954,-0.00069327286,0.010209227,0.9249823,1.4292432,1.7453313,0.0,2,0,0,0
102196465,49.0896003762108,2.11036747631562,81.20566,126.453964,-0.0,-0.0012470301,0.0014413168,0.008579952,0.9251546,1.4289298,1.7452024,0.0,2,0,0,0
102403683,49.08960038145754,2.1103675127885104,81.208595,126.45856,-0.0,6.4874206e-05,0.0030464984,0.007126116,0.92513686,1.4288452,1.7451583,0.0,2,0,0,0
102602865,49.08960036775319,2.110367554559743,81.20804,126.45946,-0.0,-0.00048764708,0.005841309,0.0069023166,0.9251049,1.4285048,1.7452366,0.0,2,0,0,0
102802865,49.08960038056851,2.110367576087091,81.213135,126.4662,-0.0,0.0020264275,0.007249689,0.00572801,0.9250616,1.4281646,1.7453132,0.0,2,0,0,0
103010093,49.08960040314077,2.1103675962835116,81.22052,126.474945,-0.0,0.0043551996,0.0077165063,0.005065349,0.92528117,1.4281454,1.7452674,0.0,2,0,0,0
103209319,49.089600415056616,2.110367606434108,81.23177,126.48755,-0.0,0.0033824116,0.008719259,0.0013229399,0.925466,1.4278561,1.7453429,0.0,2,0,0,0
103417265,49.089600423371365,2.11036761088937,81.24045,126.49767,-0.0,0.0047075828,0.009828791,-0.0025611166,0.925613,1.4278023,1.7452875,0.0,2,0,0,0
103616474,49.089600430705154,2.1103676258471933,81.25179,126.5107,-0.0,0.0056232875,0.011165238,-0.005603345,0.92575884,1.4275031,1.7453676,0.0,2,0,0,0
103823710,49.08960044757586,2.110367646285079,81.261086,126.52269,-0.0,0.0067033623,0.012648365,-0.0076492163,0.92577606,1.4275037,1.7453141,0.0,2,0,0,0
104023671,49.08960045977179,2.1103676626311305,81.27387,126.53548,-0.0,0.008045463,0.0137284985,-0.011492009,0.92588204,1.4272051,1.7451904,0.0,2,0,0,0
104222864,49.089600474293306,2.1103676724027483,81.28347,126.54568,-0.0,0.009986972,0.013950022,-0.01363277,0.92578524,1.4269445,1.745274,0.0,2,0,0,0
104426083,49.0896005040375,2.110367653601115,81.286995,126.5495,-0.0,0.012233211,0.014035461,-0.013742817,0.9251644,1.4266747,1.7453496,0.0,2,0,0,0
104626094,49.08960051260043,2.110367625067971,81.285904,126.5482,-0.0,0.012527271,0.0139292525,-0.012262224,0.9249078,1.4265615,1.7452592,0.0,2,0,0,0
104833273,49.08960049083757,2.1103676209597624,81.29147,126.55309,-0.0,0.013401413,0.014251034,-0.013793356,0.9246907,1.4266543,1.7452139,0.0,2,0,0,0
105032465,49.08960044763296,2.110367624752004,81.29441,126.555046,-0.0,0.01148671,0.016222483,-0.014499487,0.9247376,1.4264084,1.7452897,0.0,2,0,0,0
105240465,49.089600395186515,2.1103676151670028,81.291405,126.551056,-0.0,0.009801159,0.015670756,-0.01357455,0.9246156,1.4264706,1.7452418,0.0,2,0,0,0
105443665,49.08960036472753,2.110367596038763,81.28414,126.54271,-0.0,0.009001357,0.01561929,-0.011877763,0.924453,1.4264108,1.7453582,0.0,2,0,0,0
105644471,49.08960031063116,2.1103675974204297,81.27775,126.53522,-0.0,0.0063321255,0.017796459,-0.01025282,0.9245829,1.4262701,1.7452369,0.0,2,0,0,0
105842864,49.08960022872785,2.1103675909540227,81.27547,126.531746,-0.0,0.0026765761,0.017536221,-0.009617251,0.9248013,1.4261718,1.7453188,0.0,2,0,0,0
106050083,49.08960018004387,2.110367589502758,81.2729,126.5277,-0.0,0.0029144762,0.01780997,-0.00855523,0.9248694,1.426284,1.7452537,0.0,2,0,0,0
106249339,49.089600125411465,2.110367586341582,81.27245,126.52561,-0.0,0.0009779908,0.017848076,-0.008852904,0.92485154,1.4261466,1.745333,0.0,2,0,0,0
106449319,49.08960006644306,2.110367612941346,81.27024,126.52168,-0.0,-0.000626816,0.019019881,-0.008312923,0.9251462,1.4260064,1.7452064,0.0,2,0,0,0
106652482,49.089600002735,2.1103676162285496,81.270325,126.51987,-0.0,-0.0014773848,0.0189383,-0.008565768,0.9255305,1.425904,1.7452904,0.0,2,0,0,0
106859671,49.08959995711178,2.110367618187282,81.28144,126.52869,-0.0,-0.0025258644,0.018756488,-0.01229512,0.9257799,1.4262011,1.745272,0.0,2,0,0,0
107059665,49.08959991190507,2.110367629619684,81.29602,126.54054,-0.0,-0.002433832,0.01831446,-0.017302724,0.9254822,1.4260598,1.7453501,0.0,2,0,0,0
107266865,49.08959986872833,2.110367633997174,81.31264,126.55417,-0.0,-0.0022340813,0.017868252,-0.023222497,0.92532027,1.4262446,1.745304,0.0,2,0,0,0
107466086,49.08959981694389,2.110367659799691,81.3233,126.56155,-0.0,-0.0023793462,0.017539466,-0.025914833,0.92516756,1.4261156,1.7453794,0.0,2,0,0,0
107674112,49.08959975495652,2.1103676485694427,81.330414,126.56482,-0.0,-0.0033661714,0.017003672,-0.026065664,0.92532057,1.4262856,1.7453192,0.0,2,0,0,0
107873271,49.089599708040915,2.1103676259468935,81.336685,126.56764,-0.0,-0.0054096677,0.017761298,-0.02576082,0.9252618,1.4261351,1.7453922,0.0,2,0,0,0
108076494,49.08959966159113,2.1103675964920727,81.34038,126.5674,-0.0,-0.0050945873,0.015707387,-0.024287349,0.925134,1.4259973,1.7454581,0.0,2,0,0,0
109297271,49.08959930776244,2.1103677453245275,81.34737,126.550896,-0.0,-0.012632007,0.018472077,-0.01802849,0.9267645,1.4195478,1.7452174,0.0,2,0,0,0
109501264,49.08959924494367,2.1103677585069427,81.35281,126.552956,-0.0,-0.013314109,0.017878007,-0.01854444,0.9268802,1.4194729,1.7452846,0.0,2,0,0,0
109700464,49.08959919589947,2.1103677290071023,81.3559,126.55286,-0.0,-0.014790723,0.016556699,-0.018357376,0.9270776,1.4195076,1.7451913,0.0,2,0,0,0
109900466,49.089599178724306,2.1103676667840676,81.354546,126.548676,-0.0,-0.012029532,0.013651089,-0.017315667,0.92714465,1.4194417,1.7452717,0.0,2,0,0,0
110107665,49.089599190197646,2.1103676123444433,81.35192,126.54331,-0.0,-0.008157619,0.010162268,-0.015343267,0.92724216,1.4196042,1.745215,0.0,2,0,0,0
110306865,49.08959919641622,2.110367580190122,81.345085,126.53378,-0.0,-0.0073716193,0.009917088,-0.013328974,0.9272449,1.4195114,1.7452905,0.0,2,0,0,0
110514082,49.08959918928746,2.1103675957094534,81.33743,126.52405,-0.0,-0.0067325756,0.011300527,-0.010859153,0.92717314,1.4196802,1.7452248,0.0,2,0,0,0
110714113,49.08959919509166,2.1103676292176266,81.333885,126.518295,-0.0,-0.003251803,0.012529142,-0.010053034,0.9269853,1.4195676,1.7452888,0.0,2,0,0,0
110917265,49.08959919258033,2.110367642431978,81.32948,126.511795,-0.0,-0.0027685433,0.014003844,-0.009978048,0.92693454,1.4196107,1.7451872,0.0,2,0,0,0
111124506,49.08959916814506,2.1103676228019808,81.32704,126.507195,-0.0,-0.003867566,0.01322591,-0.00897509,0.9268615,1.4197948,1.7453337,0.0,2,0,0,0
111323665,49.08959914811549,2.1103675923019027,81.327385,126.50547,-0.0,-0.0030160525,0.011265556,-0.008860972,0.92664814,1.4196979,1.7451997,0.0,2,0,0,0
111523665,49.08959911886125,2.110367576404402,81.32625,126.5022,-0.0,-0.0038733366,0.0102192545,-0.0075962176,0.9266083,1.419612,1.7452731,0.0,2,0,0,0
111730870,49.089599076522866,2.110367560001866,81.32271,126.49676,-0.0,-0.006287172,0.010571346,-0.0060877833,0.9264893,1.4198109,1.7452247,0.0,2,0,0,0
111930868,49.08959905667179,2.11036755681123,81.31913,126.49147,-0.0,-0.0050405078,0.010443882,-0.004341771,0.9261336,1.4197372,1.7452971,0.0,2,0,0,0
112130104,49.08959905119135,2.110367542043307,81.31367,126.48448,-0.0,-0.0036768552,0.009612448,-0.0018438726,0.92579436,1.4196885,1.7451676,0.0,2,0,0,0
112337265,49.0895990369424,2.1103675178614654,81.31532,126.48448,-0.0,-0.004017488,0.010041326,-0.0029560165,0.9255925,1.4199039,1.7453182,0.0,2,0,0,0
112537265,49.0895990169466,2.1103674819754588,81.31857,126.48613,-0.0,-0.0042571346,0.00908204,-0.0028108782,0.92584884,1.4198354,1.7451881,0.0,2,0,0,0
112740502,49.08959899276489,2.110367417032447,81.32083,126.48659,-0.0,-0.0035824021,0.006998766,-0.0034670508,0.9262377,1.4197712,1.7452675,0.0,2,0,0,0
112947664,49.089598949113224,2.1103673147423523,81.32933,126.49322,-0.0,-0.0053263395,0.0049382797,-0.005954867,0.9264903,1.4200833,1.7452465,0.0,2,0,0,0
113147671,49.08959890348466,2.110367225186132,81.3345,126.496445,-0.0,-0.006107824,0.0028309003,-0.007110046,0.92643315,1.4200151,1.7453173,0.0,2,0,0,0
113354880,49.0895988635622,2.1103671906809818,81.33262,126.49293,-0.0,-0.0059799626,0.0031403885,-0.0059055956,0.926598,1.4202058,1.7452589,0.0,2,0,0,0
113554077,49.089598842706586,2.110367185454662,81.33157,126.49032,-0.0,-0.006256589,0.0032084887,-0.004698511,0.9265882,1.4201695,1.7453364,0.0,2,0,0,0
113760492,49.08959885372377,2.1103671629524503,81.32514,126.48248,-0.0,-0.0041286387,0.0036470494,-0.003697034,0.9266525,1.4203683,1.7452765,0.0,2,0,0,0
113957271,49.089598867003026,2.110367128721519,81.31624,126.47243,-0.0,-0.0022919322,0.0034095726,-0.0003639731,0.9267544,1.4201238,1.7453014,0.0,2,0,0,0
114164465,49.08959885866872,2.1103670908473053,81.31149,126.46679,-0.0,-0.0015304694,0.0033398794,0.00057698606,0.926547,1.4203653,1.7452574,0.0,2,0,0,0
114363682,49.08959885414457,2.1103670928363325,81.31173,126.46631,-0.0,-0.0010698151,0.0048210165,0.0015488664,0.9267844,1.4202694,1.7453281,0.0,2,0,0,0
114571678,49.08959885679259,2.110367111152584,81.308716,126.46316,-0.0,-0.0007426136,0.0058699185,0.0034250186,0.9269331,1.4203215,1.7452683,0.0,2,0,0,0
114770865,49.08959884792975,2.110367096789014,81.30605,126.46056,-0.0,1.1107062e-05,0.005787231,0.0037511797,0.9268474,1.4202739,1.7453456,0.0,2,0,0,0
114978071,49.0895988261929,2.1103670736696234,81.304245,126.45947,-0.0,-0.0004896953,0.004489365,0.004142828,0.926828,1.420462,1.7452852,0.0,2,0,0,0
115182105,49.08959879953897,2.1103670552436835,81.305244,126.461624,-0.0,-0.0005431982,0.0047446764,0.0028815442,0.92690825,1.4205168,1.74519,0.0,2,0,0,0
115381265,49.08959876803229,2.1103670239627257,81.30493,126.46269,-0.0,-0.0011399441,0.0053170943,0.004859147,0.9271139,1.4204884,1.7452683,0.0,2,0,0,0
115581265,49.089598744202746,2.1103669767212496,81.302414,126.461975,-0.0,-0.0015259348,0.0039382563,0.0050593745,0.92707384,1.4204015,1.7453382,0.0,2,0,0,0
115788472,49.08959873348577,2.1103669282847215,81.296364,126.45833,-0.0,-0.0010819143,0.0033275618,0.006243889,0.9270453,1.4205894,1.7452788,0.0,2,0,0,0
115987671,49.089598757252595,2.1103668778861833,81.29347,126.458984,-0.0,0.002102722,0.0020807562,0.0062495507,0.92688847,1.420536,1.7451545,0.0,2,0,0,0
116189320,49.08959879471465,2.1103668224536873,81.29194,126.46116,-0.0,0.004863553,0.00078438513,0.0055146967,0.92679316,1.4204959,1.7452254,0.0,2,0,0,0
116390865,49.08959884370259,2.110366763103708,81.282234,126.45578,-0.0,0.007684696,1.5534904e-05,0.007896032,0.9267602,1.4205445,1.745329,0.0,2,0,0,0
116598082,49.08959889407242,2.110366715876162,81.26957,126.44873,-0.0,0.010120121,-0.00036796223,0.011213781,0.9268139,1.4206121,1.745277,0.0,2,0,0,0
116797264,49.089598915963656,2.1103666898133455,81.254135,126.43724,-0.0,0.01094319,-0.0005719116,0.015337525,0.92661214,1.4205546,1.7453424,0.0,2,0,0,0
117005264,49.0895989231621,2.110366679708591,81.24276,126.431404,-0.0,0.011271182,0.00019451299,0.017831879,0.9265159,1.4207878,1.7452751,0.0,2,0,0,0
117204464,49.089598940517384,2.1103666681026545,81.2385,126.43338,-0.0,0.011811158,-1.5163256e-05,0.017643642,0.9264905,1.4207572,1.7453457,0.0,2,0,0,0
117411690,49.08959896874994,2.110366663231587,81.23198,126.433846,-0.0,0.014086333,-0.0005300103,0.017434299,0.9264142,1.420967,1.7452788,0.0,2,0,0,0
117611695,49.08959895955261,2.1103666776696395,81.23079,126.43974,-0.0,0.01234491,0.0011762774,0.016058918,0.92627126,1.420913,1.7453502,0.0,2,0,0,0
117810876,49.08959893001318,2.110366735972723,81.235565,126.45263,-0.0,0.010826661,0.004382536,0.013802343,0.92666847,1.4208513,1.7452316,0.0,2,0,0,0
118018064,49.08959890089509,2.110366792424291,81.24034,126.46481,-0.0,0.0094986055,0.006468596,0.010250658,0.92715454,1.4210467,1.7453673,0.0,2,0,0,0
118218077,49.08959887618913,2.1103668575498244,81.241806,126.474686,-0.0,0.008029748,0.008908247,0.008832395,0.9275636,1.4209713,1.7452277,0.0,2,0,0,0
118425271,49.08959887345426,2.110366944620158,81.25292,126.494675,-0.0,0.008300529,0.011607513,0.005521465,0.92755926,1.42122,1.7453837,0.0,2,0,0,0
118629328,49.089598859230485,2.1103670017134566,81.2546,126.51355,-0.0,0.0072417343,0.012901362,0.00566923,0.9274444,1.4211729,1.7452548,0.0,2,0,0,0
118828464,49.0895988603819,2.110367017893344,81.259605,126.518555,-0.0,0.0063922512,0.013567581,0.0043006814,0.9274107,1.4213116,1.7453647,0.0,2,0,0,0
119035665,49.08959888041469,2.110366993190106,81.2697,126.548035,-0.0,0.008757011,0.011652245,0.0015699727,0.92737335,1.4215469,1.7453125,0.0,2,0,0,0
119234871,49.089598909832425,2.1103669853747853,81.28472,126.56305,-0.0,0.010353213,0.010969849,-0.003589178,0.9272442,1.4214792,1.7453829,0.0,2,0,0,0
119434865,49.08959896502875,2.110366973826154,81.29248,126.590775,-0.0,0.013096874,0.010870803,-0.0066772215,0.9271465,1.4214163,1.7452489,0.0,2,0,0,0
119642076,49.08959900422435,2.1103669631991844,81.2909,126.5997,-0.0,0.014399165,0.011348041,-0.004753801,0.9271448,1.421653,1.7453988,0.0,2,0,0,0
119841265,49.08959903800382,2.110366940800112,81.29234,126.612015,-0.0,0.015808733,0.0105006695,-0.0060466765,0.9268248,1.4215937,1.745264,0.0,2,0,0,0
120049319,49.08959906604768,2.1103669317389877,81.30056,126.63135,-0.0,0.015498363,0.009419073,-0.008138768,0.9264719,1.4218062,1.745406,0.0,2,0,0,0
120248471,49.089599095346415,2.110366933276194,81.30629,126.6494,-0.0,0.013902623,0.011027259,-0.0092541315,0.92633784,1.421779,1.7452773,0.0,2,0,0,0
120447670,49.08959913612815,2.1103669475128988,81.31343,126.66661,-0.0,0.01639571,0.010047154,-0.010654133,0.92662376,1.4216607,1.745345,0.0,2,0,0,0
120655711,49.08959916504737,2.1103669583592484,81.32448,126.68907,-0.0,0.01682071,0.010170816,-0.01431464,0.92684066,1.4218768,1.7452892,0.0,2,0,0,0
120858865,49.08959919430054,2.11036694784196,81.34055,126.71626,-0.0,0.016532645,0.011862652,-0.018244846,0.92698133,1.4218534,1.745363,0.0,2,0,0,0
121058072,49.0895992190451,2.110366951215128,81.35922,126.745735,-0.0,0.01641008,0.011285669,-0.022090416,0.9274492,1.4219368,1.7454634,0.0,2,0,0,0
121258087,49.08959921800412,2.110366939532246,81.36946,126.765915,-0.0,0.016780395,0.011115181,-0.022953328,0.9278045,1.4218715,1.7453203,0.0,2,0,0,0
121465265,49.089599222074796,2.1103669325010723,81.36697,126.77488,-0.0,0.0146040805,0.011992502,-0.020535966,0.9279933,1.4221125,1.7454566,0.0,2,0,0,0
121668486,49.08959922654373,2.110366924862549,81.364876,126.78372,-0.0,0.0152404,0.01118313,-0.019046873,0.9278777,1.4220786,1.7453218,0.0,2,0,0,0
121868465,49.089599235672985,2.1103669222866364,81.36165,126.79172,-0.0,0.016481914,0.011392218,-0.017731456,0.9277884,1.4221495,1.7454239,0.0,2,0,0,0
122075667,49.08959924025397,2.1103669492596637,81.35468,126.796074,-0.0,0.015206125,0.01364969,-0.015884733,0.9280395,1.4223282,1.7453556,0.0,2,0,0,0
122274865,49.08959923087866,2.110366951335455,81.35096,126.80423,-0.0,0.013809212,0.013298622,-0.014238952,0.9280887,1.4223205,1.7454437,0.0,2,0,0,0
122474865,49.089599271337164,2.1103669577478286,81.351746,126.81697,-0.0,0.016486479,0.013650544,-0.01357247,0.9281649,1.4222604,1.7453041,0.0,2,0,0,0
122682065,49.08959932961836,2.1103669623880887,81.35113,126.82811,-0.0,0.017902557,0.0142907705,-0.012426498,0.92809665,1.4159201,1.7453192,0.0,2,0,0,0
122881338,49.08959937357396,2.110366960795238,81.350975,126.83987,-0.0,0.019461967,0.014943316,-0.011594233,0.92808014,1.4158741,1.7451823,0.0,2,0,0,0
123081265,49.08959938769964,2.1103669126075477,81.3523,126.85299,-0.0,0.019636543,0.011536082,-0.012380626,0.92815447,1.4158432,1.7452508,0.0,2,0,0,0
123288468,49.089599423314496,2.1103668544624417,81.35604,126.86868,-0.0,0.020027548,0.010115628,-0.013980423,0.92813087,1.4160682,1.7451967,0.0,2,0,0,0
123491664,49.089599423251265,2.1103668386484378,81.35667,126.88067,-0.0,0.01889973,0.010388029,-0.013248617,0.9280207,1.4160873,1.7450826,0.0,2,0,0,0
123691665,49.089599420167964,2.110366848781841,81.35306,126.888695,-0.0,0.018503765,0.010351925,-0.012043863,0.928055,1.4162021,1.745192,0.0,2,0,0,0
123898898,49.089599409748466,2.1103668441424097,81.3541,126.901344,-0.0,0.017610945,0.009546262,-0.011821913,0.92854506,1.416466,1.745136,0.0,2,0,0,0
124098066,49.089599408279206,2.110366825879363,81.357,126.91678,-0.0,0.016297165,0.008826752,-0.012583557,0.9286476,1.4164891,1.7452134,0.0,2,0,0,0
124305275,49.08959941282266,2.110366801615672,81.361946,126.93416,-0.0,0.015942628,0.008338412,-0.013851264,0.9286031,1.4167097,1.7451552,0.0,2,0,0,0
124505265,49.089599416280635,2.110366774401998,81.3628,126.94701,-0.0,0.016762614,0.008853735,-0.013253104,0.9286245,1.4166979,1.7452246,0.0,2,0,0,0
124712485,49.08959942874511,2.1103667885601185,81.36245,126.95903,-0.0,0.016772078,0.010513306,-0.012778104,0.92894965,1.4169606,1.7451807,0.0,2,0,0,0
125929346,49.08959953672288,2.1103667864810736,81.2954,126.9711,-0.0,0.018754097,0.014927118,0.0105923535,0.92784953,1.4175082,1.7452146,0.0,2,0,0,0
126129320,49.08959953854756,2.110366782462909,81.28609,126.97567,-0.0,0.017726481,0.015736384,0.014016994,0.92770654,1.4174818,1.7452873,0.0,2,0,0,0
126328469,49.08959955777736,2.1103667584423245,81.282906,126.98803,-0.0,0.01730456,0.015043317,0.016031647,0.9275631,1.4174266,1.7451693,0.0,2,0,0,0
126535699,49.08959954295486,2.1103666965745322,81.272964,126.99019,-0.0,0.015356982,0.013091825,0.01808116,0.9273801,1.4176872,1.7453173,0.0,2,0,0,0
126735665,49.08959951494315,2.110366644798397,81.26743,126.99953,-0.0,0.01209569,0.011995962,0.020583384,0.92759717,1.417668,1.7451856,0.0,2,0,0,0
126938873,49.08959947319925,2.110366628732277,81.26287,127.00911,-0.0,0.008836121,0.011542579,0.021523392,0.9276923,1.4176987,1.7452688,0.0,2,0,0,0
127138081,49.089599428277694,2.1103666109415133,81.250336,127.010765,-0.0,0.00558984,0.011552798,0.024812851,0.9277482,1.4177854,1.7451675,0.0,2,0,0,0
127341265,49.08959938718828,2.110366593948817,81.23634,127.01165,-0.0,0.0032745379,0.0116870245,0.027989281,0.9278292,1.4177728,1.7452381,0.0,2,0,0,0
127549319,49.08959935861803,2.110366575419743,81.22429,127.014984,-0.0,0.0008582219,0.010725569,0.030548021,0.9277401,1.4181422,1.7452126,0.0,2,0,0,0
127748471,49.089599351155854,2.1103665514769134,81.21228,127.018776,-0.0,0.0007212091,0.010582835,0.033354472,0.9274638,1.4181042,1.7452862,0.0,2,0,0,0
127954909,49.089599365614916,2.1103665509997134,81.20483,127.02741,-0.0,0.001693522,0.010944975,0.03315996,0.9274074,1.418304,1.7452295,0.0,2,0,0,0
128155664,49.08959937776153,2.1103665593479057,81.20838,127.04728,-0.0,0.0014136643,0.011384703,0.030951232,0.9273628,1.4182494,1.7453012,0.0,2,0,0,0
128354865,49.089599370391014,2.1103665486366174,81.212494,127.06668,-0.0,0.0008762641,0.010667164,0.028288638,0.92738485,1.418227,1.7451783,0.0,2,0,0,0
128558065,49.08959934846012,2.1103665575962447,81.217255,127.08711,-0.0,-0.00097190426,0.010879146,0.026059123,0.92743415,1.4181731,1.7452486,0.0,2,0,0,0
128758083,49.08959931685695,2.1103665744178532,81.22194,127.10762,-0.0,-0.0033595127,0.010829946,0.022657463,0.9274645,1.4182554,1.7451483,0.0,2,0,0,0
128965276,49.089599282421375,2.1103665847697983,81.22689,127.12875,-0.0,-0.0055691856,0.011065782,0.020120036,0.92735773,1.4185301,1.7453072,0.0,2,0,0,0
129164482,49.08959925924259,2.110366607295745,81.23001,127.14728,-0.0,-0.006008423,0.011417014,0.018287946,0.92723733,1.418501,1.7451764,0.0,2,0,0,0
129364465,49.08959925106532,2.1103666154474863,81.23411,127.167465,-0.0,-0.0061191,0.011152392,0.016334726,0.9272969,1.4184729,1.7452471,0.0,2,0,0,0
129571696,49.08959924224269,2.110366605008769,81.23808,127.186676,-0.0,-0.006632905,0.011136557,0.014749349,0.92759115,1.4186951,1.7451959,0.0,2,0,0,0
129771689,49.08959923152945,2.1103665920817187,81.23693,127.200676,-0.0,-0.0060914457,0.010593672,0.013804018,0.927763,1.4186391,1.7452654,0.0,2,0,0,0
129978865,49.089599231046485,2.110366585367315,81.239395,127.21808,-0.0,-0.0052590333,0.009987294,0.0122405095,0.9277534,1.4188892,1.7452208,0.0,2,0,0,0
130178066,49.08959922041526,2.1103665570052406,81.237976,127.231514,-0.0,-0.0056266934,0.008234409,0.012706572,0.9277467,1.418814,1.7452849,0.0,2,0,0,0
