timestamp,ref_timestamp,ref_lat,ref_lon,x,y,z,delta_xy[0],delta_xy[1],delta_z,vx,vy,vz,z_deriv,delta_vxy[0],delta_vxy[1],delta_vz,ax,ay,az,yaw,ref_alt,dist_bottom,dist_bottom_rate,eph,epv,evh,evv,vxy_max,vz_max,hagl_min,hagl_max,xy_valid,z_valid,v_xy_valid,v_z_valid,xy_reset_counter,z_reset_counter,vxy_reset_counter,vz_reset_counter,xy_global,z_global,dist_bottom_valid
9267671,0,0.0,0.0,0.0,0.0,0.09418966,-6.5042826e-07,-2.2810958e-07,0.0,-0.003700592,-0.00028873057,0.006190758,-0.13367325,-0.00016264772,-5.7041652e-05,0.0,0.010874351,0.007175736,-0.0010949506,0.9125929,0.0,0.1,-0.006190758,0.53987163,0.356873,0.63069296,0.28168672,inf,inf,inf,inf,0,1,0,1,1,0,1,1,0,0,0
9275694,0,0.0,0.0,0.0,0.0,0.09178121,-6.5042826e-07,-2.2810958e-07,0.0,-0.003772263,-0.00027204232,0.0044786837,-0.13647832,-0.00016264772,-5.7041652e-05,0.0,-0.009835665,-0.01758006,-0.043167252,0.9124388,0.0,0.1,-0.0044786837,0.54425,0.35874936,0.63467973,0.2824527,inf,inf,inf,inf,0,1,0,1,1,0,1,1,0,0,0
9379671,0,0.0,0.0,0.0,0.0,0.062549606,-6.5042826e-07,-2.2810958e-07,0.0,-0.0043085297,0.00085186673,-0.014048127,-0.16488193,-0.00016264772,-5.7041652e-05,0.0,0.007635952,-0.0137074245,-0.008295381,0.9109224,0.0,0.1,0.014048127,0.60135114,0.35422474,0.68556094,0.2764578,inf,inf,inf,inf,0,1,0,1,1,0,1,1,0,0,0
9475665,0,0.0,0.0,0.0,0.0,0.044461906,-6.5042826e-07,-2.2810958e-07,0.0,-0.004526961,0.0009632942,-0.024517424,-0.17300715,-0.00016264772,-5.7041652e-05,0.0,-0.008987427,-0.007536183,0.02379475,0.91068995,0.0,0.1,0.024517424,0.658833,0.3537649,0.7343068,0.27291608,inf,inf,inf,inf,0,1,0,1,1,0,1,1,0,0,0
9678882,0,0.0,0.0,0.0,0.0,0.019491823,-6.5042826e-07,-2.2810958e-07,0.0,-0.0058470927,0.00093429256,-0.036154516,-0.16805336,-0.00016264772,-5.7041652e-05,0.0,-0.008832326,0.0016272309,-0.011572461,0.9085653,0.0,0.1,0.036154516,0.7916875,0.35427666,0.8380756,0.2663384,inf,inf,inf,inf,0,1,0,1,1,0,1,1,0,0,0
9782864,0,0.0,0.0,0.0,0.0,0.013205595,-6.5042826e-07,-2.2810958e-07,0.0,-0.006396614,0.0014138904,-0.039857723,-0.15764911,-0.00016264772,-5.7041652e-05,0.0,-0.0096433675,-0.004645466,-0.022957223,0.9060711,0.0,0.1,0.039857723,0.86870503,0.35054198,0.8924872,0.26050386,inf,inf,inf,inf,0,1,0,1,1,0,1,1,0,0,0
9882071,0,0.0,0.0,0.0,0.0,0.014000459,-6.5042826e-07,-2.2810958e-07,0.0,-0.006843977,0.00074625574,-0.039078593,-0.13924861,-0.00016264772,-5.7041652e-05,0.0,-0.011239233,0.013680613,-0.029521901,0.9033806,0.0,0.1,0.039078593,0.9418148,0.3496696,0.941378,0.25684693,inf,inf,inf,inf,0,1,0,1,1,0,1,1,0,0,0
9986104,0,0.0,0.0,0.0,0.0,0.007789744,-6.5042826e-07,-2.2810958e-07,0.0,-0.006345132,-0.00016708569,-0.042203695,-0.13289115,-0.00016264772,-5.7041652e-05,0.0,0.0061506853,-0.026243106,-0.018524164,0.90150356,0.0,0.1,0.042203695,1.0252554,0.3504204,0.9939359,0.2538103,inf,inf,inf,inf,0,1,0,1,1,0,1,1,0,0,0
10090070,0,0.0,0.0,0.0,0.0,0.005949749,-6.5042826e-07,-2.2810958e-07,0.0,-0.005070079,-0.000959442,-0.042733945,-0.12084669,-0.00016264772,-5.7041652e-05,0.0,-0.007056106,-0.0022837431,-0.00716352,0.9007112,0.0,0.1,0.042733945,1.1149545,0.35164294,1.0465208,0.2507118,inf,inf,inf,inf,0,1,0,1,1,0,1,1,0,0,0
10185270,0,0.0,0.0,0.0,0.0,0.004650359,-6.5042826e-07,-2.2810958e-07,0.0,-0.004854932,-0.0015866625,-0.041511163,-0.10919134,-0.00016264772,-5.7041652e-05,0.0,-0.007641547,0.04077146,-0.040021352,0.90106744,0.0,0.1,0.041511163,1.1959896,0.3503713,1.0906954,0.24696161,inf,inf,inf,inf,0,1,0,1,1,0,1,1,0,0,0
10289319,0,0.0,0.0,0.0,0.0,0.0041036233,-6.5042826e-07,-2.2810958e-07,0.0,-0.0049259905,-0.0015081546,-0.041333266,-0.09845826,-0.00016264772,-5.7041652e-05,0.0,0.0062913136,0.010534656,0.004477943,0.9013922,0.0,0.1,0.041333266,1.2813336,0.34543234,1.1329639,0.24117607,inf,inf,inf,inf,0,1,0,1,1,0,1,1,0,0,0
10393282,0,0.0,0.0,0.0,0.0,0.007242111,-6.5042826e-07,-2.2810958e-07,0.0,-0.005505343,-0.0012561629,-0.038700867,-0.08331494,-0.00016264772,-5.7041652e-05,0.0,0.0141819045,-0.0358419,-0.022049002,0.9013369,0.0,0.1,0.038700867,1.3708904,0.3455689,1.1752962,0.23810202,inf,inf,inf,inf,0,1,0,1,1,0,1,1,0,0,0
10489341,0,0.0,0.0,0.0,0.0,0.007043442,-6.5042826e-07,-2.2810958e-07,0.0,-0.005620258,-0.0009822277,-0.038366236,-0.07604713,-0.00016264772,-5.7041652e-05,0.0,0.008358236,-0.011288928,-0.017298955,0.9013056,0.0,0.1,0.038366236,1.451903,0.3442015,1.2098697,0.23451082,inf,inf,inf,inf,0,1,0,1,1,0,1,1,0,0,0
10592465,0,0.0,0.0,0.0,0.0,0.007392985,-6.5042826e-07,-2.2810958e-07,0.0,-0.004955388,-0.0014932398,-0.037905715,-0.06849776,-0.00016264772,-5.7041652e-05,0.0,0.025392465,-0.0045686597,-0.031452317,0.9003309,0.0,0.1,0.037905715,1.5408045,0.3443707,1.2452501,0.23149323,inf,inf,inf,inf,0,1,0,1,1,0,1,1,0,0,0
10696465,0,0.0,0.0,0.0,0.0,0.005148416,-6.5042826e-07,-2.2810958e-07,0.0,-0.003575112,-0.0020427774,-0.03907037,-0.06588224,-0.00016264772,-5.7041652e-05,0.0,-0.004309726,0.0023439631,-0.02060837,0.8993147,0.0,0.1,0.03907037,1.6160885,0.33932635,1.2682617,0.22609687,inf,inf,inf,inf,0,1,0,1,1,0,1,1,0,0,0
10799665,0,0.0,0.0,0.0,0.0,-0.00067965506,-6.5042826e-07,-2.2810958e-07,0.0,-0.0031312988,-0.0020959654,-0.042314306,-0.06912579,-0.00016264772,-5.7041652e-05,0.0,-0.015954489,-0.010975732,0.010350037,0.89854056,0.0,0.1,0.042314306,1.6987636,0.33947048,1.2942139,0.22322357,inf,inf,inf,inf,0,1,0,1,1,0,1,1,0,0,0
10895681,0,0.0,0.0,0.0,0.0,-0.0063308636,-6.5042826e-07,-2.2810958e-07,0.0,-0.0036795342,-0.0014956902,-0.044493727,-0.07107385,-0.00016264772,-5.7041652e-05,0.0,-0.0015017736,0.006764081,-0.020482354,0.8974224,0.0,0.1,0.044493727,1.7680409,0.33817896,1.3114215,0.21997155,inf,inf,inf,inf,0,1,0,1,1,0,1,1,0,0,0
10999664,0,0.0,0.0,0.0,0.0,-0.01860039,-6.5042826e-07,-2.2810958e-07,0.0,-0.0046187933,-0.0011352799,-0.050416246,-0.08221208,-0.00016264772,-5.7041652e-05,0.0,-0.010953614,-0.00018627428,-0.030413566,0.8963655,0.0,0.1,0.050416246,1.8265727,0.3334508,1.3176105,0.21503033,inf,inf,inf,inf,0,1,0,1,1,0,1,1,0,0,0
11104465,0,0.0,0.0,0.0,0.0,-0.030647991,-6.5042826e-07,-2.2810958e-07,0.0,-0.0051294775,-0.0004659741,-0.055754133,-0.09106565,-0.00016264772,-5.7041652e-05,0.0,-0.0057507963,0.0026223538,-0.010223952,0.89617765,0.0,0.1,0.055754133,1.8951722,0.33359033,1.3292897,0.21237017,inf,inf,inf,inf,0,1,0,1,1,0,1,1,0,0,0
11206910,0,0.0,0.0,0.0,0.0,-0.045360003,-6.5042826e-07,-2.2810958e-07,0.0,-0.00409779,-0.00034015335,-0.061584316,-0.10190897,-0.00016264772,-5.7041652e-05,0.0,-0.0008316851,-0.0037132527,0.0038087862,0.89651245,0.0,0.1,0.061584316,1.9586295,0.33367315,1.336651,0.20973583,inf,inf,inf,inf,0,1,0,1,1,0,1,1,0,0,0
11302864,0,0.0,0.0,0.0,0.0,-0.059259888,-6.5042826e-07,-2.2810958e-07,0.0,-0.0030536137,-0.0006708192,-0.06659919,-0.11073619,-0.00016264772,-5.7041652e-05,0.0,0.0113082845,-0.0037781054,-0.04197783,0.8972052,0.0,0.1,0.06659919,1.9878696,0.328028,1.3238229,0.20473905,inf,inf,inf,inf,0,1,0,1,1,0,1,1,0,0,0
11409346,0,0.0,0.0,0.0,0.0,-0.07392163,-6.5042826e-07,-2.2810958e-07,0.0,-0.0015005416,-0.0011844807,-0.07221557,-0.11871561,-0.00016264772,-5.7041652e-05,0.0,0.016543826,-0.01824244,-0.027885528,0.89750695,0.0,0.1,0.07221557,2.0377994,0.3279252,1.3225738,0.20229359,inf,inf,inf,inf,0,1,0,1,1,0,1,1,0,0,0
11506065,0,0.0,0.0,0.0,0.0,-0.08351672,-6.5042826e-07,-2.2810958e-07,0.0,-0.0013740418,-0.0014927338,-0.07455726,-0.118851356,-0.00016264772,-5.7041652e-05,0.0,0.0034082548,0.0035562022,-0.0064597162,0.8972264,0.0,0.1,0.07455726,2.0741575,0.3266871,1.314831,0.19947083,inf,inf,inf,inf,0,1,0,1,1,0,1,1,0,0,0
11610079,0,0.0,0.0,0.0,0.0,-0.08723559,-6.5042826e-07,-2.2810958e-07,0.0,-0.0017585057,-0.00079446274,-0.073294185,-0.108673625,-0.00016264772,-5.7041652e-05,0.0,-0.020767722,0.02649923,-0.006274411,0.8968837,0.0,0.1,0.073294185,2.1195529,0.32727188,1.3090347,0.19711053,inf,inf,inf,inf,0,1,0,1,1,0,1,1,0,0,0
11713267,0,0.0,0.0,0.0,0.0,-0.0795,-6.5042826e-07,-2.2810958e-07,0.0,-0.0017054777,0.00015585838,-0.06715138,-0.08406375,-0.00016264772,-5.7041652e-05,0.0,-0.0008582821,0.011629552,0.008154833,0.89674234,0.0,0.1,0.06715138,2.130994,0.3229384,1.2849313,0.19287927,inf,inf,inf,inf,0,1,0,1,1,0,1,1,0,0,0
11809336,0,0.0,0.0,0.0,0.0,-0.07100127,-6.5042826e-07,-2.2810958e-07,0.0,-0.0013955258,0.00038988027,-0.06021932,-0.061780907,-0.00016264772,-5.7041652e-05,0.0,-0.0063577397,0.01025631,-0.00832549,0.8960583,0.0,0.1,0.06021932,2.1514602,0.32159796,1.2693146,0.19019382,inf,inf,inf,inf,0,1,0,1,1,0,1,1,0,0,0
11913287,0,0.0,0.0,0.0,0.0,-0.060624246,-6.5042826e-07,-2.2810958e-07,0.0,-0.00015472535,-0.00024340526,-0.053675584,-0.04033987,-0.00016264772,-5.7041652e-05,0.0,0.021814836,-0.0076523153,0.01624899,0.89480495,0.0,0.1,0.053675584,2.1768062,0.32141697,1.2552644,0.18793383,inf,inf,inf,inf,0,1,0,1,1,0,1,1,0,0,0
12017265,0,0.0,0.0,0.0,0.0,-0.051164903,-6.5042826e-07,-2.2810958e-07,0.0,0.0015819145,-0.0002980548,-0.047683045,-0.02303523,-0.00016264772,-5.7041652e-05,0.0,1.9403726e-05,0.012669262,-0.007269967,0.89421725,0.0,0.1,0.047683045,2.199243,0.32134065,1.2401693,0.1857162,inf,inf,inf,inf,0,1,0,1,1,0,1,1,0,0,0
12120464,0,0.0,0.0,0.0,0.0,-0.04358343,-6.5042826e-07,-2.2810958e-07,0.0,0.0019507351,-0.0010178519,-0.044429585,-0.012323183,-0.00016264772,-5.7041652e-05,0.0,-0.016074013,0.0061491034,-0.00026675122,0.894775,0.0,0.1,0.044429585,2.1918135,0.31724468,1.2101554,0.18190128,inf,inf,inf,inf,0,1,0,1,1,0,1,1,0,0,0
12216465,0,0.0,0.0,0.0,0.0,-0.040870175,-6.5042826e-07,-2.2810958e-07,0.0,0.0008730351,-0.00097078347,-0.04194533,-0.007970041,-0.00016264772,-5.7041652e-05,0.0,-0.004342534,0.010459807,0.012922037,0.89557886,0.0,0.1,0.04194533,2.1975262,0.31591338,1.1907544,0.17950504,inf,inf,inf,inf,0,1,0,1,1,0,1,1,0,0,0
12319671,0,0.0,0.0,0.0,0.0,-0.035359737,-6.5042826e-07,-2.2810958e-07,0.0,0.0008930161,-0.0002748058,-0.039181896,-0.0010143088,-0.00016264772,-5.7041652e-05,0.0,0.0037967672,-0.0070878672,0.033080824,0.89642483,0.0,0.1,0.039181896,2.1842306,0.31203812,1.1608485,0.17592923,inf,inf,inf,inf,0,1,0,1,1,0,1,1,0,0,0
12423669,0,0.0,0.0,0.0,0.0,-0.027584618,-6.5042826e-07,-2.2810958e-07,0.0,0.0009888387,9.123173e-05,-0.035247605,0.008602953,-0.00016264772,-5.7041652e-05,0.0,-0.0057580313,-0.00208335,0.0036338498,0.8969942,0.0,0.1,0.035247605,2.1954985,0.31213844,1.1449735,0.17403921,inf,inf,inf,inf,0,1,0,1,1,0,1,1,0,0,0
12526884,0,0.0,0.0,0.0,0.0,-0.014872936,-6.5042826e-07,-2.2810958e-07,0.0,0.002318807,-0.00031076197,-0.028696226,0.024589585,-0.00016264772,-5.7041652e-05,0.0,0.01028586,-0.02083189,0.0014449874,0.89781016,0.0,0.1,0.028696226,2.2035239,0.31207836,1.1290349,0.17216375,inf,inf,inf,inf,0,1,0,1,1,0,1,1,0,0,0
12622882,0,0.0,0.0,0.0,0.0,-0.004187599,-6.5042826e-07,-2.2810958e-07,0.0,0.0031309368,-0.0009317417,-0.023345046,0.035985246,-0.00016264772,-5.7041652e-05,0.0,-0.009256895,0.020457199,-0.0189945,0.89851975,0.0,0.1,0.023345046,2.1761603,0.30733868,1.0987666,0.16859879,inf,inf,inf,inf,0,1,0,1,1,0,1,1,0,0,0
12726874,0,0.0,0.0,0.0,0.0,0.00759126,-6.5042826e-07,-2.2810958e-07,0.0,0.0037315625,-0.00057507824,-0.017599672,0.047198243,-0.00016264772,-5.7041652e-05,0.0,-0.004691853,0.009497793,-0.007231864,0.8992143,0.0,0.1,0.017599672,2.182141,0.3074675,1.0847989,0.16686499,inf,inf,inf,inf,0,1,0,1,1,0,1,1,0,0,0
12830871,0,0.0,0.0,0.0,0.0,0.021559259,-6.5042826e-07,-2.2810958e-07,0.0,0.003085628,-0.00035093314,-0.011222023,0.059959423,-0.00016264772,-5.7041652e-05,0.0,-0.007792782,0.006832529,-0.0017542695,0.89963585,0.0,0.1,0.011222023,2.1857088,0.3074453,1.0713501,0.16513996,inf,inf,inf,inf,0,1,0,1,1,0,1,1,0,0,0
12926111,0,0.0,0.0,0.0,0.0,0.029805418,-6.5042826e-07,-2.2810958e-07,0.0,0.0022517208,0.00034320413,-0.007989143,0.06335683,-0.00016264772,-5.7041652e-05,0.0,-0.0073549636,-0.0066933706,-0.0011744439,0.8991195,0.0,0.1,0.007989143,2.180608,0.30639398,1.0564702,0.16315298,inf,inf,inf,inf,0,1,0,1,1,0,1,1,0,0,0
13030064,0,0.0,0.0,0.0,0.0,0.034074556,-6.5042826e-07,-2.2810958e-07,0.0,0.0016824563,0.00047160356,-0.0061478196,0.06075,-0.00016264772,-5.7041652e-05,0.0,-0.0145686595,0.014020694,0.0060944366,0.89834726,0.0,0.1,0.0061478196,2.157073,0.3028907,1.0341744,0.16014506,inf,inf,inf,inf,0,1,0,1,1,0,1,1,0,0,0
13134091,0,0.0,0.0,0.0,0.0,0.03896965,-6.5042826e-07,-2.2810958e-07,0.0,0.0020728789,-0.00017427403,-0.0041778865,0.059328385,-0.00016264772,-5.7041652e-05,0.0,-0.0063301222,-0.0070170783,0.013027458,0.89754564,0.0,0.1,0.0041778865,2.157517,0.30281502,1.0245229,0.158519,inf,inf,inf,inf,0,1,0,1,1,0,1,1,0,0,0
13237265,0,0.0,0.0,0.0,0.0,0.04175298,-6.5042826e-07,-2.2810958e-07,0.0,0.003990574,-0.0016136719,-0.0030727307,0.055463247,-0.00016264772,-5.7041652e-05,0.0,0.008857237,-0.019231962,0.024734,0.89618313,0.0,0.1,0.0030727307,2.1579542,0.3028152,1.0165299,0.15692173,inf,inf,inf,inf,0,1,0,1,1,0,1,1,0,0,0
13341283,0,0.0,0.0,0.0,0.0,0.04748497,-6.5042826e-07,-2.2810958e-07,0.0,0.0044271364,-0.0021717797,-4.5091438e-06,0.056971893,-0.00016264772,-5.7041652e-05,0.0,0.011085378,0.001078163,0.016008457,0.8945701,0.0,0.1,4.5091438e-06,2.1331317,0.29938197,0.9998783,0.15409069,inf,inf,inf,inf,0,1,0,1,1,0,1,1,0,0,0
13437271,0,0.0,0.0,0.0,0.0,0.04896906,-6.5042826e-07,-2.2810958e-07,0.0,0.003857021,-0.0019671423,0.00051114074,0.05232792,-0.00016264772,-5.7041652e-05,0.0,-0.0010372696,3.4829896e-05,0.0012456775,0.8931086,0.0,0.1,-0.00051114074,2.124574,0.2982289,0.9923941,0.15229568,inf,inf,inf,inf,0,1,0,1,1,0,1,1,0,0,0
13541289,0,0.0,0.0,0.0,0.0,0.051917113,-6.5042826e-07,-2.2810958e-07,0.0,0.00253096,-0.0010793735,0.0019371588,0.050212096,-0.00016264772,-5.7041652e-05,0.0,-0.010023875,0.008537848,0.010148315,0.89158577,0.0,0.1,-0.0019371588,2.1238837,0.298186,0.9896333,0.15079996,inf,inf,inf,inf,0,1,0,1,1,0,1,1,0,0,0
13644464,0,0.0,0.0,0.0,0.0,0.056404706,-6.5042826e-07,-2.2810958e-07,0.0,0.001392493,-0.00090766186,0.0037069956,0.050286815,-0.00016264772,-5.7041652e-05,0.0,-0.015577707,-0.005197824,-0.0043144636,0.89066446,0.0,0.1,-0.0037069956,2.12306,0.2981282,0.9887163,0.1493293,inf,inf,inf,inf,0,1,0,1,1,0,1,1,0,0,0
13748522,0,0.0,0.0,0.0,0.0,0.06256617,-6.5042826e-07,-2.2810958e-07,0.0,0.0011499785,-0.001127251,0.0063060843,0.052865773,-0.00016264772,-5.7041652e-05,0.0,0.025047576,-0.005581281,0.004653803,0.8898378,0.0,0.1,-0.0063060843,2.0980067,0.29470146,0.9802691,0.14671957,inf,inf,inf,inf,0,1,0,1,1,0,1,1,0,0,0
13852471,0,0.0,0.0,0.0,0.0,0.068633854,-6.5042826e-07,-2.2810958e-07,0.0,0.0017079727,-0.001083444,0.009154509,0.055299364,-0.00016264772,-5.7041652e-05,0.0,0.009351544,0.00475649,0.015693966,0.8889225,0.0,0.1,-0.009154509,2.0980356,0.29472134,0.9836151,0.14536288,inf,inf,inf,inf,0,1,0,1,1,0,1,1,0,0,0
13947664,0,0.0,0.0,0.0,0.0,0.07378802,-6.5042826e-07,-2.2810958e-07,0.0,0.0024863055,-0.0020247565,0.011130592,0.056326963,-0.00016264772,-5.7041652e-05,0.0,0.00496331,-0.008786554,0.036927808,0.88870364,0.0,0.1,-0.011130592,2.0686085,0.2906207,0.97728527,0.14270103,inf,inf,inf,inf,0,1,0,1,1,0,1,1,0,0,0
14051671,0,0.0,0.0,0.0,0.0,0.078861885,-6.5042826e-07,-2.2810958e-07,0.0,0.002322335,-0.0019627921,0.012325743,0.055850193,-0.00016264772,-5.7041652e-05,0.0,-0.0017410687,0.019496115,-0.005894915,0.8890669,0.0,0.1,-0.012325743,2.0697227,0.2907003,0.98469055,0.14144407,inf,inf,inf,inf,0,1,0,1,1,0,1,1,0,0,0
14155665,0,0.0,0.0,0.0,0.0,0.0803873,-6.5042826e-07,-2.2810958e-07,0.0,0.0012130281,-0.0014272609,0.011167116,0.049697585,-0.00016264772,-5.7041652e-05,0.0,-0.017583996,0.005733589,-0.042442475,0.8905482,0.0,0.1,-0.011167116,2.0704143,0.2906571,0.9935822,0.1401946,inf,inf,inf,inf,0,1,0,1,1,0,1,1,0,0,0
14258876,0,0.0,0.0,0.0,0.0,0.081643865,-6.5042826e-07,-2.2810958e-07,0.0,0.00013076013,-0.0005032333,0.011126937,0.045253493,-0.00016264772,-5.7041652e-05,0.0,-0.0067787156,0.012519985,0.045757376,0.8918686,0.0,0.1,-0.011126937,2.0503516,0.28766865,0.99672234,0.1379467,inf,inf,inf,inf,0,1,0,1,1,0,1,1,0,0,0
14362867,0,0.0,0.0,0.0,0.0,0.07923095,-6.5042826e-07,-2.2810958e-07,0.0,-0.00021295658,-0.00031812277,0.010406179,0.03710459,-0.00016264772,-5.7041652e-05,0.0,-0.013865812,-0.012638589,0.0060913917,0.89255315,0.0,0.1,-0.010406179,2.0520866,0.2876081,1.0092353,0.13675049,inf,inf,inf,inf,0,1,0,1,1,0,1,1,0,0,0
14466105,0,0.0,0.0,0.0,0.0,0.07574672,-6.5042826e-07,-2.2810958e-07,0.0,-2.3919969e-05,-0.0012139835,0.008468179,0.02787025,-0.00016264772,-5.7041652e-05,0.0,0.0049728877,-0.009383471,0.022540241,0.89215636,0.0,0.1,-0.008468179,2.0550992,0.28762043,1.0236259,0.13558155,inf,inf,inf,inf,0,1,0,1,1,0,1,1,0,0,0
14570065,0,0.0,0.0,0.0,0.0,0.07278093,-6.5042826e-07,-2.2810958e-07,0.0,0.00069638586,-0.0016114231,0.007195764,0.020841766,-0.00016264772,-5.7041652e-05,0.0,-0.0112209,-0.010022542,-0.015925085,0.8922494,0.0,0.1,-0.007195764,2.0373492,0.28468806,1.0320041,0.13346113,inf,inf,inf,inf,0,1,0,1,1,0,1,1,0,0,0
14666071,0,0.0,0.0,0.0,0.0,0.06943779,-6.5042826e-07,-2.2810958e-07,0.0,0.0009953987,-0.0018434887,0.005442682,0.014000829,-0.00016264772,-5.7041652e-05,0.0,-0.008612534,-0.0015152446,-0.0068491455,0.89257276,0.0,0.1,-0.005442682,2.0342503,0.28371102,1.0453634,0.13212909,inf,inf,inf,inf,0,1,0,1,1,0,1,1,0,0,0
14769319,0,0.0,0.0,0.0,0.0,0.06825738,-6.5042826e-07,-2.2810958e-07,0.0,-0.00037340488,-0.0015035353,0.0051184646,0.01129966,-0.00016264772,-5.7041652e-05,0.0,-0.017047621,0.011289526,-0.034562793,0.8926758,0.0,0.1,-0.0051184646,2.0395439,0.2837037,1.0640124,0.1310362,inf,inf,inf,inf,0,1,0,1,1,0,1,1,0,0,0
14873265,0,0.0,0.0,0.0,0.0,0.06997049,-6.5042826e-07,-2.2810958e-07,0.0,-0.0015027106,-0.0012295274,0.0054598455,0.0124219805,-0.00016264772,-5.7041652e-05,0.0,-0.0145181175,0.0013483859,-0.0060850736,0.8930452,0.0,0.1,-0.0054598455,2.045749,0.283683,1.083853,0.12996228,inf,inf,inf,inf,0,1,0,1,1,0,1,1,0,0,0
14977265,0,0.0,0.0,0.0,0.0,0.07300271,-6.5042826e-07,-2.2810958e-07,0.0,-0.0021614095,-0.0010536717,0.007701353,0.016306922,-0.00016264772,-5.7041652e-05,0.0,-0.0065115485,-0.022103,0.0072594173,0.89302516,0.0,0.1,-0.007701353,2.0309258,0.28075397,1.0968118,0.12799753,inf,inf,inf,inf,0,1,0,1,1,0,1,1,0,0,0
15081265,0,0.0,0.0,0.0,0.0,0.07304848,-6.5042826e-07,-2.2810958e-07,0.0,-0.0013108678,-0.0012335023,0.006983531,0.01396983,-0.00016264772,-5.7041652e-05,0.0,0.02262825,0.0025993644,0.011736464,0.8928707,0.0,0.1,-0.006983531,2.0392478,0.2807541,1.1186578,0.12699087,inf,inf,inf,inf,0,1,0,1,1,0,1,1,0,0,0
15176482,0,0.0,0.0,0.0,0.0,0.071031064,-6.5042826e-07,-2.2810958e-07,0.0,-0.0009583561,-0.0019928277,0.0058414456,0.009605549,-0.00016264772,-5.7041652e-05,0.0,0.009316844,0.010155455,-0.011252563,0.8929769,0.0,0.1,-0.0058414456,2.041399,0.27990955,1.1371787,0.12581047,inf,inf,inf,inf,0,1,0,1,1,0,1,1,0,0,0
15280476,0,0.0,0.0,0.0,0.0,0.06579274,-6.5042826e-07,-2.2810958e-07,0.0,-0.00038048343,-0.0020615582,0.003452312,0.0012747099,-0.00016264772,-5.7041652e-05,0.0,-0.015765794,-0.0019076946,0.002857373,0.8933756,0.0,0.1,-0.003452312,2.030666,0.27721375,1.1528113,0.1240078,inf,inf,inf,inf,0,1,0,1,1,0,1,1,0,0,0
15386101,0,0.0,0.0,0.0,0.0,0.063119866,-6.5042826e-07,-2.2810958e-07,0.0,-0.00053512974,-0.0014558178,0.002749559,-0.0018925327,-0.00016264772,-5.7041652e-05,0.0,-0.0062013925,0.011369832,0.012539969,0.893625,0.0,0.1,-0.002749559,2.0414407,0.27715456,1.1760939,0.1230717,inf,inf,inf,inf,0,1,0,1,1,0,1,1,0,0,0
15483665,0,0.0,0.0,0.0,0.0,0.061691977,-6.5042826e-07,-2.2810958e-07,0.0,-0.0020263116,-0.00029226212,0.002713165,-0.0028720929,-0.00016264772,-5.7041652e-05,0.0,0.004423403,0.002922845,-0.031104987,0.8937056,0.0,0.1,-0.002713165,2.0463517,0.27634695,1.1957169,0.121978156,inf,inf,inf,inf,0,1,0,1,1,0,1,1,0,0,0
15587689,0,0.0,0.0,0.0,0.0,0.06053634,-6.5042826e-07,-2.2810958e-07,0.0,-0.0023490374,0.0003308898,0.0025955224,-0.0035740787,-0.00016264772,-5.7041652e-05,0.0,-0.011180504,-0.00088627037,0.007609859,0.89308834,0.0,0.1,-0.0025955224,2.0431137,0.27424935,1.2147672,0.12037459,inf,inf,inf,inf,0,1,0,1,1,0,1,1,0,0,0
15683702,0,0.0,0.0,0.0,0.0,0.057155613,-6.5042826e-07,-2.2810958e-07,0.0,-0.0018617741,3.4397788e-05,0.00035359286,-0.008404777,-0.00016264772,-5.7041652e-05,0.0,-0.0021734394,0.023135036,-0.0063719237,0.8933531,0.0,0.1,-0.00035359286,2.048315,0.2733275,1.2334338,0.11932701,inf,inf,inf,inf,0,1,0,1,1,0,1,1,0,0,0
15786864,0,0.0,0.0,0.0,0.0,0.057967067,-6.5042826e-07,-2.2810958e-07,0.0,-0.0012064152,-0.00039143075,0.00042771312,-0.0063856603,-0.00016264772,-5.7041652e-05,0.0,0.014854453,0.013230935,0.0002509425,0.8943105,0.0,0.1,-0.00042771312,2.0641258,0.27339208,1.2575628,0.11851077,inf,inf,inf,inf,0,1,0,1,1,0,1,1,0,0,0
15890870,0,0.0,0.0,0.0,0.0,0.057113543,-6.5042826e-07,-2.2810958e-07,0.0,-0.00075452885,-0.00064217177,-0.00047308466,-0.007166754,-0.00016264772,-5.7041652e-05,0.0,0.014930182,0.0013063991,0.0140479095,0.895543,0.0,0.1,0.00047308466,2.058885,0.27094108,1.2728405,0.11696047,inf,inf,inf,inf,0,1,0,1,1,0,1,1,0,0,0
15989320,0,0.0,0.0,0.0,0.0,0.057004187,-6.5042826e-07,-2.2810958e-07,0.0,-0.00034020434,-0.00039201323,-0.00040161514,-0.0062634726,-0.00016264772,-5.7041652e-05,0.0,-0.010285688,0.006091528,-0.04030187,0.8969246,0.0,0.1,0.00040161514,2.067167,0.27015918,1.2910452,0.11600794,inf,inf,inf,inf,0,1,0,1,1,0,1,1,0,0,0
16094091,0,0.0,0.0,0.0,0.0,0.058754724,-6.5042826e-07,-2.2810958e-07,0.0,-0.0011289517,0.00026924806,0.00041794335,-0.002960682,-0.00016264772,-5.7041652e-05,0.0,-0.0146407075,-0.015306442,-0.010170711,0.898226,0.0,0.1,-0.00041794335,2.0851274,0.270222,1.313734,0.115249135,inf,inf,inf,inf,0,1,0,1,1,0,1,1,0,0,0
16198071,0,0.0,0.0,0.0,0.0,0.059378326,-6.5042826e-07,-2.2810958e-07,0.0,-0.0016257933,0.00051268516,3.042769e-07,-0.0022479692,-0.00016264772,-5.7041652e-05,0.0,0.0015181506,-0.022984989,0.02535202,0.8988176,0.0,0.1,-3.042769e-07,2.0836248,0.2680792,1.3278824,0.11383551,inf,inf,inf,inf,0,1,0,1,1,0,1,1,0,0,0
16301283,0,0.0,0.0,0.0,0.0,0.057576045,-6.5042826e-07,-2.2810958e-07,0.0,-0.00027955076,0.00068089494,-0.00091849023,-0.0046479604,-0.00016264772,-5.7041652e-05,0.0,0.009875483,0.0020982039,-0.00527647,0.8994467,0.0,0.1,0.00091849023,2.103734,0.26823005,1.3494445,0.113133915,inf,inf,inf,inf,0,1,0,1,1,0,1,1,0,0,0
16405265,0,0.0,0.0,0.0,0.0,0.050408255,-6.5042826e-07,-2.2810958e-07,0.0,0.0013647856,0.00071110856,-0.0032263035,-0.013314811,-0.00016264772,-5.7041652e-05,0.0,0.032629278,-0.0080567,-0.015618031,0.89939904,0.0,0.1,0.0032263035,2.1234415,0.2682919,1.3695302,0.11243003,inf,inf,inf,inf,0,1,0,1,1,0,1,1,0,0,0
16501265,0,0.0,0.0,0.0,0.0,0.042938758,-6.5042826e-07,-2.2810958e-07,0.0,0.002316878,0.0005409746,-0.0055174846,-0.021332761,-0.00016264772,-5.7041652e-05,0.0,0.0051977644,0.017300878,-0.0073739793,0.8988019,0.0,0.1,0.0055174846,2.1336598,0.26753318,1.3835131,0.11156853,inf,inf,inf,inf,0,1,0,1,1,0,1,1,0,0,0
16604517,0,0.0,0.0,0.0,0.0,0.039597277,-6.5042826e-07,-2.2810958e-07,0.0,0.0023956597,0.0014628734,-0.006659071,-0.023092737,-0.00016264772,-5.7041652e-05,0.0,-0.012819479,-0.00030925858,0.011703851,0.8983525,0.0,0.1,0.006659071,2.1293736,0.2652247,1.3908864,0.110219635,inf,inf,inf,inf,0,1,0,1,1,0,1,1,0,0,0
16708509,0,0.0,0.0,0.0,0.0,0.038084473,-6.5042826e-07,-2.2810958e-07,0.0,0.0021251265,0.0029535445,-0.0068634427,-0.021956839,-0.00016264772,-5.7041652e-05,0.0,-0.013532732,0.00024257967,0.01964021,0.89887536,0.0,0.1,0.0068634427,2.1492872,0.26527777,1.4074054,0.1095631,inf,inf,inf,inf,0,1,0,1,1,0,1,1,0,0,0
16804465,0,0.0,0.0,0.0,0.0,0.036496475,-6.5042826e-07,-2.2810958e-07,0.0,0.0014144783,0.0038279532,-0.0074265343,-0.02171949,-0.00016264772,-5.7041652e-05,0.0,-0.0054402454,0.0069447192,-0.0029570123,0.8997173,0.0,0.1,0.0074265343,2.1590714,0.26453605,1.4176501,0.10875645,inf,inf,inf,inf,0,1,0,1,1,0,1,1,0,0,0
16906908,0,0.0,0.0,0.0,0.0,0.03485673,-6.5042826e-07,-2.2810958e-07,0.0,0.0012796577,0.004359551,-0.008076664,-0.021437965,-0.00016264772,-5.7041652e-05,0.0,-0.003605123,-0.0050978973,0.008161456,0.9007771,0.0,0.1,0.008076664,2.1537557,0.26231113,1.420523,0.10749676,inf,inf,inf,inf,0,1,0,1,1,0,1,1,0,0,0
17011670,0,0.0,0.0,0.0,0.0,0.033127505,-6.5042826e-07,-2.2810958e-07,0.0,0.0020917812,0.0040004277,-0.007534211,-0.020188533,-0.00016264772,-5.7041652e-05,0.0,0.0013073155,0.015840469,0.032612447,0.9018796,0.0,0.1,0.007534211,2.173905,0.26241028,1.4336513,0.106905974,inf,inf,inf,inf,0,1,0,1,1,0,1,1,0,0,0
17115690,0,0.0,0.0,0.0,0.0,0.027322352,-6.5042826e-07,-2.2810958e-07,0.0,0.002950413,0.004030545,-0.00973362,-0.025651619,-0.00016264772,-5.7041652e-05,0.0,0.007904594,0.0002926934,-0.025293553,0.902692,0.0,0.1,0.00973362,2.192903,0.26243177,1.4449334,0.106314346,inf,inf,inf,inf,0,1,0,1,1,0,1,1,0,0,0
17219665,0,0.0,0.0,0.0,0.0,0.02302672,-6.5042826e-07,-2.2810958e-07,0.0,0.0029172043,0.0044447146,-0.011479547,-0.02861879,-0.00016264772,-5.7041652e-05,0.0,-0.010847421,0.0014131949,0.01616116,0.90265244,0.0,0.1,0.011479547,2.1866083,0.26031724,1.4436586,0.10514531,inf,inf,inf,inf,0,1,0,1,1,0,1,1,0,0,0
17314865,0,0.0,0.0,0.0,0.0,0.018816926,-6.5042826e-07,-2.2810958e-07,0.0,0.0024414612,0.005013251,-0.012506928,-0.030734923,-0.00016264772,-5.7041652e-05,0.0,-0.0054513565,0.008598354,-0.0020459201,0.9022018,0.0,0.1,0.012506928,2.196532,0.25975916,1.4486252,0.104464084,inf,inf,inf,inf,0,1,0,1,1,0,1,1,0,0,0
17418867,0,0.0,0.0,0.0,0.0,0.01881999,-6.5042826e-07,-2.2810958e-07,0.0,0.0016163928,0.005764415,-0.012978594,-0.027742306,-0.00016264772,-5.7041652e-05,0.0,0.009254878,0.009897434,-0.0064993585,0.90116405,0.0,0.1,0.012978594,2.214838,0.25982475,1.4564054,0.1039265,inf,inf,inf,inf,0,1,0,1,1,0,1,1,0,0,0
17522064,0,0.0,0.0,0.0,0.0,0.016093483,-6.5042826e-07,-2.2810958e-07,0.0,0.0010039265,0.0063418075,-0.01341753,-0.027840408,-0.00016264772,-5.7041652e-05,0.0,0.004633702,0.009263182,0.024146559,0.90000963,0.0,0.1,0.01341753,2.2060142,0.25777093,1.4505333,0.102823466,inf,inf,inf,inf,0,1,0,1,1,0,1,1,0,0,0
17626104,0,0.0,0.0,0.0,0.0,0.012603699,-6.5042826e-07,-2.2810958e-07,0.0,0.00041556518,0.0068468475,-0.013297026,-0.02804932,-0.00016264772,-5.7041652e-05,0.0,-0.01816563,-0.0066900034,0.0041740285,0.89945674,0.0,0.1,0.013297026,2.2235358,0.25788617,1.4558767,0.102317445,inf,inf,inf,inf,0,1,0,1,1,0,1,1,0,0,0
17722082,0,0.0,0.0,0.0,0.0,0.011041956,-6.5042826e-07,-2.2810958e-07,0.0,0.0012611413,0.0059664105,-0.013388102,-0.026887268,-0.00016264772,-5.7041652e-05,0.0,0.0129259275,0.009626507,-0.010521536,0.89950216,0.0,0.1,0.013388102,2.229651,0.25726402,1.4552326,0.10167457,inf,inf,inf,inf,0,1,0,1,1,0,1,1,0,0,0
17826104,0,0.0,0.0,0.0,0.0,0.010041373,-6.5042826e-07,-2.2810958e-07,0.0,0.0014951561,0.00592173,-0.012299935,-0.023888744,-0.00016264772,-5.7041652e-05,0.0,0.002497871,0.0075112577,0.040982712,0.9002851,0.0,0.1,0.012299935,2.245906,0.25737315,1.4581285,0.10118982,inf,inf,inf,inf,0,1,0,1,1,0,1,1,0,0,0
17925268,0,0.0,0.0,0.0,0.0,0.011108498,-6.5042826e-07,-2.2810958e-07,0.0,0.0013141707,0.0056146854,-0.011333066,-0.019508079,-0.00016264772,-5.7041652e-05,0.0,-0.02254317,0.0055271094,-0.006396815,0.9011999,0.0,0.1,0.011333066,2.2515295,0.2568146,1.4557616,0.10057881,inf,inf,inf,inf,0,1,0,1,1,0,1,1,0,0,0
18029326,0,0.0,0.0,0.0,0.0,0.012118729,-6.5042826e-07,-2.2810958e-07,0.0,0.0004617443,0.006738523,-0.010659315,-0.01581699,-0.00016264772,-5.7041652e-05,0.0,-0.0054467,0.005330817,0.024338042,0.90206736,0.0,0.1,0.010659315,2.2420175,0.2550883,1.4451491,0.0996258,inf,inf,inf,inf,0,1,0,1,1,0,1,1,0,0,0
18132465,0,0.0,0.0,0.0,0.0,0.01548211,-6.5042826e-07,-2.2810958e-07,0.0,-0.00021801295,0.00660624,-0.008866688,-0.009191527,-0.00016264772,-5.7041652e-05,0.0,0.013631481,-0.012568653,-0.0061726617,0.90241075,0.0,0.1,0.008866688,2.2563894,0.25520784,1.4450969,0.09918228,inf,inf,inf,inf,0,1,0,1,1,0,1,1,0,0,0
18228464,0,0.0,0.0,0.0,0.0,0.023805697,-6.5042826e-07,-2.2810958e-07,0.0,-0.0009450441,0.0065477155,-0.0057145036,0.0028250762,-0.00016264772,-5.7041652e-05,0.0,0.012080469,-0.0011520904,0.019236038,0.9020083,0.0,0.1,0.0057145036,2.2322485,0.25265458,1.4270698,0.098098435,inf,inf,inf,inf,0,1,0,1,1,0,1,1,0,0,0
18332471,0,0.0,0.0,0.0,0.0,0.031285025,-6.5042826e-07,-2.2810958e-07,0.0,-0.00010149827,0.0059959483,-0.0030170446,0.012159717,-0.00016264772,-5.7041652e-05,0.0,0.028678155,-0.0209938,0.005511256,0.9014126,0.0,0.1,0.0030170446,2.2448764,0.25275114,1.4252923,0.0976818,inf,inf,inf,inf,0,1,0,1,1,0,1,1,0,0,0
18435704,0,0.0,0.0,0.0,0.0,0.038180925,-6.5042826e-07,-2.2810958e-07,0.0,0.0011423322,0.0049760477,-0.0012440822,0.018898264,-0.00016264772,-5.7041652e-05,0.0,0.015749814,-0.016856821,-0.021027854,0.90065336,0.0,0.1,0.0012440822,2.2299314,0.25092292,1.4101583,0.09678067,inf,inf,inf,inf,0,1,0,1,1,0,1,1,0,0,0
18539675,0,0.0,0.0,0.0,0.0,0.044366136,-6.5042826e-07,-2.2810958e-07,0.0,0.0020920562,0.0042582834,1.4062367e-05,0.023655582,-0.00016264772,-5.7041652e-05,0.0,-0.0024999867,0.01082622,-0.010841149,0.8999485,0.0,0.1,-1.4062367e-05,2.242694,0.2511117,1.4075476,0.096404746,inf,inf,inf,inf,0,1,0,1,1,0,1,1,0,0,0
18635678,0,0.0,0.0,0.0,0.0,0.04856514,-6.5042826e-07,-2.2810958e-07,0.0,0.001933643,0.004161601,0.0015656274,0.026573544,-0.00016264772,-5.7041652e-05,0.0,0.00091223617,-0.012564148,0.008081043,0.8993122,0.0,0.1,-0.0015656274,2.244082,0.25060934,1.3999262,0.09589901,inf,inf,inf,inf,0,1,0,1,1,0,1,1,0,0,0
18739665,0,0.0,0.0,0.0,0.0,0.053611454,-6.5042826e-07,-2.2810958e-07,0.0,0.0007661679,0.005406436,0.002769626,0.029448245,-0.00016264772,-5.7041652e-05,0.0,-0.00637892,-0.0019686895,-0.012058827,0.89831054,0.0,0.1,-0.002769626,2.2281258,0.24887459,1.3835101,0.09506229,inf,inf,inf,inf,0,1,0,1,1,0,1,1,0,0,0
18842865,0,0.0,0.0,0.0,0.0,0.057907384,-6.5042826e-07,-2.2810958e-07,0.0,8.865178e-05,0.0054989127,0.0030215785,0.030338878,-0.00016264772,-5.7041652e-05,0.0,0.0107581625,0.0047293287,-0.034094144,0.89733964,0.0,0.1,-0.0030215785,2.2393525,0.24908584,1.37915,0.0947213,inf,inf,inf,inf,0,1,0,1,1,0,1,1,0,0,0
18938870,0,0.0,0.0,0.0,0.0,0.059518,-6.5042826e-07,-2.2810958e-07,0.0,1.531392e-05,0.0048818267,0.0033441896,0.028948141,-0.00016264772,-5.7041652e-05,0.0,0.013389453,0.006616932,0.00037176863,0.8965459,0.0,0.1,-0.0033441896,2.2403586,0.24868044,1.3706499,0.09426488,inf,inf,inf,inf,0,1,0,1,1,0,1,1,0,0,0
19042065,0,0.0,0.0,0.0,0.0,0.06324996,-6.5042826e-07,-2.2810958e-07,0.0,0.002196069,0.0040735523,0.0034582452,0.02934161,-0.00016264772,-5.7041652e-05,0.0,0.010691671,-0.012432866,0.010409329,0.89540577,0.0,0.1,-0.0034582452,2.222132,0.24694866,1.3526111,0.0934689,inf,inf,inf,inf,0,1,0,1,1,0,1,1,0,0,0
19142094,0,0.0,0.0,0.0,0.0,0.063334756,-6.5042826e-07,-2.2810958e-07,0.0,0.00340937,0.0033555212,0.003001883,0.025791353,-0.00016264772,-5.7041652e-05,0.0,-0.0058683697,0.0155152,-0.019568613,0.89484686,0.0,0.1,-0.003001883,2.2226682,0.24658167,1.3436409,0.09304349,inf,inf,inf,inf,0,1,0,1,1,0,1,1,0,0,0
19246076,0,0.0,0.0,0.0,0.0,0.06312398,-6.5042826e-07,-2.2810958e-07,0.0,0.0030413456,0.003387605,0.0034333584,0.023053657,-0.00016264772,-5.7041652e-05,0.0,-0.011733759,0.015059477,-0.0047758054,0.8945278,0.0,0.1,-0.0034333584,2.2305748,0.24673651,1.3370147,0.09272667,inf,inf,inf,inf,0,1,0,1,1,0,1,1,0,0,0
19349361,0,0.0,0.0,0.0,0.0,0.059749894,-6.5042826e-07,-2.2810958e-07,0.0,0.0018324344,0.0039830124,0.0022175808,0.015942477,-0.00016264772,-5.7041652e-05,0.0,-0.006646691,-0.01093363,0.036580957,0.89389956,0.0,0.1,-0.0022175808,2.2432668,0.24723151,1.3321391,0.09249187,inf,inf,inf,inf,0,1,0,1,1,0,1,1,0,0,0
19453268,0,0.0,0.0,0.0,0.0,0.057163,-6.5042826e-07,-2.2810958e-07,0.0,0.0011985851,0.0043520806,0.0014444324,0.0109726805,-0.00016264772,-5.7041652e-05,0.0,-0.0054660486,-0.016794724,-0.0042587426,0.89347184,0.0,0.1,-0.0014444324,2.222819,0.24555519,1.31249,0.09174663,inf,inf,inf,inf,0,1,0,1,1,0,1,1,0,0,0
19549319,0,0.0,0.0,0.0,0.0,0.059094213,-6.5042826e-07,-2.2810958e-07,0.0,0.0010485696,0.004340448,0.003194265,0.013404348,-0.00016264772,-5.7041652e-05,0.0,0.03470957,-0.005920385,-0.02501859,0.8931199,0.0,0.1,-0.003194265,2.2197561,0.24510299,1.3014382,0.091335475,inf,inf,inf,inf,0,1,0,1,1,0,1,1,0,0,0
19653278,0,0.0,0.0,0.0,0.0,0.06148048,-6.5042826e-07,-2.2810958e-07,0.0,0.00075464573,0.004102646,0.0037363728,0.014902635,-0.00016264772,-5.7041652e-05,0.0,-0.008264578,-0.013826962,-0.015128857,0.89318913,0.0,0.1,-0.0037363728,2.2262056,0.24529614,1.2937151,0.0910614,inf,inf,inf,inf,0,1,0,1,1,0,1,1,0,0,0
19756472,0,0.0,0.0,0.0,0.0,0.0651218,-6.5042826e-07,-2.2810958e-07,0.0,0.0013535729,0.0035951517,0.0038168598,0.016923998,-0.00016264772,-5.7041652e-05,0.0,-0.0044790776,-0.016440533,-0.0051199626,0.89296246,0.0,0.1,-0.0038168598,2.2321906,0.2454882,1.2857528,0.09079518,inf,inf,inf,inf,0,1,0,1,1,0,1,1,0,0,0
19852465,0,0.0,0.0,0.0,0.0,0.06611734,-6.5042826e-07,-2.2810958e-07,0.0,0.00086363015,0.0034684825,0.003440623,0.015822668,-0.00016264772,-5.7041652e-05,0.0,-0.003339088,0.0022502618,-0.013286133,0.8926407,0.0,0.1,-0.003440623,2.2278035,0.24503238,1.2741413,0.09041009,inf,inf,inf,inf,0,1,0,1,1,0,1,1,0,0,0
19956465,0,0.0,0.0,0.0,0.0,0.0699964,-6.5042826e-07,-2.2810958e-07,0.0,0.00077195064,0.0024586671,0.0053330064,0.01964642,-0.00016264772,-5.7041652e-05,0.0,-0.0070591066,0.022647649,0.037431654,0.8924939,0.0,0.1,-0.0053330064,2.2055726,0.24339437,1.2540168,0.08973115,inf,inf,inf,inf,0,1,0,1,1,0,1,1,0,0,0
20059664,0,0.0,0.0,0.0,0.0,0.07047186,-6.5042826e-07,-2.2810958e-07,0.0,0.00024587155,0.0027721147,0.0046210205,0.01728444,-0.00016264772,-5.7041652e-05,0.0,-0.011421428,-0.003476699,0.00653771,0.8921338,0.0,0.1,-0.0046210205,2.2102718,0.24358031,1.2456392,0.08949361,inf,inf,inf,inf,0,1,0,1,1,0,1,1,0,0,0
20163687,0,0.0,0.0,0.0,0.0,0.069526635,-6.5042826e-07,-2.2810958e-07,0.0,0.00054450415,0.002196917,0.0028625492,0.012775701,-0.00016264772,-5.7041652e-05,0.0,-0.009863856,0.031107357,0.013351678,0.89169896,0.0,0.1,-0.0028625492,2.1870897,0.24191757,1.225416,0.088835016,inf,inf,inf,inf,0,1,0,1,1,0,1,1,0,0,0
20266883,0,0.0,0.0,0.0,0.0,0.069920585,-6.5042826e-07,-2.2810958e-07,0.0,-3.720987e-05,0.0012143407,0.0038681584,0.012709143,-0.00016264772,-5.7041652e-05,0.0,-0.0025942624,0.02906764,-0.047963817,0.89095545,0.0,0.1,-0.0038681584,2.1919217,0.24213782,1.2173296,0.08862969,inf,inf,inf,inf,0,1,0,1,1,0,1,1,0,0,0
20362865,0,0.0,0.0,0.0,0.0,0.069688566,-6.5042826e-07,-2.2810958e-07,0.0,-0.0013132966,0.0018137754,0.0030181222,0.010523693,-0.00016264772,-5.7041652e-05,0.0,-0.0030758742,-0.02198681,-0.0043948577,0.89046,0.0,0.1,-0.0030181222,2.1879163,0.24179251,1.2063624,0.088321455,inf,inf,inf,inf,0,1,0,1,1,0,1,1,0,0,0
20466870,0,0.0,0.0,0.0,0.0,0.06867966,-6.5042826e-07,-2.2810958e-07,0.0,-0.00083929556,0.0015334748,0.0015287333,0.00703085,-0.00016264772,-5.7041652e-05,0.0,-0.00014789402,-0.016022827,-0.008276082,0.8902012,0.0,0.1,-0.0015287333,2.190331,0.24189691,1.1974946,0.088111706,inf,inf,inf,inf,0,1,0,1,1,0,1,1,0,0,0
20570104,0,0.0,0.0,0.0,0.0,0.0636261,-6.5042826e-07,-2.2810958e-07,0.0,-0.0013868085,0.0009902134,0.001218484,0.0010704545,-0.00016264772,-5.7041652e-05,0.0,-0.007051152,0.017199473,-0.010168188,0.8904058,0.0,0.1,-0.001218484,2.1689603,0.2404115,1.1786354,0.08754267,inf,inf,inf,inf,0,1,0,1,1,0,1,1,0,0,0
20674075,0,0.0,0.0,0.0,0.0,0.056576382,-6.5042826e-07,-2.2810958e-07,0.0,-0.0010881323,-2.7262064e-05,-0.0008445954,-0.007705139,-0.00016264772,-5.7041652e-05,0.0,0.0029034822,0.02196948,-0.010098049,0.8911828,0.0,0.1,0.0008445954,2.1725037,0.24063115,1.170335,0.087376036,inf,inf,inf,inf,0,1,0,1,1,0,1,1,0,0,0
20770089,0,0.0,0.0,0.0,0.0,0.050440468,-6.5042826e-07,-2.2810958e-07,0.0,-0.0007338744,-0.0008244131,-0.0028301566,-0.014610856,-0.00016264772,-5.7041652e-05,0.0,-0.021030918,-0.015876617,0.02979319,0.8918483,0.0,0.1,0.0028301566,2.167573,0.24029414,1.1593623,0.08710774,inf,inf,inf,inf,0,1,0,1,1,0,1,1,0,0,0
20873265,0,0.0,0.0,0.0,0.0,0.04429335,-6.5042826e-07,-2.2810958e-07,0.0,-0.00073922874,-0.0005151522,-0.00408583,-0.02008083,-0.00016264772,-5.7041652e-05,0.0,-0.018947538,0.005566514,0.015587885,0.8925501,0.0,0.1,0.00408583,2.1697433,0.24045584,1.1507254,0.08694607,inf,inf,inf,inf,0,1,0,1,1,0,1,1,0,0,0
20977289,0,0.0,0.0,0.0,0.0,0.039424676,-6.5042826e-07,-2.2810958e-07,0.0,-0.0021624046,-0.00054909056,-0.0050217914,-0.023354752,-0.00016264772,-5.7041652e-05,0.0,-0.013175232,0.030389883,-0.02976247,0.89256406,0.0,0.1,0.0050217914,2.147264,0.23894893,1.132107,0.08641395,inf,inf,inf,inf,0,1,0,1,1,0,1,1,0,0,0
21073286,0,0.0,0.0,0.0,0.0,0.035827924,-6.5042826e-07,-2.2810958e-07,0.0,-0.0038835409,-0.0009329025,-0.005485999,-0.02472196,-0.00016264772,-5.7041652e-05,0.0,-0.009935659,0.0021620975,0.007205362,0.892253,0.0,0.1,0.005485999,2.141416,0.23858173,1.121259,0.08616615,inf,inf,inf,inf,0,1,0,1,1,0,1,1,0,0,0
21177288,0,0.0,0.0,0.0,0.0,0.035001703,-6.5042826e-07,-2.2810958e-07,0.0,-0.0050936844,5.890082e-05,-0.0062556346,-0.023390757,-0.00016264772,-5.7041652e-05,0.0,-0.0015056389,-0.007536599,-0.023648875,0.8917029,0.0,0.1,0.0062556346,2.1445599,0.23883955,1.1134404,0.086055905,inf,inf,inf,inf,0,1,0,1,1,0,1,1,0,0,0
21280501,0,0.0,0.0,0.0,0.0,0.032572404,-6.5042826e-07,-2.2810958e-07,0.0,-0.0037354704,-0.00129992,-0.0061792703,-0.022966968,-0.00016264772,-5.7041652e-05,0.0,0.014130761,-0.0061373105,-0.00532421,0.89177454,0.0,0.1,0.0061792703,2.1229758,0.2373988,1.0959009,0.08557433,inf,inf,inf,inf,0,1,0,1,1,0,1,1,0,0,0
21384471,0,0.0,0.0,0.0,0.0,0.03410851,-6.5042826e-07,-2.2810958e-07,0.0,-0.0023143247,-0.0025704969,-0.0051783663,-0.017803011,-0.00016264772,-5.7041652e-05,0.0,0.004292852,-0.016225323,-0.001283726,0.89217734,0.0,0.1,0.0051783663,2.1260602,0.23767379,1.0883639,0.08548821,inf,inf,inf,inf,0,1,0,1,1,0,1,1,0,0,0
21479675,0,0.0,0.0,0.0,0.0,0.036497835,-6.5042826e-07,-2.2810958e-07,0.0,-0.0015533881,-0.00334993,-0.0051238798,-0.013549451,-0.00016264772,-5.7041652e-05,0.0,-0.0014069303,-0.0008972311,-0.016580628,0.89249825,0.0,0.1,0.0051238798,2.120812,0.23737176,1.0783579,0.085292585,inf,inf,inf,inf,0,1,0,1,1,0,1,1,0,0,0
21583699,0,0.0,0.0,0.0,0.0,0.03828013,-6.5042826e-07,-2.2810958e-07,0.0,-0.003137027,-0.0028528771,-0.0038368893,-0.009108117,-0.00016264772,-5.7041652e-05,0.0,0.0075527416,-0.008221236,-0.018071596,0.8930016,0.0,0.1,0.0038368893,2.1002467,0.23600563,1.0618848,0.08485967,inf,inf,inf,inf,0,1,0,1,1,0,1,1,0,0,0
21687665,0,0.0,0.0,0.0,0.0,0.039568726,-6.5042826e-07,-2.2810958e-07,0.0,-0.004662393,-0.0024926034,-0.0034762516,-0.006531166,-0.00016264772,-5.7041652e-05,0.0,-0.00014229341,-0.0039740754,-0.011382687,0.89298713,0.0,0.1,0.0034762516,2.1027868,0.2362702,1.0545903,0.08479854,inf,inf,inf,inf,0,1,0,1,1,0,1,1,0,0,0
21791687,0,0.0,0.0,0.0,0.0,0.03955971,-6.5042826e-07,-2.2810958e-07,0.0,-0.0034248387,-0.0030270654,-0.002802246,-0.005240576,-0.00016264772,-5.7041652e-05,0.0,0.020152444,-0.02997121,-0.0047949874,0.8926846,0.0,0.1,0.002802246,2.0828753,0.23495336,1.0387576,0.08439527,inf,inf,inf,inf,0,1,0,1,1,0,1,1,0,0,0
21894865,0,0.0,0.0,0.0,0.0,0.038773116,-6.5042826e-07,-2.2810958e-07,0.0,-0.00229897,-0.0043654433,-0.0029621308,-0.005622369,-0.00016264772,-5.7041652e-05,0.0,0.006468892,0.0075213327,0.0049029253,0.892119,0.0,0.1,0.0029621308,2.085625,0.23526837,1.0317131,0.08435682,inf,inf,inf,inf,0,1,0,1,1,0,1,1,0,0,0
21990865,0,0.0,0.0,0.0,0.0,0.038443893,-6.5042826e-07,-2.2810958e-07,0.0,-0.0010459808,-0.0051189577,-0.002615975,-0.0050842105,-0.00016264772,-5.7041652e-05,0.0,-0.0027848375,0.006697522,-0.011101972,0.8915095,0.0,0.1,0.002615975,2.0810075,0.23505993,1.0225909,0.08421722,inf,inf,inf,inf,0,1,0,1,1,0,1,1,0,0,0
22098086,0,0.0,0.0,0.0,0.0,0.038416646,-6.5042826e-07,-2.2810958e-07,0.0,-0.0009833657,-0.005085526,-0.0020819798,-0.0040608863,-0.00016264772,-5.7041652e-05,0.0,-0.016968478,0.011266255,-0.021081334,0.89082533,0.0,0.1,0.0020819798,2.08271,0.23532893,1.015354,0.08417962,inf,inf,inf,inf,0,1,0,1,1,0,1,1,0,0,0
22194087,0,0.0,0.0,0.0,0.0,0.037219495,-6.5042826e-07,-2.2810958e-07,0.0,-0.0021642016,-0.0045132795,-0.0021860148,-0.0049258,-0.00016264772,-5.7041652e-05,0.0,-0.035537004,0.010721,0.03748557,0.8903003,0.0,0.1,0.0021860148,2.0778224,0.23512442,1.0063736,0.08405226,inf,inf,inf,inf,0,1,0,1,1,0,1,1,0,0,0
22298065,0,0.0,0.0,0.0,0.0,0.036697283,-6.5042826e-07,-2.2810958e-07,0.0,-0.002294626,-0.0038945707,-0.0024360002,-0.005138812,-0.00016264772,-5.7041652e-05,0.0,0.013000357,0.0065603494,-0.013662232,0.89006513,0.0,0.1,0.0024360002,2.05989,0.23399328,0.9919719,0.083731234,inf,inf,inf,inf,0,1,0,1,1,0,1,1,0,0,0
22402073,0,0.0,0.0,0.0,0.0,0.03646964,-6.5042826e-07,-2.2810958e-07,0.0,-0.0027586052,-0.0041151433,-0.003092824,-0.005443368,-0.00016264772,-5.7041652e-05,0.0,-0.00059729954,-0.020958357,-0.023497034,0.8897575,0.0,0.1,0.003092824,2.0627842,0.23438272,0.98549384,0.083741054,inf,inf,inf,inf,0,1,0,1,1,0,1,1,0,0,0
22505313,0,0.0,0.0,0.0,0.0,0.034760725,-6.5042826e-07,-2.2810958e-07,0.0,-0.0020404065,-0.004718463,-0.002968422,-0.006409489,-0.00016264772,-5.7041652e-05,0.0,0.0024438845,-0.013909857,0.012226702,0.88912165,0.0,0.1,0.002968422,2.0431032,0.23311992,0.97095376,0.08339817,inf,inf,inf,inf,0,1,0,1,1,0,1,1,0,0,0
22609319,0,0.0,0.0,0.0,0.0,0.03476444,-6.5042826e-07,-2.2810958e-07,0.0,-0.0009270493,-0.0056097754,-0.002921035,-0.005602582,-0.00016264772,-5.7041652e-05,0.0,0.01952994,-0.0061868425,-0.02390579,0.8883441,0.0,0.1,0.002921035,2.0446174,0.23342335,0.96433645,0.08339965,inf,inf,inf,inf,0,1,0,1,1,0,1,1,0,0,0
22704464,0,0.0,0.0,0.0,0.0,0.03694834,-6.5042826e-07,-2.2810958e-07,0.0,-9.6994125e-05,-0.00603839,-0.0012059029,-0.0012158116,-0.00016264772,-5.7041652e-05,0.0,0.0014757927,0.014518003,0.025971811,0.88769656,0.0,0.1,0.0012059029,2.0396893,0.2332517,0.9559734,0.083306514,inf,inf,inf,inf,0,1,0,1,1,0,1,1,0,0,0
22808495,0,0.0,0.0,0.0,0.0,0.04061067,-6.5042826e-07,-2.2810958e-07,0.0,0.00020054985,-0.0058597014,-0.00026405597,0.0033409714,-0.00016264772,-5.7041652e-05,0.0,0.0012817779,0.00471389,-0.016672803,0.8869434,0.0,0.1,0.00026405597,2.0206618,0.23203547,0.94217527,0.082992956,inf,inf,inf,inf,0,1,0,1,1,0,1,1,0,0,0
22912465,0,0.0,0.0,0.0,0.0,0.044664234,-6.5042826e-07,-2.2810958e-07,0.0,0.00026053548,-0.0060340455,0.00083317625,0.007926539,-0.00016264772,-5.7041652e-05,0.0,-0.0009202785,-0.0023587828,-0.022386262,0.8865284,0.0,0.1,-0.00083317625,2.022076,0.23235893,0.9358342,0.08301446,inf,inf,inf,inf,0,1,0,1,1,0,1,1,0,0,0
23016469,0,0.0,0.0,0.0,0.0,0.049815312,-6.5042826e-07,-2.2810958e-07,0.0,-9.8270306e-05,-0.0062856395,0.0013334829,0.012498791,-0.00016264772,-5.7041652e-05,0.0,-0.004146538,-0.006218638,0.008701961,0.88633394,0.0,0.1,-0.0013334829,2.003854,0.23119198,0.9227385,0.08272455,inf,inf,inf,inf,0,1,0,1,1,0,1,1,0,0,0
23119664,0,0.0,0.0,0.0,0.0,0.053612147,-6.5042826e-07,-2.2810958e-07,0.0,0.00042054552,-0.0070375735,0.0024546152,0.015786713,-0.00016264772,-5.7041652e-05,0.0,-0.0066057784,-0.027309082,0.029553235,0.8862959,0.0,0.1,-0.0024546152,2.0061538,0.23159678,0.9169876,0.08277461,inf,inf,inf,inf,0,1,0,1,1,0,1,1,0,0,0
23215665,0,0.0,0.0,0.0,0.0,0.05671067,-6.5042826e-07,-2.2810958e-07,0.0,0.0017642701,-0.00806539,0.0031432533,0.01775489,-0.00016264772,-5.7041652e-05,0.0,0.017534297,-0.010770951,-0.0034766903,0.88613105,0.0,0.1,-0.0031432533,2.0016565,0.23146251,0.90952575,0.08271773,inf,inf,inf,inf,0,1,0,1,1,0,1,1,0,0,0
23318880,0,0.0,0.0,0.0,0.0,0.055453148,-6.5042826e-07,-2.2810958e-07,0.0,0.0017709595,-0.009296966,0.0031586075,0.014482789,-0.00016264772,-5.7041652e-05,0.0,-0.0034260375,0.004857224,-0.049790014,0.8860208,0.0,0.1,-0.0031586075,1.98433,0.23035626,0.8972073,0.082456626,inf,inf,inf,inf,0,1,0,1,1,0,1,1,0,0,0
23426104,0,0.0,0.0,0.0,0.0,0.051424105,-6.5042826e-07,-2.2810958e-07,0.0,0.0006721441,-0.009565108,0.002471115,0.008239082,-0.00016264772,-5.7041652e-05,0.0,-0.01174894,-0.0064616515,-0.03772059,0.8859755,0.0,0.1,-0.002471115,1.9866418,0.23078875,0.8917863,0.08252436,inf,inf,inf,inf,0,1,0,1,1,0,1,1,0,0,0
23530865,0,0.0,0.0,0.0,0.0,0.045614164,-6.5042826e-07,-2.2810958e-07,0.0,-0.00058268907,-0.008591735,0.00024895038,-0.00042812974,-0.00016264772,-5.7041652e-05,0.0,-0.024984708,-0.03538892,0.015923688,0.8861091,0.0,0.1,-0.00024895038,1.9701226,0.22975,0.88000965,0.0822905,inf,inf,inf,inf,0,1,0,1,1,0,1,1,0,0,0
23634068,0,0.0,0.0,0.0,0.0,0.041088827,-6.5042826e-07,-2.2810958e-07,0.0,-0.00052150676,-0.008324975,-0.0013719978,-0.006310434,-0.00016264772,-5.7041652e-05,0.0,-0.0021208676,0.014364995,0.023365244,0.8863169,0.0,0.1,0.0013719978,1.9748563,0.23040104,0.8754864,0.082431406,inf,inf,inf,inf,0,1,0,1,1,0,1,1,0,0,0
23730072,0,0.0,0.0,0.0,0.0,0.03871164,-6.5042826e-07,-2.2810958e-07,0.0,-0.0006929609,-0.00940098,-0.0006719546,-0.007258978,-0.00016264772,-5.7041652e-05,0.0,0.013765714,-0.02045892,-0.0075048488,0.8863958,0.0,0.1,0.0006719546,1.9702564,0.23029196,0.86848736,0.08239293,inf,inf,inf,inf,0,1,0,1,1,0,1,1,0,0,0
23834091,0,0.0,0.0,0.0,0.0,0.036658127,-6.5042826e-07,-2.2810958e-07,0.0,-1.8885996e-05,-0.010683097,-0.0013189254,-0.00898468,-0.00016264772,-5.7041652e-05,0.0,-0.006819128,-0.01702318,0.009194782,0.8864055,0.0,0.1,0.0013189254,1.9716213,0.2306902,0.86312926,0.08246267,inf,inf,inf,inf,0,1,0,1,1,0,1,1,0,0,0
23938065,0,0.0,0.0,0.0,0.0,0.036025167,-6.5042826e-07,-2.2810958e-07,0.0,-0.00021324249,-0.011144875,-0.0020515537,-0.009236977,-0.00016264772,-5.7041652e-05,0.0,-0.0157599,-0.015331186,0.003716236,0.8861407,0.0,0.1,0.0020515537,1.9545552,0.22961687,0.8516882,0.082224555,inf,inf,inf,inf,0,1,0,1,1,0,1,1,0,0,0
24041265,0,0.0,0.0,0.0,0.0,0.03741654,-6.5042826e-07,-2.2810958e-07,0.0,-0.0014793795,-0.01110754,-0.00220165,-0.006928781,-0.00016264772,-5.7041652e-05,0.0,-0.01812655,0.018681038,0.014326707,0.8857095,0.0,0.1,0.00220165,1.9563109,0.23006816,0.8466162,0.08230788,inf,inf,inf,inf,0,1,0,1,1,0,1,1,0,0,0
24137275,0,0.0,0.0,0.0,0.0,0.039624423,-6.5042826e-07,-2.2810958e-07,0.0,-0.002189379,-0.010396374,-0.0007276432,-0.0026353125,-0.00016264772,-5.7041652e-05,0.0,-0.015336209,0.015515519,0.02289652,0.8852191,0.0,0.1,0.0007276432,1.9514898,0.2299673,0.8399145,0.08227818,inf,inf,inf,inf,0,1,0,1,1,0,1,1,0,0,0
24241308,0,0.0,0.0,0.0,0.0,0.042146936,-6.5042826e-07,-2.2810958e-07,0.0,-0.0025314337,-0.010828852,-0.00024570076,0.00055523566,-0.00016264772,-5.7041652e-05,0.0,0.005255205,0.0013084859,-0.020898283,0.88468677,0.0,0.1,0.00024570076,1.9530253,0.23042057,0.83493096,0.08236411,inf,inf,inf,inf,0,1,0,1,1,0,1,1,0,0,0
24341265,0,0.0,0.0,0.0,0.0,0.042343415,-6.5042826e-07,-2.2810958e-07,0.0,-0.0019086198,-0.010991013,3.349778e-07,0.00088729564,-0.00016264772,-5.7041652e-05,0.0,0.010738035,-0.01395145,0.018422171,0.8841019,0.0,0.1,-3.349778e-07,1.9486806,0.2303732,0.82852924,0.082346775,inf,inf,inf,inf,0,1,0,1,1,0,1,1,0,0,0
24440465,0,0.0,0.0,0.0,0.0,0.041716065,-6.5042826e-07,-2.2810958e-07,0.0,-0.0015431107,-0.01144001,0.0010532981,0.001166956,-0.00016264772,-5.7041652e-05,0.0,0.013687384,-0.013834039,0.0049868478,0.8833043,0.0,0.1,-0.0010532981,1.9283309,0.22900616,0.8169417,0.08206466,inf,inf,inf,inf,0,1,0,1,1,0,1,1,0,0,0
24543686,0,0.0,0.0,0.0,0.0,0.044312987,-6.5042826e-07,-2.2810958e-07,0.0,-0.001944099,-0.0115562845,0.001270475,0.0037796472,-0.00016264772,-5.7041652e-05,0.0,-0.012409916,-0.013364492,-0.046131764,0.8825598,0.0,0.1,-0.001270475,1.9304273,0.22952305,0.812377,0.08217136,inf,inf,inf,inf,0,1,0,1,1,0,1,1,0,0,0
24643665,0,0.0,0.0,0.0,0.0,0.04770739,-6.5042826e-07,-2.2810958e-07,0.0,-0.002584439,-0.011700909,0.0012876345,0.0066829063,-0.00016264772,-5.7041652e-05,0.0,-0.011683422,-0.005417682,-0.012505544,0.8820563,0.0,0.1,-0.0012876345,1.9339734,0.23018421,0.8082555,0.08231568,inf,inf,inf,inf,0,1,0,1,1,0,1,1,0,0,0
24747665,0,0.0,0.0,0.0,0.0,0.04966129,-6.5042826e-07,-2.2810958e-07,0.0,-0.0046152375,-0.011549837,0.002137475,0.008585436,-0.00016264772,-5.7041652e-05,0.0,-0.0028904006,-0.01062788,0.005331061,0.8819732,0.0,0.1,-0.002137475,1.9145705,0.2288815,0.79716796,0.08203702,inf,inf,inf,inf,0,1,0,1,1,0,1,1,0,0,0
24851665,0,0.0,0.0,0.0,0.0,0.04845737,-6.5042826e-07,-2.2810958e-07,0.0,-0.005037646,-0.011889014,0.0016209508,0.00598754,-0.00016264772,-5.7041652e-05,0.0,-0.0016379708,-0.0054564863,-0.01458737,0.88233757,0.0,0.1,-0.0016209508,1.915362,0.22930439,0.7925087,0.08212285,inf,inf,inf,inf,0,1,0,1,1,0,1,1,0,0,0
24954876,0,0.0,0.0,0.0,0.0,0.049423147,-6.5042826e-07,-2.2810958e-07,0.0,-0.0040364694,-0.013363661,0.0014312585,0.006065393,-0.00016264772,-5.7041652e-05,0.0,0.0141321,-0.014142774,-0.013350565,0.8829104,0.0,0.1,-0.0014312585,1.9166392,0.22978105,0.7880598,0.08222049,inf,inf,inf,inf,0,1,0,1,1,0,1,1,0,0,0
25050886,0,0.0,0.0,0.0,0.0,0.04809451,-6.5042826e-07,-2.2810958e-07,0.0,-0.0034089668,-0.014422365,0.0005168413,0.0032295913,-0.00016264772,-5.7041652e-05,0.0,0.0065718894,-0.012726603,-0.0095901545,0.88314784,0.0,0.1,-0.0005168413,1.9118211,0.22970612,0.78213936,0.08220353,inf,inf,inf,inf,0,1,0,1,1,0,1,1,0,0,0
25154113,0,0.0,0.0,0.0,0.0,0.04809228,-6.5042826e-07,-2.2810958e-07,0.0,-0.003777452,-0.014857977,0.0014250887,0.0037635725,-0.00016264772,-5.7041652e-05,0.0,-0.0029183964,0.0067059933,0.0006757906,0.8833437,0.0,0.1,-0.0014250887,1.897347,0.22882923,0.7728968,0.08202586,inf,inf,inf,inf,0,1,0,1,1,0,1,1,0,0,0
25258082,0,0.0,0.0,0.0,0.0,0.048068997,-6.5042826e-07,-2.2810958e-07,0.0,-0.0048552393,-0.014598515,0.00078945386,0.0027085051,-0.00016264772,-5.7041652e-05,0.0,-0.015265383,0.0042691547,-0.003569033,0.8836374,0.0,0.1,-0.00078945386,1.8968256,0.22915325,0.76818883,0.082091816,inf,inf,inf,inf,0,1,0,1,1,0,1,1,0,0,0
25354091,0,0.0,0.0,0.0,0.0,0.048709,-6.5042826e-07,-2.2810958e-07,0.0,-0.006621939,-0.014499581,0.0006370525,0.0029392217,-0.00016264772,-5.7041652e-05,0.0,-0.009953528,-0.0126578845,-0.018354414,0.88383853,0.0,0.1,-0.0006370525,1.892583,0.22913253,0.7626837,0.08208683,inf,inf,inf,inf,0,1,0,1,1,0,1,1,0,0,0
25458086,0,0.0,0.0,0.0,0.0,0.04770607,-6.5042826e-07,-2.2810958e-07,0.0,-0.007666438,-0.014481955,0.0006452786,0.0016672278,-0.00016264772,-5.7041652e-05,0.0,0.005048105,-0.0040477305,-0.018798072,0.8837616,0.0,0.1,-0.0006452786,1.893128,0.22956696,0.7584172,0.08217667,inf,inf,inf,inf,0,1,0,1,1,0,1,1,0,0,0
25557265,0,0.0,0.0,0.0,0.0,0.04713518,-6.5042826e-07,-2.2810958e-07,0.0,-0.0073199924,-0.015392918,-0.000331242,4.1631494e-05,-0.00016264772,-5.7041652e-05,0.0,0.004476018,-0.018279342,-0.0022588165,0.88356173,0.0,0.1,0.000331242,1.8888943,0.22955167,0.7530783,0.082172304,inf,inf,inf,inf,0,1,0,1,1,0,1,1,0,0,0
25661314,0,0.0,0.0,0.0,0.0,0.044151526,-6.5042826e-07,-2.2810958e-07,0.0,-0.0065805186,-0.016157784,-0.0015700891,-0.0040826933,-0.00016264772,-5.7041652e-05,0.0,0.00015092996,-0.007736529,0.009842948,0.88328743,0.0,0.1,0.0015700891,1.8751986,0.22872357,0.7445438,0.08200542,inf,inf,inf,inf,0,1,0,1,1,0,1,1,0,0,0
25764465,0,0.0,0.0,0.0,0.0,0.03960857,-6.5042826e-07,-2.2810958e-07,0.0,-0.0067064697,-0.017163238,-0.00310467,-0.009459473,-0.00016264772,-5.7041652e-05,0.0,0.0032969478,-0.01829021,0.0004931676,0.88316244,0.0,0.1,0.00310467,1.8760154,0.22919574,0.74054736,0.08210178,inf,inf,inf,inf,0,1,0,1,1,0,1,1,0,0,0
25868464,0,0.0,0.0,0.0,0.0,0.037153106,-6.5042826e-07,-2.2810958e-07,0.0,-0.007938553,-0.017129749,-0.0033375642,-0.011018629,-0.00016264772,-5.7041652e-05,0.0,0.0014312449,0.010390564,-0.026699714,0.8832415,0.0,0.1,0.0033375642,1.8767859,0.22966959,0.7366028,0.0821972,inf,inf,inf,inf,0,1,0,1,1,0,1,1,0,0,0
25964472,0,0.0,0.0,0.0,0.0,0.035825476,-6.5042826e-07,-2.2810958e-07,0.0,-0.009055716,-0.01689402,-0.0043748613,-0.012145752,-0.00016264772,-5.7041652e-05,0.0,-0.02615199,-0.014891318,-0.011387258,0.8836115,0.0,0.1,0.0043748613,1.8719453,0.2295967,0.7313747,0.0821786,inf,inf,inf,inf,0,1,0,1,1,0,1,1,0,0,0
26068465,0,0.0,0.0,0.0,0.0,0.034362152,-6.5042826e-07,-2.2810958e-07,0.0,-0.009910023,-0.016406422,-0.005351606,-0.013173045,-0.00016264772,-5.7041652e-05,0.0,-0.005646178,-0.003445784,-0.017933348,0.8841021,0.0,0.1,0.005351606,1.856553,0.22857285,0.72280866,0.081962764,inf,inf,inf,inf,0,1,0,1,1,0,1,1,0,0,0
26171664,0,0.0,0.0,0.0,0.0,0.03003039,-6.5042826e-07,-2.2810958e-07,0.0,-0.009588806,-0.016860707,-0.006546961,-0.017070685,-0.00016264772,-5.7041652e-05,0.0,0.013971366,-0.0010758272,-0.0156923,0.8845346,0.0,0.1,0.006546961,1.8576583,0.22907591,0.71922004,0.0820676,inf,inf,inf,inf,0,1,0,1,1,0,1,1,0,0,0
26267701,0,0.0,0.0,0.0,0.0,0.026801966,-6.5042826e-07,-2.2810958e-07,0.0,-0.009094173,-0.017614698,-0.0065339482,-0.018421942,-0.00016264772,-5.7041652e-05,0.0,-0.011571947,0.001461906,0.0052498546,0.8848294,0.0,0.1,0.0065339482,1.8376315,0.22755077,0.70985407,0.081751265,inf,inf,inf,inf,0,1,0,1,1,0,1,1,0,0,0
26371682,0,0.0,0.0,0.0,0.0,0.026394026,-6.5042826e-07,-2.2810958e-07,0.0,-0.009186898,-0.01736908,-0.0065099234,-0.016741969,-0.00016264772,-5.7041652e-05,0.0,-0.0074956124,-0.004273697,0.006697239,0.88482445,0.0,0.1,0.0065099234,1.8390316,0.22807647,0.7065133,0.08186365,inf,inf,inf,inf,0,1,0,1,1,0,1,1,0,0,0
26474865,0,0.0,0.0,0.0,0.0,0.02859669,-6.5042826e-07,-2.2810958e-07,0.0,-0.010093869,-0.017492324,-0.005494669,-0.0117388945,-0.00016264772,-5.7041652e-05,0.0,-0.019118682,-0.0044878065,-0.015909847,0.8847091,0.0,0.1,0.005494669,1.8404016,0.22860649,0.70320046,0.08197547,inf,inf,inf,inf,0,1,0,1,1,0,1,1,0,0,0
26578865,0,0.0,0.0,0.0,0.0,0.03320935,-6.5042826e-07,-2.2810958e-07,0.0,-0.0116743725,-0.01735254,-0.0042859446,-0.0047705495,-0.00016264772,-5.7041652e-05,0.0,-0.037230823,-0.011079952,-0.02064618,0.88465077,0.0,0.1,0.0042859446,1.8260819,0.22761929,0.695493,0.08177432,inf,inf,inf,inf,0,1,0,1,1,0,1,1,0,0,0
26674864,0,0.0,0.0,0.0,0.0,0.038335953,-6.5042826e-07,-2.2810958e-07,0.0,-0.01232107,-0.017702099,-0.0039165136,0.0010297238,-0.00016264772,-5.7041652e-05,0.0,-0.0057166885,0.00088163797,-0.01877485,0.88444805,0.0,0.1,0.0039165136,1.8228803,0.22767287,0.691314,0.0817887,inf,inf,inf,inf,0,1,0,1,1,0,1,1,0,0,0
26778101,0,0.0,0.0,0.0,0.0,0.04259497,-6.5042826e-07,-2.2810958e-07,0.0,-0.013212815,-0.017662756,-0.003227021,0.005621659,-0.00016264772,-5.7041652e-05,0.0,0.006756597,-0.012473651,0.0037918822,0.88403636,0.0,0.1,0.003227021,1.8244197,0.2282223,0.6882534,0.0819048,inf,inf,inf,inf,0,1,0,1,1,0,1,1,0,0,0
26882064,0,0.0,0.0,0.0,0.0,0.047253024,-6.5042826e-07,-2.2810958e-07,0.0,-0.014071713,-0.017693633,-0.0017260812,0.010866141,-0.00016264772,-5.7041652e-05,0.0,-0.013616468,-0.012762257,-0.010500954,0.8836794,0.0,0.1,0.0017260812,1.8250983,0.22869477,0.6850067,0.08199987,inf,inf,inf,inf,0,1,0,1,1,0,1,1,0,0,0
27699665,0,0.0,0.0,0.0,0.0,0.071693346,-6.5042826e-07,-2.2810958e-07,0.0,-0.016105372,-0.018000837,0.00030964156,0.018141445,-0.00016264772,-5.7041652e-05,0.0,0.016044503,-0.007855107,-0.010642189,0.882869,0.0,0.1,-0.00030964156,1.7817773,0.22752136,0.64776886,0.081714384,inf,inf,inf,inf,0,1,0,1,1,0,1,1,0,0,0
27803665,0,0.0,0.0,0.0,0.0,0.0696638,-6.5042826e-07,-2.2810958e-07,0.0,-0.017523266,-0.016603246,-0.000545817,0.013257722,-0.00016264772,-5.7041652e-05,0.0,-0.0028160764,0.003988557,-0.018478742,0.88314044,0.0,0.1,0.000545817,1.7829753,0.22804695,0.6451437,0.081816725,inf,inf,inf,inf,0,1,0,1,1,0,1,1,0,0,0
27899665,0,0.0,0.0,0.0,0.0,0.06826778,-6.5042826e-07,-2.2810958e-07,0.0,-0.018748138,-0.016097827,-0.0019226802,0.009173801,-0.00016264772,-5.7041652e-05,0.0,-0.00882565,0.00047312933,-0.02288734,0.88345665,0.0,0.1,0.0019226802,1.7792833,0.22802734,0.6414848,0.081805825,inf,inf,inf,inf,0,1,0,1,1,0,1,1,0,0,0
28002890,0,0.0,0.0,0.0,0.0,0.06521317,-6.5042826e-07,-2.2810958e-07,0.0,-0.0189323,-0.015823236,-0.0036461356,0.0035382388,-0.00016264772,-5.7041652e-05,0.0,0.0049584485,-0.024170788,0.011290763,0.8838111,0.0,0.1,0.0036461356,1.7801914,0.22852914,0.6388516,0.08189803,inf,inf,inf,inf,0,1,0,1,1,0,1,1,0,0,0
28106865,0,0.0,0.0,0.0,0.0,0.062499966,-6.5042826e-07,-2.2810958e-07,0.0,-0.018303836,-0.015964985,-0.0036970843,0.00047851427,-0.00016264772,-5.7041652e-05,0.0,0.014541875,-0.0047217496,0.018176967,0.88436085,0.0,0.1,0.0036970843,1.7673032,0.22756054,0.6325947,0.08168802,inf,inf,inf,inf,0,1,0,1,1,0,1,1,0,0,0
28202869,0,0.0,0.0,0.0,0.0,0.061500423,-6.5042826e-07,-2.2810958e-07,0.0,-0.016715834,-0.016906185,-0.0038933665,-0.0006742004,-0.00016264772,-5.7041652e-05,0.0,-0.0019927118,-0.0058956523,0.019390486,0.8847623,0.0,0.1,0.0038933665,1.7773864,0.22900638,0.63273704,0.081976734,inf,inf,inf,inf,0,1,0,1,1,0,1,1,0,0,0
28306073,0,0.0,0.0,0.0,0.0,0.057886407,-6.5042826e-07,-2.2810958e-07,0.0,-0.0162737,-0.016529528,-0.0043569477,-0.0045444397,-0.00016264772,-5.7041652e-05,0.0,-0.003245116,0.018653093,-0.0013760825,0.8849393,0.0,0.1,0.0043569477,1.7643865,0.22801325,0.6265369,0.08175646,inf,inf,inf,inf,0,1,0,1,1,0,1,1,0,0,0
28410110,0,0.0,0.0,0.0,0.0,0.054728426,-6.5042826e-07,-2.2810958e-07,0.0,-0.016180199,-0.015894512,-0.003815613,-0.006586759,-0.00016264772,-5.7041652e-05,0.0,0.015766596,0.01694543,-0.002040855,0.88475794,0.0,0.1,0.003815613,1.7648675,0.2284617,0.62398386,0.08183585,inf,inf,inf,inf,0,1,0,1,1,0,1,1,0,0,0
28514865,0,0.0,0.0,0.0,0.0,0.054247685,-6.5042826e-07,-2.2810958e-07,0.0,-0.017435452,-0.014933172,-0.0033514954,-0.005816154,-0.00016264772,-5.7041652e-05,0.0,-0.006050677,-0.00016411325,0.0145176845,0.8844096,0.0,0.1,0.0033514954,1.7657781,0.22896099,0.6215743,0.08192643,inf,inf,inf,inf,0,1,0,1,1,0,1,1,0,0,0
28617265,0,0.0,0.0,0.0,0.0,0.05182425,-6.5042826e-07,-2.2810958e-07,0.0,-0.01818145,-0.013495643,-0.0033147992,-0.007481689,-0.00016264772,-5.7041652e-05,0.0,-0.005850055,0.006737684,-0.036014304,0.8842611,0.0,0.1,0.0033147992,1.7530493,0.22796474,0.61563253,0.08170523,inf,inf,inf,inf,0,1,0,1,1,0,1,1,0,0,0
28721265,0,0.0,0.0,0.0,0.0,0.04760661,-6.5042826e-07,-2.2810958e-07,0.0,-0.018003464,-0.013067596,-0.0041781724,-0.011584748,-0.00016264772,-5.7041652e-05,0.0,0.024521375,-0.0038920362,0.003470377,0.88429123,0.0,0.1,0.0041781724,1.7536207,0.22841747,0.6132471,0.08178687,inf,inf,inf,inf,0,1,0,1,1,0,1,1,0,0,0
28817278,0,0.0,0.0,0.0,0.0,0.045946445,-6.5042826e-07,-2.2810958e-07,0.0,-0.017289922,-0.0128484545,-0.00426704,-0.0119823525,-0.00016264772,-5.7041652e-05,0.0,-0.0026523045,0.00307086,0.017536122,0.8844047,0.0,0.1,0.00426704,1.750595,0.22844347,0.610162,0.08178178,inf,inf,inf,inf,0,1,0,1,1,0,1,1,0,0,0
28920464,0,0.0,0.0,0.0,0.0,0.045798488,-6.5042826e-07,-2.2810958e-07,0.0,-0.016857164,-0.012460229,-0.0036406862,-0.0101045845,-0.00016264772,-5.7041652e-05,0.0,-0.0070497775,0.011472592,0.024857482,0.88440216,0.0,0.1,0.0036406862,1.7384514,0.22747475,0.60460407,0.081570916,inf,inf,inf,inf,0,1,0,1,1,0,1,1,0,0,0
29024471,0,0.0,0.0,0.0,0.0,0.046635088,-6.5042826e-07,-2.2810958e-07,0.0,-0.016987266,-0.011860684,-0.0027930588,-0.007292646,-0.00016264772,-5.7041652e-05,0.0,-0.008838484,0.0018893012,0.0003492195,0.8843735,0.0,0.1,0.0027930588,1.7392464,0.22794406,0.60242504,0.08165688,inf,inf,inf,inf,0,1,0,1,1,0,1,1,0,0,0
29120506,0,0.0,0.0,0.0,0.0,0.049929094,-6.5042826e-07,-2.2810958e-07,0.0,-0.01814384,-0.010687503,-0.0013821174,-0.0019109962,-0.00016264772,-5.7041652e-05,0.0,0.004599097,0.012438987,0.0036917177,0.8843425,0.0,0.1,0.0013821174,1.736359,0.22797185,0.5995106,0.081652604,inf,inf,inf,inf,0,1,0,1,1,0,1,1,0,0,0
29227706,0,0.0,0.0,0.0,0.0,0.055571154,-6.5042826e-07,-2.2810958e-07,0.0,-0.01823908,-0.009814785,-4.0333252e-06,0.005165737,-0.00016264772,-5.7041652e-05,0.0,-0.0011479551,-0.009363374,0.032656882,0.88445795,0.0,0.1,4.0333252e-06,1.7375218,0.22848587,0.5975007,0.081746675,inf,inf,inf,inf,0,1,0,1,1,0,1,1,0,0,0
29323689,0,0.0,0.0,0.0,0.0,0.061499964,-6.5042826e-07,-2.2810958e-07,0.0,-0.018195534,-0.008937664,0.0029131628,0.01318698,-0.00016264772,-5.7041652e-05,0.0,0.0036667148,-0.01222279,0.020856675,0.88449633,0.0,0.1,-0.0029131628,1.7345983,0.22850499,0.5946541,0.08173867,inf,inf,inf,inf,0,1,0,1,1,0,1,1,0,0,0
29427664,0,0.0,0.0,0.0,0.0,0.06567667,-6.5042826e-07,-2.2810958e-07,0.0,-0.01739676,-0.009373338,0.004329858,0.01702227,-0.00016264772,-5.7041652e-05,0.0,-0.00278373,-0.0056326333,-0.03579965,0.88461405,0.0,0.1,-0.004329858,1.7243711,0.22772078,0.5897832,0.081569895,inf,inf,inf,inf,0,1,0,1,1,0,1,1,0,0,0
29531665,0,0.0,0.0,0.0,0.0,0.06983858,-6.5042826e-07,-2.2810958e-07,0.0,-0.016780268,-0.009730247,0.005104896,0.019927613,-0.00016264772,-5.7041652e-05,0.0,0.018593654,-0.0051561985,0.035585772,0.88451827,0.0,0.1,-0.005104896,1.725641,0.22824016,0.5879045,0.081665024,inf,inf,inf,inf,0,1,0,1,1,0,1,1,0,0,0
