timestamp,vel_pos_innov[0],vel_pos_innov[1],vel_pos_innov[2],vel_pos_innov[3],vel_pos_innov[4],vel_pos_innov[5],mag_innov[0],mag_innov[1],mag_innov[2],heading_innov,airspeed_innov,beta_innov,flow_innov[0],flow_innov[1],hagl_innov,vel_pos_innov_var[0],vel_pos_innov_var[1],vel_pos_innov_var[2],vel_pos_innov_var[3],vel_pos_innov_var[4],vel_pos_innov_var[5],mag_innov_var[0],mag_innov_var[1],mag_innov_var[2],heading_innov_var,airspeed_innov_var,beta_innov_var,flow_innov_var[0],flow_innov_var[1],hagl_innov_var,output_tracking_error[0],output_tracking_error[1],output_tracking_error[2],drag_innov[0],drag_innov[1],drag_innov_var[0],drag_innov_var[1],aux_vel_innov[0],aux_vel_innov[1]
4568471,0.0,0.0,0.0,0.0006547822,-0.00040800837,-0.24189758,0.0,0.0,0.0,-0.06036979,0.0,0.0,0.0,0.0,0.0,0.0,0.0,0.0,0.28937513,0.2893751,4.199598,0.0,0.0,0.0,0.09454065,0.0,0.0,0.0,0.0,0.0,0.0071129114,0.013511784,0.01754687,0.0,0.0,0.0,0.0,0.0,0.0
4576471,0.0,0.0,0.0,0.00074268325,-0.00047461397,-0.22901917,0.0,0.0,0.0,-0.06036979,0.0,0.0,0.0,0.0,0.0,0.0,0.0,0.0,0.28849798,0.28849798,4.1978292,0.0,0.0,0.0,0.09454065,0.0,0.0,0.0,0.0,0.0,0.0074440157,0.022127118,0.028089771,0.0,0.0,0.0,0.0,0.0,0.0
4772465,0.0,0.0,0.0,0.0013258428,-0.0010771862,-0.20127869,0.0,0.0,0.0,-0.12008661,0.0,0.0,0.0,0.0,0.0,0.0,0.0,0.0,0.28239453,0.28239444,4.1905603,0.0,0.0,0.0,0.09430004,0.0,0.0,0.0,0.0,0.0,0.01178902,0.018692119,0.028833674,0.0,0.0,0.0,0.0,0.0,0.0
4982870,0.0,0.0,0.0,0.0019823008,-0.0017951359,0.34298706,0.0,0.0,0.0,-0.042149186,0.0,0.0,0.0,0.0,0.0,0.0,0.0,0.0,0.2811776,0.2811771,4.191196,0.0,0.0,0.0,0.0943108,0.0,0.0,0.0,0.0,0.0,0.007206294,0.014075224,0.003304761,0.0,0.0,0.0,0.0,0.0,0.0
5182865,0.0,0.0,0.0,0.0024114437,-0.002515651,0.13934326,0.0,0.0,0.0,0.07389331,0.0,0.0,0.0,0.0,0.0,0.0,0.0,0.0,0.28279206,0.28279093,4.1915603,0.0,0.0,0.0,0.094428785,0.0,0.0,0.0,0.0,0.0,0.0019326567,0.014284756,0.0057119313,0.0,0.0,0.0,0.0,0.0,0.0
5390065,0.0,0.0,0.0,0.0025243084,-0.002599767,0.012924194,0.0,0.0,0.0,-0.0668025,0.0,0.0,0.0,0.0,0.0,0.0,0.0,0.0,0.28380954,0.28380802,4.188604,0.0,0.0,0.0,0.094130576,0.0,0.0,0.0,0.0,0.0,0.007712514,0.023084993,0.016836371,0.0,0.0,0.0,0.0,0.0,0.0
5589319,0.0,0.0,0.0,0.0021554725,-0.002576186,0.14709473,0.0,0.0,0.0,-0.030807078,0.0,0.0,0.0,0.0,0.0,0.0,0.0,0.0,0.28332734,0.28332597,4.1829224,0.0,0.0,0.0,0.0940405,0.0,0.0,0.0,0.0,0.0,0.004148827,0.015245916,0.009320496,0.0,0.0,0.0,0.0,0.0,0.0
5793265,0.0,0.0,0.0,0.0018749232,-0.0025618714,-0.34449768,0.0,0.0,0.0,-0.018631876,0.0,0.0,0.0,0.0,0.0,0.0,0.0,0.0,0.28121564,0.28121448,4.1736507,0.0,0.0,0.0,0.09399156,0.0,0.0,0.0,0.0,0.0,0.010224742,0.0148821855,0.013854104,0.0,0.0,0.0,0.0,0.0,0.0
5992465,0.0,0.0,0.0,0.001757045,-0.0025800879,0.3239441,0.0,0.0,0.0,0.023197532,0.0,0.0,0.0,0.0,0.0,0.0,0.0,0.0,0.2807994,0.28079826,4.1683826,0.0,0.0,0.0,0.093741246,0.0,0.0,0.0,0.0,0.0,0.0073755123,0.036324214,0.041896366,0.0,0.0,0.0,0.0,0.0,0.0
6201265,0.0,0.0,0.0,0.0015873429,-0.0024260625,-0.030334473,0.0,0.0,0.0,0.02182591,0.0,0.0,0.0,0.0,0.0,0.0,0.0,0.0,0.27957746,0.27957645,4.1613436,0.0,0.0,0.0,0.09355877,0.0,0.0,0.0,0.0,0.0,0.0036325583,0.027822394,0.037713803,0.0,0.0,0.0,0.0,0.0,0.0
6399671,0.0,0.0,0.0,0.0016365217,-0.0021205589,0.02557373,0.0,0.0,0.0,0.02716589,0.0,0.0,0.0,0.0,0.0,0.0,0.0,0.0,0.2790053,0.27900445,4.1556616,0.0,0.0,0.0,0.09346942,0.0,0.0,0.0,0.0,0.0,0.016473807,0.0070583187,0.0048115226,0.0,0.0,0.0,0.0,0.0,0.0
6602865,0.0,0.0,0.0,0.0014070604,-0.0018515114,-0.1081543,0.0,0.0,0.0,-0.023694217,0.0,0.0,0.0,0.0,0.0,0.0,0.0,0.0,0.27796718,0.27796653,4.1499557,0.0,0.0,0.0,0.09332533,0.0,0.0,0.0,0.0,0.0,0.010359126,0.012868029,0.01653843,0.0,0.0,0.0,0.0,0.0,0.0
6809326,0.0,0.0,0.0,0.0011723145,-0.00155042,0.4572754,0.0,0.0,0.0,-0.039024055,0.0,0.0,0.0,0.0,0.0,0.0,0.0,0.0,0.27786323,0.27786273,4.147164,0.0,0.0,0.0,0.09307938,0.0,0.0,0.0,0.0,0.0,0.0018045922,0.026946118,0.036848277,0.0,0.0,0.0,0.0,0.0,0.0
7010065,0.0,0.0,0.0,0.0010097692,-0.0013668382,0.20614624,0.0,0.0,0.0,-0.017534494,0.0,0.0,0.0,0.0,0.0,0.0,0.0,0.0,0.2770059,0.2770055,4.144087,0.0,0.0,0.0,0.09286842,0.0,0.0,0.0,0.0,0.0,0.006115814,0.015688917,0.023072809,0.0,0.0,0.0,0.0,0.0,0.0
7217265,0.0,0.0,0.0,0.00074270775,-0.001012831,0.26231384,0.0,0.0,0.0,-0.08119929,0.0,0.0,0.0,0.0,0.0,0.0,0.0,0.0,0.27592826,0.27592796,4.141591,0.0,0.0,0.0,0.09280135,0.0,0.0,0.0,0.0,0.0,0.003644346,0.033873226,0.04925189,0.0,0.0,0.0,0.0,0.0,0.0
7417265,0.0,0.0,0.0,0.00047334615,-0.00071634003,0.10572815,0.0,0.0,0.0,0.010116816,0.0,0.0,0.0,0.0,0.0,0.0,0.0,0.0,0.27499643,0.2749962,4.139749,0.0,0.0,0.0,0.09267386,0.0,0.0,0.0,0.0,0.0,0.0054221144,0.012173179,0.02021153,0.0,0.0,0.0,0.0,0.0,0.0
7616471,0.0,0.0,0.0,0.00029241855,-0.0006531491,-0.10458374,0.0,0.0,0.0,0.0071445107,0.0,0.0,0.0,0.0,0.0,0.0,0.0,0.0,0.27406603,0.2740658,4.13845,0.0,0.0,0.0,0.092517585,0.0,0.0,0.0,0.0,0.0,0.0054954938,0.0059049255,0.008813999,0.0,0.0,0.0,0.0,0.0,0.0
7823707,0.0,0.0,0.0,9.992192e-05,-0.0005925317,-0.19760132,0.0,0.0,0.0,-0.23276758,0.0,0.0,0.0,0.0,0.0,0.0,0.0,0.0,0.27327582,0.27327564,4.1377206,0.0,0.0,0.0,0.09242557,0.0,0.0,0.0,0.0,0.0,0.001394704,0.012394665,0.017407935,0.0,0.0,0.0,0.0,0.0,0.0
8022869,0.0,0.0,0.0,-7.182182e-05,-0.00043353156,0.17424011,0.0,0.0,0.0,0.048921347,0.0,0.0,0.0,0.0,0.0,0.0,0.0,0.0,0.2724474,0.27244726,4.1369066,0.0,0.0,0.0,0.09228383,0.0,0.0,0.0,0.0,0.0,0.00028820118,0.009994187,0.016856382,0.0,0.0,0.0,0.0,0.0,0.0
8230865,0.0,0.0,0.0,-0.00015973035,-0.00035919,-0.08114624,0.0,0.0,0.0,0.004681647,0.0,0.0,0.0,0.0,0.0,0.0,0.0,0.0,0.2710817,0.27108157,4.134899,0.0,0.0,0.0,0.0922199,0.0,0.0,0.0,0.0,0.0,0.004752128,0.0056093996,0.004730424,0.0,0.0,0.0,0.0,0.0,0.0
8434077,0.0,0.0,0.0,-0.00019271,-0.00036021607,0.07862854,0.0,0.0,0.0,0.050622463,0.0,0.0,0.0,0.0,0.0,0.0,0.0,0.0,0.27096868,0.27096856,4.135829,0.0,0.0,0.0,0.1021023,0.0,0.0,0.0,0.0,0.0,0.008926467,0.014223719,0.016499715,0.0,0.0,0.0,0.0,0.0,0.0
8633265,0.0,0.0,0.0,-0.00029044747,-0.00048808014,0.5279236,0.0,0.0,0.0,-0.04514718,0.0,0.0,0.0,0.0,0.0,0.0,0.0,0.0,100.03608,100.03608,4.1354723,0.0,0.0,0.0,0.096237995,0.0,0.0,0.0,0.0,0.0,0.0609593,0.023649955,0.034429025,0.0,0.0,0.0,0.0,0.0,0.0
8837271,0.0,0.0,0.0,-0.00056147325,-0.0005760965,0.3975525,0.0,0.0,0.0,0.020931125,0.0,0.0,0.0,0.0,0.0,0.0,0.0,0.0,100.057594,100.057594,4.135258,0.0,0.0,0.0,0.09403157,0.0,0.0,0.0,0.0,0.0,0.046722274,0.01705805,0.022404123,0.0,0.0,0.0,0.0,0.0,0.0
9036526,0.0,0.0,0.0,-0.0008524347,-0.0007058294,0.7086792,0.0,0.0,0.0,-0.026622951,0.0,0.0,0.0,0.0,0.0,0.0,0.0,0.0,100.091385,100.091385,4.1340275,0.0,0.0,0.0,0.09309897,0.0,0.0,0.0,0.0,0.0,0.023524657,0.020143634,0.030268325,0.0,0.0,0.0,0.0,0.0,0.0
9243664,0.0,0.0,0.0,-0.001163464,-0.00080667203,0.03895569,0.0,0.0,0.0,0.10339224,0.0,0.0,0.0,0.0,0.0,0.0,0.0,0.0,100.13918,100.13918,4.1316385,0.0,0.0,0.0,0.09253807,0.0,0.0,0.0,0.0,0.0,0.010055758,0.027664352,0.045253016,0.0,0.0,0.0,0.0,0.0,0.0
9443705,0.0,0.0,0.0,-0.001627346,-0.00092620554,-0.19400024,0.0,0.0,0.0,-0.009403408,0.0,0.0,0.0,0.0,0.0,0.0,0.0,0.0,100.198586,100.198586,4.1293783,0.0,0.0,0.0,0.0921313,0.0,0.0,0.0,0.0,0.0,0.0020110183,0.0063153678,0.012827908,0.0,0.0,0.0,0.0,0.0,0.0
9646878,0.0,0.0,0.0,-0.0019875916,-0.001318982,0.10496521,0.0,0.0,0.0,0.010160327,0.0,0.0,0.0,0.0,0.0,0.0,0.0,0.0,100.29651,100.29651,4.128334,0.0,0.0,0.0,0.09188868,0.0,0.0,0.0,0.0,0.0,0.0065406724,0.006180822,0.004670994,0.0,0.0,0.0,0.0,0.0,0.0
9849320,0.0,0.0,0.0,-0.002237678,-0.001776247,0.13394165,0.0,0.0,0.0,-1.7821789e-05,0.0,0.0,0.0,0.0,0.0,0.0,0.0,0.0,100.41107,100.41107,4.1264577,0.0,0.0,0.0,0.09169821,0.0,0.0,0.0,0.0,0.0,0.0110804085,0.023600021,0.040075954,0.0,0.0,0.0,0.0,0.0,0.0
10050073,0.0,0.0,0.0,-0.002850287,-0.0024035873,-0.22935486,0.0,0.0,0.0,-0.024494112,0.0,0.0,0.0,0.0,0.0,0.0,0.0,0.0,100.58611,100.58611,4.1252937,0.0,0.0,0.0,0.091583334,0.0,0.0,0.0,0.0,0.0,0.004041549,0.01920695,0.033990394,0.0,0.0,0.0,0.0,0.0,0.0
10249320,0.0,0.0,0.0,-0.0032869254,-0.0030915486,0.10925293,0.0,0.0,0.0,0.01429981,0.0,0.0,0.0,0.0,0.0,0.0,0.0,0.0,100.77552,100.77551,4.123477,0.0,0.0,0.0,0.09150155,0.0,0.0,0.0,0.0,0.0,0.00031391892,0.014098285,0.026233848,0.0,0.0,0.0,0.0,0.0,0.0
10457265,0.0,0.0,0.0,-0.0034343184,-0.0039690696,-0.061401367,0.0,0.0,0.0,-0.001304388,0.0,0.0,0.0,0.0,0.0,0.0,0.0,0.0,101.02233,101.02232,4.1211867,0.0,0.0,0.0,0.091431,0.0,0.0,0.0,0.0,0.0,0.0016858673,0.014325309,0.027539589,0.0,0.0,0.0,0.0,0.0,0.0
10656465,0.0,0.0,0.0,-0.0035099136,-0.0042975238,-0.069992065,0.0,0.0,0.0,0.0066937804,0.0,0.0,0.0,0.0,0.0,0.0,0.0,0.0,101.26316,101.26315,4.1191716,0.0,0.0,0.0,0.09138266,0.0,0.0,0.0,0.0,0.0,0.0041442565,0.009984402,0.019785672,0.0,0.0,0.0,0.0,0.0,0.0
10863676,0.0,0.0,0.0,-0.0035395636,-0.004619847,0.045928955,0.0,0.0,0.0,0.064920485,0.0,0.0,0.0,0.0,0.0,0.0,0.0,0.0,101.52086,101.52086,4.1158295,0.0,0.0,0.0,0.09136559,0.0,0.0,0.0,0.0,0.0,0.0056260633,0.0076813074,0.014987484,0.0,0.0,0.0,0.0,0.0,0.0
11063699,0.0,0.0,0.0,-0.0033267227,-0.004789833,0.18397522,0.0,0.0,0.0,-0.01162374,0.0,0.0,0.0,0.0,0.0,0.0,0.0,0.0,101.753235,101.75323,4.113912,0.0,0.0,0.0,0.09132514,0.0,0.0,0.0,0.0,0.0,0.0016067246,0.0030980734,0.0017338573,0.0,0.0,0.0,0.0,0.0,0.0
11262865,0.0,0.0,0.0,-0.003344973,-0.0046208976,0.19534302,0.0,0.0,0.0,-0.015595913,0.0,0.0,0.0,0.0,0.0,0.0,0.0,0.0,101.9688,101.968796,4.1109962,0.0,0.0,0.0,0.09132132,0.0,0.0,0.0,0.0,0.0,0.0015850145,0.0031913158,0.0061892956,0.0,0.0,0.0,0.0,0.0,0.0
11466064,0.0,0.0,0.0,-0.003214228,-0.004310021,0.10028076,0.0,0.0,0.0,0.04024738,0.0,0.0,0.0,0.0,0.0,0.0,0.0,0.0,102.138535,102.138535,4.1091413,0.0,0.0,0.0,0.091319345,0.0,0.0,0.0,0.0,0.0,0.0025570649,0.0072543044,0.010352503,0.0,0.0,0.0,0.0,0.0,0.0
11666104,0.0,0.0,0.0,-0.0023937419,-0.004248572,-0.2546997,0.0,0.0,0.0,0.055439293,0.0,0.0,0.0,0.0,0.0,0.0,0.0,0.0,102.29695,102.29695,4.1075373,0.0,0.0,0.0,0.09130946,0.0,0.0,0.0,0.0,0.0,0.0015544174,0.027950285,0.052228197,0.0,0.0,0.0,0.0,0.0,0.0
11865264,0.0,0.0,0.0,-0.0016237653,-0.0037993786,-0.067718506,0.0,0.0,0.0,0.072826445,0.0,0.0,0.0,0.0,0.0,0.0,0.0,0.0,102.38691,102.38691,4.105641,0.0,0.0,0.0,0.09132159,0.0,0.0,0.0,0.0,0.0,0.0047764014,0.02354308,0.048107456,0.0,0.0,0.0,0.0,0.0,0.0
12064471,0.0,0.0,0.0,-0.0011563859,-0.0033880782,-0.2715149,0.0,0.0,0.0,0.03148353,0.0,0.0,0.0,0.0,0.0,0.0,0.0,0.0,102.42913,102.42914,4.102816,0.0,0.0,0.0,0.091329694,0.0,0.0,0.0,0.0,0.0,0.0008288074,0.021179968,0.044327397,0.0,0.0,0.0,0.0,0.0,0.0
12264472,0.0,0.0,0.0,-0.0005208619,-0.0031103753,-0.19398499,0.0,0.0,0.0,-0.04517156,0.0,0.0,0.0,0.0,0.0,0.0,0.0,0.0,102.458534,102.458534,4.1011586,0.0,0.0,0.0,0.091321394,0.0,0.0,0.0,0.0,0.0,0.0027111627,0.013221415,0.027734593,0.0,0.0,0.0,0.0,0.0,0.0
12471714,0.0,0.0,0.0,0.00017558182,-0.0030197382,-0.381073,0.0,0.0,0.0,0.002090454,0.0,0.0,0.0,0.0,0.0,0.0,0.0,0.0,102.4499,102.449905,4.098734,0.0,0.0,0.0,0.091326974,0.0,0.0,0.0,0.0,0.0,0.001604382,0.019923039,0.04184949,0.0,0.0,0.0,0.0,0.0,0.0
12670865,0.0,0.0,0.0,0.0006138439,-0.0027474263,-0.06535339,0.0,0.0,0.0,0.065656245,0.0,0.0,0.0,0.0,0.0,0.0,0.0,0.0,102.4229,102.4229,4.096421,0.0,0.0,0.0,0.091319315,0.0,0.0,0.0,0.0,0.0,0.000644086,0.0149317365,0.03220275,0.0,0.0,0.0,0.0,0.0,0.0
12878864,0.0,0.0,0.0,0.0012831732,-0.0026040545,0.20532227,0.0,0.0,0.0,0.12265575,0.0,0.0,0.0,0.0,0.0,0.0,0.0,0.0,102.40416,102.40416,4.09505,0.0,0.0,0.0,0.091310695,0.0,0.0,0.0,0.0,0.0,0.00371821,0.008821691,0.019340286,0.0,0.0,0.0,0.0,0.0,0.0
13078071,0.0,0.0,0.0,0.001762356,-0.0023532598,0.16047668,0.0,0.0,0.0,0.06337488,0.0,0.0,0.0,0.0,0.0,0.0,0.0,0.0,102.37129,102.37129,4.0934386,0.0,0.0,0.0,0.09130832,0.0,0.0,0.0,0.0,0.0,0.0029594915,0.0042174,0.008016961,0.0,0.0,0.0,0.0,0.0,0.0
13285272,0.0,0.0,0.0,0.0019231598,-0.0019614883,-0.1775055,0.0,0.0,0.0,0.12447053,0.0,0.0,0.0,0.0,0.0,0.0,0.0,0.0,102.340904,102.340904,4.092179,0.0,0.0,0.0,0.091309026,0.0,0.0,0.0,0.0,0.0,0.0059887767,0.005283884,0.009383431,0.0,0.0,0.0,0.0,0.0,0.0
13485265,0.0,0.0,0.0,0.0023086574,-0.0020412605,0.12136841,0.0,0.0,0.0,0.043644667,0.0,0.0,0.0,0.0,0.0,0.0,0.0,0.0,102.3001,102.3001,4.090631,0.0,0.0,0.0,0.09129826,0.0,0.0,0.0,0.0,0.0,0.005425616,0.001645503,0.00073820446,0.0,0.0,0.0,0.0,0.0,0.0
13684500,0.0,0.0,0.0,0.0026595863,-0.0022526234,0.04649353,0.0,0.0,0.0,0.01895845,0.0,0.0,0.0,0.0,0.0,0.0,0.0,0.0,102.26495,102.26495,4.089328,0.0,0.0,0.0,0.091289185,0.0,0.0,0.0,0.0,0.0,0.0017995617,0.003092342,0.0038637442,0.0,0.0,0.0,0.0,0.0,0.0
13884489,0.0,0.0,0.0,0.0025754843,-0.0021053639,-0.03337097,0.0,0.0,0.0,-0.061459422,0.0,0.0,0.0,0.0,0.0,0.0,0.0,0.0,102.212006,102.212006,4.0872927,0.0,0.0,0.0,0.091278814,0.0,0.0,0.0,0.0,0.0,0.0010606878,0.0012807318,0.0009742253,0.0,0.0,0.0,0.0,0.0,0.0
14091671,0.0,0.0,0.0,0.0024789602,-0.0020959931,0.14645386,0.0,0.0,0.0,-0.068597496,0.0,0.0,0.0,0.0,0.0,0.0,0.0,0.0,102.16774,102.16774,4.085486,0.0,0.0,0.0,0.09124209,0.0,0.0,0.0,0.0,0.0,0.004519585,0.0009214736,0.0037422676,0.0,0.0,0.0,0.0,0.0,0.0
14290865,0.0,0.0,0.0,0.0024398742,-0.002225125,-0.120895386,0.0,0.0,0.0,0.00069874525,0.0,0.0,0.0,0.0,0.0,0.0,0.0,0.0,102.1446,102.1446,4.0843678,0.0,0.0,0.0,0.09123983,0.0,0.0,0.0,0.0,0.0,0.0032667986,0.003999367,0.012795399,0.0,0.0,0.0,0.0,0.0,0.0
14498083,0.0,0.0,0.0,0.0021324,-0.0020482156,0.17285156,0.0,0.0,0.0,-0.016998708,0.0,0.0,0.0,0.0,0.0,0.0,0.0,0.0,102.12419,102.12419,4.0831194,0.0,0.0,0.0,0.09122332,0.0,0.0,0.0,0.0,0.0,0.0005286395,0.004772411,0.015462914,0.0,0.0,0.0,0.0,0.0,0.0
14698086,0.0,0.0,0.0,0.0017602275,-0.002015089,-0.043014526,0.0,0.0,0.0,0.052460253,0.0,0.0,0.0,0.0,0.0,0.0,0.0,0.0,102.11182,102.11182,4.082016,0.0,0.0,0.0,0.09120971,0.0,0.0,0.0,0.0,0.0,0.0003289563,0.0023964702,0.009689911,0.0,0.0,0.0,0.0,0.0,0.0
14905265,0.0,0.0,0.0,0.0016526266,-0.002075702,0.31733704,0.0,0.0,0.0,0.016165793,0.0,0.0,0.0,0.0,0.0,0.0,0.0,0.0,102.10685,102.10685,4.08084,0.0,0.0,0.0,0.091191694,0.0,0.0,0.0,0.0,0.0,0.00013462888,0.002274319,0.002640284,0.0,0.0,0.0,0.0,0.0,0.0
15105281,0.0,0.0,0.0,0.0011768016,-0.0020466405,0.13238525,0.0,0.0,0.0,0.040203452,0.0,0.0,0.0,0.0,0.0,0.0,0.0,0.0,102.10899,102.10899,4.079787,0.0,0.0,0.0,0.09117308,0.0,0.0,0.0,0.0,0.0,0.00017555518,0.0031728176,0.010543845,0.0,0.0,0.0,0.0,0.0,0.0
15312477,0.0,0.0,0.0,0.0006257897,-0.0020397191,-0.22161865,0.0,0.0,0.0,0.054939985,0.0,0.0,0.0,0.0,0.0,0.0,0.0,0.0,102.10572,102.10572,4.0781927,0.0,0.0,0.0,0.09115073,0.0,0.0,0.0,0.0,0.0,3.7106645e-05,0.0034472942,0.011777762,0.0,0.0,0.0,0.0,0.0,0.0
15515692,0.0,0.0,0.0,0.00049107475,-0.0020494175,-0.12866211,0.0,0.0,0.0,0.014549732,0.0,0.0,0.0,0.0,0.0,0.0,0.0,0.0,102.11226,102.11226,4.076707,0.0,0.0,0.0,0.09112863,0.0,0.0,0.0,0.0,0.0,0.002289423,0.000449201,0.0024851838,0.0,0.0,0.0,0.0,0.0,0.0
15715713,0.0,0.0,0.0,4.201758e-05,-0.0021146245,-0.04475403,0.0,0.0,0.0,-0.105403066,0.0,0.0,0.0,0.0,0.0,0.0,0.0,0.0,102.1465,102.1465,4.07602,0.0,0.0,0.0,0.09111733,0.0,0.0,0.0,0.0,0.0,0.0032114729,0.00079074927,0.00053238834,0.0,0.0,0.0,0.0,0.0,0.0
15914871,0.0,0.0,0.0,-0.0002835545,-0.0017610695,-0.22055054,0.0,0.0,0.0,-0.06630093,0.0,0.0,0.0,0.0,0.0,0.0,0.0,0.0,102.17015,102.17015,4.0746818,0.0,0.0,0.0,0.09109864,0.0,0.0,0.0,0.0,0.0,0.00428414,0.00094059046,0.0037297267,0.0,0.0,0.0,0.0,0.0,0.0
16118104,0.0,0.0,0.0,-0.00033999552,-0.0016001045,0.043502808,0.0,0.0,0.0,0.028265119,0.0,0.0,0.0,0.0,0.0,0.0,0.0,0.0,102.20934,102.20934,4.073853,0.0,0.0,0.0,0.091079816,0.0,0.0,0.0,0.0,0.0,0.0015258709,0.0005216386,0.00043086094,0.0,0.0,0.0,0.0,0.0,0.0
16325281,0.0,0.0,0.0,-0.0003783595,-0.0014200682,-0.057113647,0.0,0.0,0.0,0.026099324,0.0,0.0,0.0,0.0,0.0,0.0,0.0,0.0,102.24968,102.24968,4.072754,0.0,0.0,0.0,0.09105826,0.0,0.0,0.0,0.0,0.0,0.0005032839,0.0039541097,0.012616464,0.0,0.0,0.0,0.0,0.0,0.0
16525268,0.0,0.0,0.0,-0.00037699184,-0.001133321,-0.24060059,0.0,0.0,0.0,-0.036821425,0.0,0.0,0.0,0.0,0.0,0.0,0.0,0.0,102.295525,102.29553,4.0719705,0.0,0.0,0.0,0.09103751,0.0,0.0,0.0,0.0,0.0,0.0025572423,0.0028308907,0.009923196,0.0,0.0,0.0,0.0,0.0,0.0
16732465,0.0,0.0,0.0,0.00013839152,-0.00070625835,-0.059005737,0.0,0.0,0.0,0.035337865,0.0,0.0,0.0,0.0,0.0,0.0,0.0,0.0,102.34977,102.34978,4.071146,0.0,0.0,0.0,0.09102561,0.0,0.0,0.0,0.0,0.0,0.0019392953,0.0015170805,0.0031121557,0.0,0.0,0.0,0.0,0.0,0.0
16931665,0.0,0.0,0.0,0.0005276548,-0.00022663825,-0.15098572,0.0,0.0,0.0,0.008274436,0.0,0.0,0.0,0.0,0.0,0.0,0.0,0.0,102.38051,102.380516,4.069929,0.0,0.0,0.0,0.09101109,0.0,0.0,0.0,0.0,0.0,0.0032643392,0.0005694811,0.0007610134,0.0,0.0,0.0,0.0,0.0,0.0
17139664,0.0,0.0,0.0,0.0006204063,0.00031699063,-0.16519165,0.0,0.0,0.0,0.025960982,0.0,0.0,0.0,0.0,0.0,0.0,0.0,0.0,102.42553,102.425545,4.0692387,0.0,0.0,0.0,0.09099331,0.0,0.0,0.0,0.0,0.0,0.0003566351,0.001574731,0.0057274336,0.0,0.0,0.0,0.0,0.0,0.0
17338871,0.0,0.0,0.0,0.00091269444,0.000853739,-0.29006958,0.0,0.0,0.0,0.088692725,0.0,0.0,0.0,0.0,0.0,0.0,0.0,0.0,102.45524,102.45525,4.0681906,0.0,0.0,0.0,0.0909815,0.0,0.0,0.0,0.0,0.0,0.0037324734,0.0025199228,0.005844773,0.0,0.0,0.0,0.0,0.0,0.0
17545309,0.0,0.0,0.0,0.0012026199,0.0014792058,0.082962036,0.0,0.0,0.0,0.029925883,0.0,0.0,0.0,0.0,0.0,0.0,0.0,0.0,102.49857,102.4986,4.067495,0.0,0.0,0.0,0.090964116,0.0,0.0,0.0,0.0,0.0,0.002807676,0.0013998499,0.004860984,0.0,0.0,0.0,0.0,0.0,0.0
17746082,0.0,0.0,0.0,0.0011116625,0.0021705371,0.08343506,0.0,0.0,0.0,0.008959115,0.0,0.0,0.0,0.0,0.0,0.0,0.0,0.0,102.52987,102.529884,4.066872,0.0,0.0,0.0,0.09094249,0.0,0.0,0.0,0.0,0.0,0.001842463,0.0006174273,0.0009064769,0.0,0.0,0.0,0.0,0.0,0.0
17949321,0.0,0.0,0.0,0.0010344095,0.0028495514,0.09051514,0.0,0.0,0.0,0.09392029,0.0,0.0,0.0,0.0,0.0,0.0,0.0,0.0,102.55696,102.55698,4.0662904,0.0,0.0,0.0,0.09092898,0.0,0.0,0.0,0.0,0.0,0.0022418718,0.0023929246,0.0071039996,0.0,0.0,0.0,0.0,0.0,0.0
18148472,0.0,0.0,0.0,0.0009858232,0.0032527593,-0.27896118,0.0,0.0,0.0,0.039655566,0.0,0.0,0.0,0.0,0.0,0.0,0.0,0.0,102.567955,102.56796,4.065461,0.0,0.0,0.0,0.09091096,0.0,0.0,0.0,0.0,0.0,0.0011058636,0.0064644003,0.019704387,0.0,0.0,0.0,0.0,0.0,0.0
18356465,0.0,0.0,0.0,0.000717777,0.0037564875,-0.30374146,0.0,0.0,0.0,0.06617445,0.0,0.0,0.0,0.0,0.0,0.0,0.0,0.0,102.563866,102.56388,4.064527,0.0,0.0,0.0,0.090900354,0.0,0.0,0.0,0.0,0.0,0.0029010375,0.006649876,0.02172524,0.0,0.0,0.0,0.0,0.0,0.0
18555666,0.0,0.0,0.0,0.00042314938,0.003941221,-0.43222046,0.0,0.0,0.0,-0.051850617,0.0,0.0,0.0,0.0,0.0,0.0,0.0,0.0,102.55858,102.558586,4.063688,0.0,0.0,0.0,0.09088309,0.0,0.0,0.0,0.0,0.0,0.0024540105,0.0031490102,0.010757198,0.0,0.0,0.0,0.0,0.0,0.0
18763712,0.0,0.0,0.0,0.0005972044,0.0038913004,0.04774475,0.0,0.0,0.0,-0.05508238,0.0,0.0,0.0,0.0,0.0,0.0,0.0,0.0,102.54664,102.546646,4.0628614,0.0,0.0,0.0,0.09086635,0.0,0.0,0.0,0.0,0.0,0.0031854836,0.002581177,0.008684934,0.0,0.0,0.0,0.0,0.0,0.0
18962865,0.0,0.0,0.0,0.0009144489,0.004037879,-0.123291016,0.0,0.0,0.0,0.12548411,0.0,0.0,0.0,0.0,0.0,0.0,0.0,0.0,102.53084,102.53084,4.0621443,0.0,0.0,0.0,0.09084486,0.0,0.0,0.0,0.0,0.0,0.0041396404,0.0013970092,0.0040851464,0.0,0.0,0.0,0.0,0.0,0.0
19166084,0.0,0.0,0.0,0.00075479684,0.004020234,-0.0015106201,0.0,0.0,0.0,0.015139461,0.0,0.0,0.0,0.0,0.0,0.0,0.0,0.0,102.53277,102.53277,4.061694,0.0,0.0,0.0,0.090837546,0.0,0.0,0.0,0.0,0.0,0.001534771,0.001900163,0.006144603,0.0,0.0,0.0,0.0,0.0,0.0
19365290,0.0,0.0,0.0,0.0010988634,0.003608031,-0.058883667,0.0,0.0,0.0,-0.05352348,0.0,0.0,0.0,0.0,0.0,0.0,0.0,0.0,102.536934,102.536934,4.0614176,0.0,0.0,0.0,0.090820916,0.0,0.0,0.0,0.0,0.0,0.0018380274,0.004623623,0.016555784,0.0,0.0,0.0,0.0,0.0,0.0
19565284,0.0,0.0,0.0,0.0013280131,0.0035966267,0.2136383,0.0,0.0,0.0,-0.09902376,0.0,0.0,0.0,0.0,0.0,0.0,0.0,0.0,102.52589,102.52589,4.0609913,0.0,0.0,0.0,0.09080655,0.0,0.0,0.0,0.0,0.0,0.00013621568,0.00044878884,0.0009794685,0.0,0.0,0.0,0.0,0.0,0.0
19764465,0.0,0.0,0.0,0.0012499696,0.003557889,0.30555725,0.0,0.0,0.0,0.017555714,0.0,0.0,0.0,0.0,0.0,0.0,0.0,0.0,102.51127,102.51127,4.060549,0.0,0.0,0.0,0.09079327,0.0,0.0,0.0,0.0,0.0,0.0011828266,0.0005187525,0.0016142766,0.0,0.0,0.0,0.0,0.0,0.0
19971672,0.0,0.0,0.0,0.0011973997,0.0035012797,0.0554657,0.0,0.0,0.0,0.035113692,0.0,0.0,0.0,0.0,0.0,0.0,0.0,0.0,102.49291,102.49291,4.0601315,0.0,0.0,0.0,0.09078448,0.0,0.0,0.0,0.0,0.0,0.0010852313,0.0004273197,0.0011825699,0.0,0.0,0.0,0.0,0.0,0.0
20171673,0.0,0.0,0.0,0.0010647854,0.0031504633,-0.16456604,0.0,0.0,0.0,0.10755086,0.0,0.0,0.0,0.0,0.0,0.0,0.0,0.0,102.45029,102.45029,4.059393,0.0,0.0,0.0,0.09077315,0.0,0.0,0.0,0.0,0.0,0.0022293788,0.0011173371,0.003858879,0.0,0.0,0.0,0.0,0.0,0.0
20378911,0.0,0.0,0.0,0.0008662426,0.0029014645,0.13526917,0.0,0.0,0.0,-0.007846296,0.0,0.0,0.0,0.0,0.0,0.0,0.0,0.0,102.43055,102.43055,4.059009,0.0,0.0,0.0,0.090760194,0.0,0.0,0.0,0.0,0.0,0.00082439574,0.0013093885,0.0046987426,0.0,0.0,0.0,0.0,0.0,0.0
20578065,0.0,0.0,0.0,0.00060088455,0.002519244,0.2855072,0.0,0.0,0.0,-0.14026219,0.0,0.0,0.0,0.0,0.0,0.0,0.0,0.0,102.40886,102.40885,4.0586452,0.0,0.0,0.0,0.090749025,0.0,0.0,0.0,0.0,0.0,0.0023705007,0.005704487,0.020191073,0.0,0.0,0.0,0.0,0.0,0.0
20786065,0.0,0.0,0.0,0.00022079161,0.0021809195,-0.10720825,0.0,0.0,0.0,-0.09492862,0.0,0.0,0.0,0.0,0.0,0.0,0.0,0.0,102.38273,102.38272,4.058246,0.0,0.0,0.0,0.09074137,0.0,0.0,0.0,0.0,0.0,0.0021233498,0.0034933859,0.013299074,0.0,0.0,0.0,0.0,0.0,0.0
20985279,0.0,0.0,0.0,-2.8832485e-05,0.0016123763,-0.06869507,0.0,0.0,0.0,-0.051130593,0.0,0.0,0.0,0.0,0.0,0.0,0.0,0.0,102.35977,102.35977,4.0579233,0.0,0.0,0.0,0.09073105,0.0,0.0,0.0,0.0,0.0,0.0006091441,0.0017832962,0.0074741114,0.0,0.0,0.0,0.0,0.0,0.0
21185265,0.0,0.0,0.0,-0.00034653622,0.0010468424,0.35813904,0.0,0.0,0.0,-0.13313621,0.0,0.0,0.0,0.0,0.0,0.0,0.0,0.0,102.31615,102.31614,4.057301,0.0,0.0,0.0,0.09072051,0.0,0.0,0.0,0.0,0.0,0.00021446835,0.0013405744,0.005295997,0.0,0.0,0.0,0.0,0.0,0.0
21392488,0.0,0.0,0.0,-0.0011616892,0.00076214096,-0.05621338,0.0,0.0,0.0,-0.0115225315,0.0,0.0,0.0,0.0,0.0,0.0,0.0,0.0,102.274704,102.2747,4.0567193,0.0,0.0,0.0,0.090704896,0.0,0.0,0.0,0.0,0.0,0.00029490574,0.0028512734,0.009798811,0.0,0.0,0.0,0.0,0.0,0.0
21591665,0.0,0.0,0.0,-0.0014307176,0.00042088793,0.11251831,0.0,0.0,0.0,0.10571301,0.0,0.0,0.0,0.0,0.0,0.0,0.0,0.0,102.23901,102.239006,4.0562277,0.0,0.0,0.0,0.09070098,0.0,0.0,0.0,0.0,0.0,0.0006851255,0.00082095765,0.0031506575,0.0,0.0,0.0,0.0,0.0,0.0
21791687,0.0,0.0,0.0,-0.0015122661,-0.00022999466,0.023666382,0.0,0.0,0.0,-0.0003721118,0.0,0.0,0.0,0.0,0.0,0.0,0.0,0.0,102.217285,102.21728,4.0559754,0.0,0.0,0.0,0.09069007,0.0,0.0,0.0,0.0,0.0,0.001608519,0.00054464396,0.0013314513,0.0,0.0,0.0,0.0,0.0,0.0
21998871,0.0,0.0,0.0,-0.002009507,-0.0006777574,0.19462585,0.0,0.0,0.0,-0.054653466,0.0,0.0,0.0,0.0,0.0,0.0,0.0,0.0,102.19782,102.197815,4.055775,0.0,0.0,0.0,0.09068061,0.0,0.0,0.0,0.0,0.0,0.0026055258,0.00037747112,0.00091947964,0.0,0.0,0.0,0.0,0.0,0.0
22202105,0.0,0.0,0.0,-0.0019446276,-0.0014019165,-0.23574829,0.0,0.0,0.0,0.01812458,0.0,0.0,0.0,0.0,0.0,0.0,0.0,0.0,102.177765,102.17775,4.0556045,0.0,0.0,0.0,0.09066915,0.0,0.0,0.0,0.0,0.0,0.0012075441,0.000395945,0.0011777323,0.0,0.0,0.0,0.0,0.0,0.0
22402073,0.0,0.0,0.0,-0.0017437199,-0.0019010858,0.106414795,0.0,0.0,0.0,0.012010217,0.0,0.0,0.0,0.0,0.0,0.0,0.0,0.0,102.144226,102.14421,4.0551996,0.0,0.0,0.0,0.09065972,0.0,0.0,0.0,0.0,0.0,0.0017917777,0.00046786657,0.0013508414,0.0,0.0,0.0,0.0,0.0,0.0
22609319,0.0,0.0,0.0,-0.0018122797,-0.002225942,-0.14653015,0.0,0.0,0.0,-0.027168393,0.0,0.0,0.0,0.0,0.0,0.0,0.0,0.0,102.106316,102.1063,4.0547457,0.0,0.0,0.0,0.09065125,0.0,0.0,0.0,0.0,0.0,0.002307725,0.0014408864,0.0052457973,0.0,0.0,0.0,0.0,0.0,0.0
22808495,0.0,0.0,0.0,-0.0017674384,-0.0027157362,0.033996582,0.0,0.0,0.0,-0.038210154,0.0,0.0,0.0,0.0,0.0,0.0,0.0,0.0,102.08409,102.084076,4.054575,0.0,0.0,0.0,0.09064189,0.0,0.0,0.0,0.0,0.0,0.0014738269,0.0023189406,0.00885116,0.0,0.0,0.0,0.0,0.0,0.0
23008509,0.0,0.0,0.0,-0.0014499351,-0.0031940169,0.00021362305,0.0,0.0,0.0,0.023169816,0.0,0.0,0.0,0.0,0.0,0.0,0.0,0.0,102.05093,102.05091,4.0541854,0.0,0.0,0.0,0.0906352,0.0,0.0,0.0,0.0,0.0,0.00033882167,0.002382257,0.009426503,0.0,0.0,0.0,0.0,0.0,0.0
23215665,0.0,0.0,0.0,-0.0011233091,-0.0036482413,0.30082703,0.0,0.0,0.0,-0.090056956,0.0,0.0,0.0,0.0,0.0,0.0,0.0,0.0,102.01797,102.01795,4.0538197,0.0,0.0,0.0,0.09062204,0.0,0.0,0.0,0.0,0.0,1.5091511e-05,0.0006809912,0.0030479627,0.0,0.0,0.0,0.0,0.0,0.0
23418865,0.0,0.0,0.0,-0.00074221287,-0.0044300454,0.06417847,0.0,0.0,0.0,-0.020024896,0.0,0.0,0.0,0.0,0.0,0.0,0.0,0.0,102.00028,102.00027,4.0537424,0.0,0.0,0.0,0.090615876,0.0,0.0,0.0,0.0,0.0,4.0208703e-05,0.0041433293,0.014988757,0.0,0.0,0.0,0.0,0.0,0.0
23618865,0.0,0.0,0.0,-0.00033071,-0.005310966,-0.11248779,0.0,0.0,0.0,0.049193144,0.0,0.0,0.0,0.0,0.0,0.0,0.0,0.0,101.98077,101.98075,4.0536137,0.0,0.0,0.0,0.09060762,0.0,0.0,0.0,0.0,0.0,0.0007119384,0.0023641824,0.010552196,0.0,0.0,0.0,0.0,0.0,0.0
23818082,0.0,0.0,0.0,-0.00029856426,-0.006007394,-0.06719971,0.0,0.0,0.0,-0.026135862,0.0,0.0,0.0,0.0,0.0,0.0,0.0,0.0,101.95653,101.95651,4.053437,0.0,0.0,0.0,0.09060169,0.0,0.0,0.0,0.0,0.0,0.00022437898,0.0008237003,0.0034174449,0.0,0.0,0.0,0.0,0.0,0.0
24025294,0.0,0.0,0.0,-0.00033418517,-0.0067534726,-0.48432922,0.0,0.0,0.0,0.052356303,0.0,0.0,0.0,0.0,0.0,0.0,0.0,0.0,101.94101,101.940994,4.0534086,0.0,0.0,0.0,0.09059466,0.0,0.0,0.0,0.0,0.0,0.0018026,0.0022580626,0.008183968,0.0,0.0,0.0,0.0,0.0,0.0
24225264,0.0,0.0,0.0,-0.00038675268,-0.0077244295,0.15705872,0.0,0.0,0.0,0.034617066,0.0,0.0,0.0,0.0,0.0,0.0,0.0,0.0,101.92067,101.920654,4.0533314,0.0,0.0,0.0,0.09058777,0.0,0.0,0.0,0.0,0.0,0.0015182894,0.0006026513,0.002225876,0.0,0.0,0.0,0.0,0.0,0.0
24432465,0.0,0.0,0.0,-0.0007346405,-0.0084128445,-0.06271362,0.0,0.0,0.0,-0.03633827,0.0,0.0,0.0,0.0,0.0,0.0,0.0,0.0,101.90791,101.9079,4.05338,0.0,0.0,0.0,0.090581335,0.0,0.0,0.0,0.0,0.0,0.0020058902,0.0009388602,0.0035323333,0.0,0.0,0.0,0.0,0.0,0.0
24635665,0.0,0.0,0.0,-0.0009910135,-0.009066395,-0.13215637,0.0,0.0,0.0,-0.06319702,0.0,0.0,0.0,0.0,0.0,0.0,0.0,0.0,101.883255,101.88324,4.053222,0.0,0.0,0.0,0.090574756,0.0,0.0,0.0,0.0,0.0,0.0009075648,0.002221537,0.0076320614,0.0,0.0,0.0,0.0,0.0,0.0
24835671,0.0,0.0,0.0,-0.0012012178,-0.009737076,-0.14161682,0.0,0.0,0.0,-0.13417816,0.0,0.0,0.0,0.0,0.0,0.0,0.0,0.0,101.85979,101.85977,4.05305,0.0,0.0,0.0,0.09056938,0.0,0.0,0.0,0.0,0.0,0.0024004562,0.0011430087,0.0034852643,0.0,0.0,0.0,0.0,0.0,0.0
25035669,0.0,0.0,0.0,-0.0018669812,-0.010400774,0.068573,0.0,0.0,0.0,0.03096199,0.0,0.0,0.0,0.0,0.0,0.0,0.0,0.0,101.84009,101.84007,4.0529995,0.0,0.0,0.0,0.09056219,0.0,0.0,0.0,0.0,0.0,0.00042988133,0.0021773565,0.0074691516,0.0,0.0,0.0,0.0,0.0,0.0
25242065,0.0,0.0,0.0,-0.0023484363,-0.011180526,0.24151611,0.0,0.0,0.0,-0.04813969,0.0,0.0,0.0,0.0,0.0,0.0,0.0,0.0,101.823494,101.82347,4.0529766,0.0,0.0,0.0,0.09055595,0.0,0.0,0.0,0.0,0.0,0.0011071779,0.0012270681,0.004289331,0.0,0.0,0.0,0.0,0.0,0.0
25442104,0.0,0.0,0.0,-0.0027383692,-0.0122311115,-0.14111328,0.0,0.0,0.0,0.05634296,0.0,0.0,0.0,0.0,0.0,0.0,0.0,0.0,101.80404,101.80402,4.0529337,0.0,0.0,0.0,0.09055091,0.0,0.0,0.0,0.0,0.0,0.00048209456,0.00087578746,0.0026985796,0.0,0.0,0.0,0.0,0.0,0.0
25645271,0.0,0.0,0.0,-0.0035674323,-0.013045115,0.1918335,0.0,0.0,0.0,0.024777412,0.0,0.0,0.0,0.0,0.0,0.0,0.0,0.0,101.787796,101.78778,4.0529184,0.0,0.0,0.0,0.09054593,0.0,0.0,0.0,0.0,0.0,0.00085078226,0.002542631,0.009372711,0.0,0.0,0.0,0.0,0.0,0.0
25844471,0.0,0.0,0.0,-0.0043581496,-0.013908102,0.2743225,0.0,0.0,0.0,0.019783616,0.0,0.0,0.0,0.0,0.0,0.0,0.0,0.0,101.77505,101.775024,4.0529866,0.0,0.0,0.0,0.09053928,0.0,0.0,0.0,0.0,0.0,0.00068060076,0.0013279422,0.0057295845,0.0,0.0,0.0,0.0,0.0,0.0
26052496,0.0,0.0,0.0,-0.0050744168,-0.015074517,0.019256592,0.0,0.0,0.0,-0.18812716,0.0,0.0,0.0,0.0,0.0,0.0,0.0,0.0,101.75551,101.755486,4.0529366,0.0,0.0,0.0,0.09053348,0.0,0.0,0.0,0.0,0.0,0.0028914688,0.00051001145,0.001820283,0.0,0.0,0.0,0.0,0.0,0.0
26251665,0.0,0.0,0.0,-0.0059849313,-0.0158003,-0.4165802,0.0,0.0,0.0,0.03238392,0.0,0.0,0.0,0.0,0.0,0.0,0.0,0.0,101.719986,101.71997,4.052477,0.0,0.0,0.0,0.09052571,0.0,0.0,0.0,0.0,0.0,0.0007489134,0.0005970257,0.0020479644,0.0,0.0,0.0,0.0,0.0,0.0
26458865,0.0,0.0,0.0,-0.0069668605,-0.016766535,-0.10435486,0.0,0.0,0.0,0.018696606,0.0,0.0,0.0,0.0,0.0,0.0,0.0,0.0,101.70418,101.704155,4.052485,0.0,0.0,0.0,0.090521894,0.0,0.0,0.0,0.0,0.0,0.000596274,0.002948216,0.010886901,0.0,0.0,0.0,0.0,0.0,0.0
26658871,0.0,0.0,0.0,-0.007612215,-0.01746172,-0.30415344,0.0,0.0,0.0,-0.05527568,0.0,0.0,0.0,0.0,0.0,0.0,0.0,0.0,101.682014,101.68199,4.0522776,0.0,0.0,0.0,0.090515144,0.0,0.0,0.0,0.0,0.0,0.0004451241,0.004172336,0.01614149,0.0,0.0,0.0,0.0,0.0,0.0
26866099,0.0,0.0,0.0,-0.008888059,-0.018402228,-0.46759033,0.0,0.0,0.0,0.01719594,0.0,0.0,0.0,0.0,0.0,0.0,0.0,0.0,101.67675,101.67673,4.052551,0.0,0.0,0.0,0.09050776,0.0,0.0,0.0,0.0,0.0,0.0015207167,0.003888581,0.015388612,0.0,0.0,0.0,0.0,0.0,0.0
27675684,0.0,0.0,0.0,-0.013849485,-0.020906288,-0.039016724,0.0,0.0,0.0,-0.11321765,0.0,0.0,0.0,0.0,0.0,0.0,0.0,0.0,101.61448,101.614456,4.052441,0.0,0.0,0.0,0.090490505,0.0,0.0,0.0,0.0,0.0,0.00048198586,0.0028735436,0.010816591,0.0,0.0,0.0,0.0,0.0,0.0
27875710,0.0,0.0,0.0,-0.014931448,-0.021466577,0.30448914,0.0,0.0,0.0,-0.04813391,0.0,0.0,0.0,0.0,0.0,0.0,0.0,0.0,101.601746,101.60172,4.0524454,0.0,0.0,0.0,0.09048515,0.0,0.0,0.0,0.0,0.0,0.0014373548,0.0017370135,0.0068231607,0.0,0.0,0.0,0.0,0.0,0.0
28082871,0.0,0.0,0.0,-0.016312066,-0.021806166,-0.12850952,0.0,0.0,0.0,0.056649208,0.0,0.0,0.0,0.0,0.0,0.0,0.0,0.0,101.58794,101.587906,4.05246,0.0,0.0,0.0,0.090480484,0.0,0.0,0.0,0.0,0.0,0.0017220415,0.0014504951,0.006040072,0.0,0.0,0.0,0.0,0.0,0.0
28282066,0.0,0.0,0.0,-0.017722655,-0.022012861,-0.008743286,0.0,0.0,0.0,0.0037412643,0.0,0.0,0.0,0.0,0.0,0.0,0.0,0.0,101.58268,101.58265,4.052674,0.0,0.0,0.0,0.090476714,0.0,0.0,0.0,0.0,0.0,0.00026069136,0.0027441639,0.0105757,0.0,0.0,0.0,0.0,0.0,0.0
28490065,0.0,0.0,0.0,-0.018534375,-0.0222761,-0.21340942,0.0,0.0,0.0,-0.025731683,0.0,0.0,0.0,0.0,0.0,0.0,0.0,0.0,101.56961,101.56959,4.0526514,0.0,0.0,0.0,0.09047163,0.0,0.0,0.0,0.0,0.0,0.0007984711,0.0011994657,0.0040937955,0.0,0.0,0.0,0.0,0.0,0.0
28689347,0.0,0.0,0.0,-0.019154135,-0.022275211,0.2806244,0.0,0.0,0.0,0.08800322,0.0,0.0,0.0,0.0,0.0,0.0,0.0,0.0,101.54936,101.54933,4.0524454,0.0,0.0,0.0,0.09046796,0.0,0.0,0.0,0.0,0.0,0.0002456732,0.0028680265,0.011127244,0.0,0.0,0.0,0.0,0.0,0.0
28896465,0.0,0.0,0.0,-0.02013134,-0.021961065,-0.051452637,0.0,0.0,0.0,-0.10519588,0.0,0.0,0.0,0.0,0.0,0.0,0.0,0.0,101.535675,101.53565,4.0524216,0.0,0.0,0.0,0.09046361,0.0,0.0,0.0,0.0,0.0,0.00050537207,0.0011475274,0.0038504538,0.0,0.0,0.0,0.0,0.0,0.0
29096471,0.0,0.0,0.0,-0.020752005,-0.021617185,-0.16923523,0.0,0.0,0.0,-0.06408745,0.0,0.0,0.0,0.0,0.0,0.0,0.0,0.0,101.524414,101.52439,4.0524187,0.0,0.0,0.0,0.09046007,0.0,0.0,0.0,0.0,0.0,0.000117824544,0.0029993195,0.0111551015,0.0,0.0,0.0,0.0,0.0,0.0
29299664,0.0,0.0,0.0,-0.021390196,-0.021122424,0.05836487,0.0,0.0,0.0,-0.023366034,0.0,0.0,0.0,0.0,0.0,0.0,0.0,0.0,101.51411,101.51408,4.0524383,0.0,0.0,0.0,0.09045585,0.0,0.0,0.0,0.0,0.0,0.0007032496,0.0035532874,0.013664227,0.0,0.0,0.0,0.0,0.0,0.0
29500465,0.0,0.0,0.0,-0.02211896,-0.020240095,0.05996704,0.0,0.0,0.0,0.043481648,0.0,0.0,0.0,0.0,0.0,0.0,0.0,0.0,101.49832,101.4983,4.0523148,0.0,0.0,0.0,0.09044969,0.0,0.0,0.0,0.0,0.0,0.00021303141,0.0020364204,0.00782571,0.0,0.0,0.0,0.0,0.0,0.0
29706865,0.0,0.0,0.0,-0.022654718,-0.019482087,-0.18415833,0.0,0.0,0.0,-0.056570232,0.0,0.0,0.0,0.0,0.0,0.0,0.0,0.0,101.48708,101.48706,4.0523233,0.0,0.0,0.0,0.09044526,0.0,0.0,0.0,0.0,0.0,0.00026681827,0.0023786349,0.009496535,0.0,0.0,0.0,0.0,0.0,0.0
29906071,0.0,0.0,0.0,-0.022989998,-0.01892288,-0.039749146,0.0,0.0,0.0,0.036196828,0.0,0.0,0.0,0.0,0.0,0.0,0.0,0.0,101.47778,101.47776,4.052346,0.0,0.0,0.0,0.090441346,0.0,0.0,0.0,0.0,0.0,0.0016758739,0.0028113963,0.011310934,0.0,0.0,0.0,0.0,0.0,0.0
30113264,0.0,0.0,0.0,-0.023470996,-0.017899236,-0.1630249,0.0,0.0,0.0,0.00091177225,0.0,0.0,0.0,0.0,0.0,0.0,0.0,0.0,101.46687,101.46684,4.052348,0.0,0.0,0.0,0.09043769,0.0,0.0,0.0,0.0,0.0,0.0015507209,0.001413435,0.0059771133,0.0,0.0,0.0,0.0,0.0,0.0
30313286,0.0,0.0,0.0,-0.024031961,-0.01689371,0.008453369,0.0,0.0,0.0,-0.021144032,0.0,0.0,0.0,0.0,0.0,0.0,0.0,0.0,101.45727,101.45724,4.0523443,0.0,0.0,0.0,0.09043393,0.0,0.0,0.0,0.0,0.0,0.00014239732,0.00077907945,0.0023696676,0.0,0.0,0.0,0.0,0.0,0.0
30520471,0.0,0.0,0.0,-0.024304857,-0.015937982,-0.04171753,0.0,0.0,0.0,0.06526345,0.0,0.0,0.0,0.0,0.0,0.0,0.0,0.0,101.44159,101.44157,4.0521593,0.0,0.0,0.0,0.09042978,0.0,0.0,0.0,0.0,0.0,0.0005276215,0.0027525902,0.010329454,0.0,0.0,0.0,0.0,0.0,0.0
30720465,0.0,0.0,0.0,-0.02480896,-0.014847416,-0.093170166,0.0,0.0,0.0,-0.15743119,0.0,0.0,0.0,0.0,0.0,0.0,0.0,0.0,101.42618,101.426155,4.051967,0.0,0.0,0.0,0.09042678,0.0,0.0,0.0,0.0,0.0,0.00066260627,0.0038301395,0.0148022855,0.0,0.0,0.0,0.0,0.0,0.0
30919671,0.0,0.0,0.0,-0.02538105,-0.013878426,-0.16896057,0.0,0.0,0.0,0.1548993,0.0,0.0,0.0,0.0,0.0,0.0,0.0,0.0,101.413216,101.41319,4.051809,0.0,0.0,0.0,0.0904232,0.0,0.0,0.0,0.0,0.0,0.0018123579,0.00047538572,0.0025246337,0.0,0.0,0.0,0.0,0.0,0.0
31126865,0.0,0.0,0.0,-0.025975022,-0.01279696,0.4329071,0.0,0.0,0.0,-0.03610909,0.0,0.0,0.0,0.0,0.0,0.0,0.0,0.0,101.40552,101.405495,4.0518656,0.0,0.0,0.0,0.09042028,0.0,0.0,0.0,0.0,0.0,0.0010126921,0.0005876489,0.0026183943,0.0,0.0,0.0,0.0,0.0,0.0
31326072,0.0,0.0,0.0,-0.026541343,-0.011636818,0.0027923584,0.0,0.0,0.0,0.0046979785,0.0,0.0,0.0,0.0,0.0,0.0,0.0,0.0,101.39856,101.39854,4.0519037,0.0,0.0,0.0,0.0904164,0.0,0.0,0.0,0.0,0.0,7.131039e-05,0.0009476629,0.0045661135,0.0,0.0,0.0,0.0,0.0,0.0
31534097,0.0,0.0,0.0,-0.027360108,-0.010255836,-0.012283325,0.0,0.0,0.0,-0.07074767,0.0,0.0,0.0,0.0,0.0,0.0,0.0,0.0,101.39684,101.39682,4.052164,0.0,0.0,0.0,0.090412565,0.0,0.0,0.0,0.0,0.0,0.00050242955,0.003565866,0.013720775,0.0,0.0,0.0,0.0,0.0,0.0
31733265,0.0,0.0,0.0,-0.027710676,-0.009037554,0.32128906,0.0,0.0,0.0,0.029423177,0.0,0.0,0.0,0.0,0.0,0.0,0.0,0.0,101.38997,101.389946,4.0521955,0.0,0.0,0.0,0.0904084,0.0,0.0,0.0,0.0,0.0,0.00018844858,0.0040652477,0.015726186,0.0,0.0,0.0,0.0,0.0,0.0
31941276,0.0,0.0,0.0,-0.028014325,-0.0075874594,-0.23873901,0.0,0.0,0.0,-0.024312615,0.0,0.0,0.0,0.0,0.0,0.0,0.0,0.0,101.376114,101.37609,4.051993,0.0,0.0,0.0,0.09040654,0.0,0.0,0.0,0.0,0.0,0.00024115217,0.0028663885,0.011181744,0.0,0.0,0.0,0.0,0.0,0.0
32140464,0.0,0.0,0.0,-0.028398233,-0.0062018675,0.013717651,0.0,0.0,0.0,0.00819999,0.0,0.0,0.0,0.0,0.0,0.0,0.0,0.0,101.369995,101.36997,4.0520353,0.0,0.0,0.0,0.090403855,0.0,0.0,0.0,0.0,0.0,0.00028104783,0.0025439064,0.009959145,0.0,0.0,0.0,0.0,0.0,0.0
32339665,0.0,0.0,0.0,-0.028767092,-0.0046483157,0.14057922,0.0,0.0,0.0,-0.043517888,0.0,0.0,0.0,0.0,0.0,0.0,0.0,0.0,101.36261,101.36259,4.0520563,0.0,0.0,0.0,0.090400234,0.0,0.0,0.0,0.0,0.0,0.0006352678,0.0017078737,0.006634853,0.0,0.0,0.0,0.0,0.0,0.0
32546905,0.0,0.0,0.0,-0.029104808,-0.0032027557,-0.03904724,0.0,0.0,0.0,-0.033831656,0.0,0.0,0.0,0.0,0.0,0.0,0.0,0.0,101.35011,101.35009,4.05187,0.0,0.0,0.0,0.09039722,0.0,0.0,0.0,0.0,0.0,0.00093560125,0.0013728944,0.0053928504,0.0,0.0,0.0,0.0,0.0,0.0
32746865,0.0,0.0,0.0,-0.029404283,-0.0018457838,-0.041534424,0.0,0.0,0.0,-0.13842517,0.0,0.0,0.0,0.0,0.0,0.0,0.0,0.0,101.34422,101.3442,4.051897,0.0,0.0,0.0,0.09039452,0.0,0.0,0.0,0.0,0.0,0.00045304908,0.00063205726,0.0024459662,0.0,0.0,0.0,0.0,0.0,0.0
32946110,0.0,0.0,0.0,-0.029656166,-0.00044573948,0.09510803,0.0,0.0,0.0,-0.06233269,0.0,0.0,0.0,0.0,0.0,0.0,0.0,0.0,101.33898,101.33896,4.051944,0.0,0.0,0.0,0.090391986,0.0,0.0,0.0,0.0,0.0,0.00074758474,0.0014031254,0.005362918,0.0,0.0,0.0,0.0,0.0,0.0
33154092,0.0,0.0,0.0,-0.030161764,0.0012789505,0.050842285,0.0,0.0,0.0,-0.051641643,0.0,0.0,0.0,0.0,0.0,0.0,0.0,0.0,101.332565,101.332535,4.0519676,0.0,0.0,0.0,0.090388566,0.0,0.0,0.0,0.0,0.0,0.0015281976,0.0006854301,0.0028925128,0.0,0.0,0.0,0.0,0.0,0.0
33353277,0.0,0.0,0.0,-0.030592741,0.002847193,0.04840088,0.0,0.0,0.0,0.023005009,0.0,0.0,0.0,0.0,0.0,0.0,0.0,0.0,101.32069,101.320656,4.0517635,0.0,0.0,0.0,0.090387374,0.0,0.0,0.0,0.0,0.0,0.0015068613,0.0005863622,0.0022688757,0.0,0.0,0.0,0.0,0.0,0.0
33560465,0.0,0.0,0.0,-0.031194704,0.0042189425,-0.6313782,0.0,0.0,0.0,0.10238558,0.0,0.0,0.0,0.0,0.0,0.0,0.0,0.0,101.31025,101.31022,4.0516057,0.0,0.0,0.0,0.09038402,0.0,0.0,0.0,0.0,0.0,0.0008415309,0.002232431,0.00844135,0.0,0.0,0.0,0.0,0.0,0.0
33759664,0.0,0.0,0.0,-0.031823844,0.0055255992,-0.028839111,0.0,0.0,0.0,-0.005309105,0.0,0.0,0.0,0.0,0.0,0.0,0.0,0.0,101.30048,101.30045,4.0514364,0.0,0.0,0.0,0.09038195,0.0,0.0,0.0,0.0,0.0,0.000492577,0.0021051401,0.008244474,0.0,0.0,0.0,0.0,0.0,0.0
33967664,0.0,0.0,0.0,-0.032358546,0.0070821894,0.13977051,0.0,0.0,0.0,-0.02283752,0.0,0.0,0.0,0.0,0.0,0.0,0.0,0.0,101.29076,101.290726,4.051287,0.0,0.0,0.0,0.09037906,0.0,0.0,0.0,0.0,0.0,0.0007210792,0.0009878918,0.0041612643,0.0,0.0,0.0,0.0,0.0,0.0
34170864,0.0,0.0,0.0,-0.033141725,0.008595137,0.05079651,0.0,0.0,0.0,-0.031030357,0.0,0.0,0.0,0.0,0.0,0.0,0.0,0.0,101.28756,101.28753,4.0513988,0.0,0.0,0.0,0.090375826,0.0,0.0,0.0,0.0,0.0,5.9682214e-05,0.0007577716,0.0029984494,0.0,0.0,0.0,0.0,0.0,0.0
34369325,0.0,0.0,0.0,-0.033913273,0.009862286,0.04006958,0.0,0.0,0.0,0.011179447,0.0,0.0,0.0,0.0,0.0,0.0,0.0,0.0,101.2866,101.28656,4.0515704,0.0,0.0,0.0,0.09037233,0.0,0.0,0.0,0.0,0.0,0.000852385,0.0015370282,0.0060709734,0.0,0.0,0.0,0.0,0.0,0.0
34570088,0.0,0.0,0.0,-0.034502316,0.01105563,0.20332336,0.0,0.0,0.0,-0.040391743,0.0,0.0,0.0,0.0,0.0,0.0,0.0,0.0,101.282776,101.282745,4.0516186,0.0,0.0,0.0,0.09037008,0.0,0.0,0.0,0.0,0.0,0.0002917467,0.0019933316,0.0075197294,0.0,0.0,0.0,0.0,0.0,0.0
34777265,0.0,0.0,0.0,-0.035317592,0.012370895,-0.11172485,0.0,0.0,0.0,0.041793764,0.0,0.0,0.0,0.0,0.0,0.0,0.0,0.0,101.283966,101.28393,4.0518985,0.0,0.0,0.0,0.09036818,0.0,0.0,0.0,0.0,0.0,0.0003081304,0.0031650693,0.012154342,0.0,0.0,0.0,0.0,0.0,0.0
34980500,0.0,0.0,0.0,-0.03561754,0.013362429,-0.16137695,0.0,0.0,0.0,-0.01991421,0.0,0.0,0.0,0.0,0.0,0.0,0.0,0.0,101.27461,101.274574,4.0517,0.0,0.0,0.0,0.09036516,0.0,0.0,0.0,0.0,0.0,0.00016056215,0.0016098503,0.006484465,0.0,0.0,0.0,0.0,0.0,0.0
35180471,0.0,0.0,0.0,-0.03644059,0.0146673275,0.25650024,0.0,0.0,0.0,0.050231814,0.0,0.0,0.0,0.0,0.0,0.0,0.0,0.0,101.27296,101.27292,4.051848,0.0,0.0,0.0,0.090362534,0.0,0.0,0.0,0.0,0.0,0.0006742366,0.0015437136,0.0068685864,0.0,0.0,0.0,0.0,0.0,0.0
35387665,0.0,0.0,0.0,-0.03671412,0.015816057,-0.34368896,0.0,0.0,0.0,0.009033799,0.0,0.0,0.0,0.0,0.0,0.0,0.0,0.0,101.26413,101.26409,4.0516787,0.0,0.0,0.0,0.09035963,0.0,0.0,0.0,0.0,0.0,0.00067014043,0.0010132124,0.0033987726,0.0,0.0,0.0,0.0,0.0,0.0
35586884,0.0,0.0,0.0,-0.037033815,0.016800169,-0.053848267,0.0,0.0,0.0,0.11032987,0.0,0.0,0.0,0.0,0.0,0.0,0.0,0.0,101.26064,101.260605,4.051711,0.0,0.0,0.0,0.09035751,0.0,0.0,0.0,0.0,0.0,0.0009002128,0.00061025587,0.0023234645,0.0,0.0,0.0,0.0,0.0,0.0
35794871,0.0,0.0,0.0,-0.037235852,0.01777244,-0.09185791,0.0,0.0,0.0,-0.1024161,0.0,0.0,0.0,0.0,0.0,0.0,0.0,0.0,101.25301,101.252975,4.0515795,0.0,0.0,0.0,0.09035469,0.0,0.0,0.0,0.0,0.0,0.0007002797,0.002213479,0.008250839,0.0,0.0,0.0,0.0,0.0,0.0
35994114,0.0,0.0,0.0,-0.03723745,0.018587295,-0.08302307,0.0,0.0,0.0,-0.015040159,0.0,0.0,0.0,0.0,0.0,0.0,0.0,0.0,101.24946,101.24941,4.0515976,0.0,0.0,0.0,0.09035264,0.0,0.0,0.0,0.0,0.0,5.464159e-05,0.0031984157,0.012891404,0.0,0.0,0.0,0.0,0.0,0.0
36194079,0.0,0.0,0.0,-0.037006676,0.019496553,-0.33615112,0.0,0.0,0.0,-0.045920372,0.0,0.0,0.0,0.0,0.0,0.0,0.0,0.0,101.25135,101.251305,4.051852,0.0,0.0,0.0,0.09035019,0.0,0.0,0.0,0.0,0.0,0.0001103825,0.002829593,0.011827415,0.0,0.0,0.0,0.0,0.0,0.0
36401313,0.0,0.0,0.0,-0.03643643,0.020370822,0.037139893,0.0,0.0,0.0,-0.010725319,0.0,0.0,0.0,0.0,0.0,0.0,0.0,0.0,101.24743,101.24738,4.0518656,0.0,0.0,0.0,0.09034748,0.0,0.0,0.0,0.0,0.0,0.00048599177,0.00058897404,0.0019309423,0.0,0.0,0.0,0.0,0.0,0.0
36604465,0.0,0.0,0.0,-0.035449293,0.021117013,-0.1761322,0.0,0.0,0.0,0.06418681,0.0,0.0,0.0,0.0,0.0,0.0,0.0,0.0,101.23955,101.23951,4.0516963,0.0,0.0,0.0,0.090345204,0.0,0.0,0.0,0.0,0.0,0.00034781575,0.0013699828,0.0054751663,0.0,0.0,0.0,0.0,0.0,0.0
36803665,0.0,0.0,0.0,-0.034484882,0.021813106,-0.4308319,0.0,0.0,0.0,0.029733658,0.0,0.0,0.0,0.0,0.0,0.0,0.0,0.0,101.23429,101.23425,4.051617,0.0,0.0,0.0,0.090343595,0.0,0.0,0.0,0.0,0.0,0.00058577274,0.0019579064,0.0070577296,0.0,0.0,0.0,0.0,0.0,0.0
37011665,0.0,0.0,0.0,-0.033110786,0.022895634,-0.23965454,0.0,0.0,0.0,-0.009013951,0.0,0.0,0.0,0.0,0.0,0.0,0.0,0.0,101.22666,101.226616,4.051444,0.0,0.0,0.0,0.09034001,0.0,0.0,0.0,0.0,0.0,0.00059926196,0.0052066394,0.020023273,0.0,0.0,0.0,0.0,0.0,0.0
37210879,0.0,0.0,0.0,-0.031619146,0.02400744,-0.49700928,0.0,0.0,0.0,-0.012399197,0.0,0.0,0.0,0.0,0.0,0.0,0.0,0.0,101.22465,101.22461,4.05152,0.0,0.0,0.0,0.09033874,0.0,0.0,0.0,0.0,0.0,0.00027033256,0.0029264954,0.011891085,0.0,0.0,0.0,0.0,0.0,0.0
37410870,0.0,0.0,0.0,-0.030066367,0.024988031,0.11180115,0.0,0.0,0.0,0.07413685,0.0,0.0,0.0,0.0,0.0,0.0,0.0,0.0,101.21781,101.21777,4.051354,0.0,0.0,0.0,0.09033659,0.0,0.0,0.0,0.0,0.0,0.0005410318,0.0030060806,0.01222233,0.0,0.0,0.0,0.0,0.0,0.0
37618072,0.0,0.0,0.0,-0.028460259,0.026303709,0.15713501,0.0,0.0,0.0,-0.034492195,0.0,0.0,0.0,0.0,0.0,0.0,0.0,0.0,101.220146,101.220116,4.05162,0.0,0.0,0.0,0.09033467,0.0,0.0,0.0,0.0,0.0,0.00080466794,0.0016007182,0.006961945,0.0,0.0,0.0,0.0,0.0,0.0
37817265,0.0,0.0,0.0,-0.026969794,0.02742931,-0.106796265,0.0,0.0,0.0,-0.013383508,0.0,0.0,0.0,0.0,0.0,0.0,0.0,0.0,101.218704,101.21867,4.051691,0.0,0.0,0.0,0.09033287,0.0,0.0,0.0,0.0,0.0,0.00016412472,0.00062280626,0.0021648156,0.0,0.0,0.0,0.0,0.0,0.0
38017282,0.0,0.0,0.0,-0.025566302,0.028472781,0.015457153,0.0,0.0,0.0,0.11199212,0.0,0.0,0.0,0.0,0.0,0.0,0.0,0.0,101.216324,101.21629,4.051714,0.0,0.0,0.0,0.090331346,0.0,0.0,0.0,0.0,0.0,0.00050863746,0.0013394855,0.005148657,0.0,0.0,0.0,0.0,0.0,0.0
38220465,0.0,0.0,0.0,-0.023806734,0.029612264,0.03012085,0.0,0.0,0.0,0.014498651,0.0,0.0,0.0,0.0,0.0,0.0,0.0,0.0,101.20961,101.20958,4.051548,0.0,0.0,0.0,0.090328924,0.0,0.0,0.0,0.0,0.0,0.00040346044,0.0016912032,0.0061155166,0.0,0.0,0.0,0.0,0.0,0.0
38427704,0.0,0.0,0.0,-0.022035867,0.030605022,0.03994751,0.0,0.0,0.0,-0.17002112,0.0,0.0,0.0,0.0,0.0,0.0,0.0,0.0,101.205185,101.205154,4.0514827,0.0,0.0,0.0,0.090327196,0.0,0.0,0.0,0.0,0.0,0.0009218899,0.0020568445,0.007436787,0.0,0.0,0.0,0.0,0.0,0.0
38627665,0.0,0.0,0.0,-0.020357702,0.03159774,-0.16694641,0.0,0.0,0.0,0.1325553,0.0,0.0,0.0,0.0,0.0,0.0,0.0,0.0,101.203476,101.203445,4.051524,0.0,0.0,0.0,0.090324566,0.0,0.0,0.0,0.0,0.0,0.0008510124,0.0017473256,0.0067732264,0.0,0.0,0.0,0.0,0.0,0.0
38834864,0.0,0.0,0.0,-0.018396609,0.03263303,0.29493713,0.0,0.0,0.0,-0.047300577,0.0,0.0,0.0,0.0,0.0,0.0,0.0,0.0,101.20204,101.20201,4.051589,0.0,0.0,0.0,0.09032226,0.0,0.0,0.0,0.0,0.0,0.000118519136,0.002455221,0.008820144,0.0,0.0,0.0,0.0,0.0,0.0
39034101,0.0,0.0,0.0,-0.016799085,0.03319712,0.2846222,0.0,0.0,0.0,-0.05725795,0.0,0.0,0.0,0.0,0.0,0.0,0.0,0.0,101.200294,101.20027,4.0516214,0.0,0.0,0.0,0.09032025,0.0,0.0,0.0,0.0,0.0,0.0011915276,0.0038598,0.014645575,0.0,0.0,0.0,0.0,0.0,0.0
39242065,0.0,0.0,0.0,-0.015062695,0.033911493,-0.095825195,0.0,0.0,0.0,0.013740778,0.0,0.0,0.0,0.0,0.0,0.0,0.0,0.0,101.19839,101.198364,4.0516562,0.0,0.0,0.0,0.09031751,0.0,0.0,0.0,0.0,0.0,0.00025818354,0.0010630096,0.004700425,0.0,0.0,0.0,0.0,0.0,0.0
39848464,0.0,0.0,0.0,-0.009767158,0.035245225,0.49162292,0.0,0.0,0.0,-0.034263074,0.0,0.0,0.0,0.0,0.0,0.0,0.0,0.0,101.18459,101.18458,4.0513363,0.0,0.0,0.0,0.090312235,0.0,0.0,0.0,0.0,0.0,0.0010335168,0.001250896,0.0053563295,0.0,0.0,0.0,0.0,0.0,0.0
40047665,0.0,0.0,0.0,-0.007962271,0.03561615,0.023529053,0.0,0.0,0.0,0.031027317,0.0,0.0,0.0,0.0,0.0,0.0,0.0,0.0,101.18377,101.183754,4.051396,0.0,0.0,0.0,0.09031037,0.0,0.0,0.0,0.0,0.0,0.0014370627,0.0006673451,0.002520129,0.0,0.0,0.0,0.0,0.0,0.0
40250082,0.0,0.0,0.0,-0.0060138362,0.036125645,0.49150085,0.0,0.0,0.0,0.018705666,0.0,0.0,0.0,0.0,0.0,0.0,0.0,0.0,101.17875,101.178734,4.0512624,0.0,0.0,0.0,0.09030807,0.0,0.0,0.0,0.0,0.0,0.0003040844,0.0017026749,0.006362014,0.0,0.0,0.0,0.0,0.0,0.0
40458865,0.0,0.0,0.0,-0.0041309386,0.03677652,-0.230896,0.0,0.0,0.0,0.08137828,0.0,0.0,0.0,0.0,0.0,0.0,0.0,0.0,101.1803,101.18028,4.0514407,0.0,0.0,0.0,0.090307094,0.0,0.0,0.0,0.0,0.0,0.00077127694,0.00077330455,0.0037306072,0.0,0.0,0.0,0.0,0.0,0.0
40658076,0.0,0.0,0.0,-0.0024220934,0.037239414,-0.014663696,0.0,0.0,0.0,0.019496322,0.0,0.0,0.0,0.0,0.0,0.0,0.0,0.0,101.1794,101.17939,4.0514855,0.0,0.0,0.0,0.09030531,0.0,0.0,0.0,0.0,0.0,0.00057469995,0.00095621817,0.0040369993,0.0,0.0,0.0,0.0,0.0,0.0
40865271,0.0,0.0,0.0,-0.00058083853,0.0377682,-0.3458557,0.0,0.0,0.0,0.018613577,0.0,0.0,0.0,0.0,0.0,0.0,0.0,0.0,101.178894,101.17888,4.051557,0.0,0.0,0.0,0.09030362,0.0,0.0,0.0,0.0,0.0,0.00016012792,0.0013420613,0.0049323607,0.0,0.0,0.0,0.0,0.0,0.0
41065302,0.0,0.0,0.0,0.00089501357,0.03801835,0.07141113,0.0,0.0,0.0,-0.06437516,0.0,0.0,0.0,0.0,0.0,0.0,0.0,0.0,101.17347,101.17346,4.051376,0.0,0.0,0.0,0.090301886,0.0,0.0,0.0,0.0,0.0,0.0009472715,0.0024041606,0.009055743,0.0,0.0,0.0,0.0,0.0,0.0
41272464,0.0,0.0,0.0,0.002798923,0.038513094,-0.08717346,0.0,0.0,0.0,-0.0934726,0.0,0.0,0.0,0.0,0.0,0.0,0.0,0.0,101.17333,101.173325,4.0514593,0.0,0.0,0.0,0.09029918,0.0,0.0,0.0,0.0,0.0,0.0010165299,0.00109712,0.003955389,0.0,0.0,0.0,0.0,0.0,0.0
41467665,0.0,0.0,0.0,0.0043082596,0.03880435,-0.003326416,0.0,0.0,0.0,-0.0786674,0.0,0.0,0.0,0.0,0.0,0.0,0.0,0.0,101.172714,101.17271,4.051507,0.0,0.0,0.0,0.090297565,0.0,0.0,0.0,0.0,0.0,0.0018463054,0.0011130525,0.004193406,0.0,0.0,0.0,0.0,0.0,0.0
41675697,0.0,0.0,0.0,0.006062029,0.038997274,0.0700531,0.0,0.0,0.0,0.0155335665,0.0,0.0,0.0,0.0,0.0,0.0,0.0,0.0,101.16987,101.16986,4.0514517,0.0,0.0,0.0,0.090295956,0.0,0.0,0.0,0.0,0.0,0.0010283826,0.0034277204,0.013620622,0.0,0.0,0.0,0.0,0.0,0.0
41877265,0.0,0.0,0.0,0.007904287,0.03926234,0.16889954,0.0,0.0,0.0,-0.029003084,0.0,0.0,0.0,0.0,0.0,0.0,0.0,0.0,101.16515,101.165146,4.0513015,0.0,0.0,0.0,0.090294406,0.0,0.0,0.0,0.0,0.0,0.00012502457,0.0007063297,0.0027667894,0.0,0.0,0.0,0.0,0.0,0.0
42078065,0.0,0.0,0.0,0.009672351,0.039604202,0.0077209473,0.0,0.0,0.0,0.004927039,0.0,0.0,0.0,0.0,0.0,0.0,0.0,0.0,101.16596,101.16596,4.051412,0.0,0.0,0.0,0.090292804,0.0,0.0,0.0,0.0,0.0,0.00044740402,0.00090406655,0.003499793,0.0,0.0,0.0,0.0,0.0,0.0
42278075,0.0,0.0,0.0,0.011367617,0.039874718,0.2606659,0.0,0.0,0.0,0.024799883,0.0,0.0,0.0,0.0,0.0,0.0,0.0,0.0,101.16271,101.162704,4.051327,0.0,0.0,0.0,0.09029058,0.0,0.0,0.0,0.0,0.0,0.00061704894,0.001271153,0.0051614745,0.0,0.0,0.0,0.0,0.0,0.0
42485265,0.0,0.0,0.0,0.012731007,0.04028182,0.6787262,0.0,0.0,0.0,0.046121955,0.0,0.0,0.0,0.0,0.0,0.0,0.0,0.0,101.162994,101.16299,4.0514054,0.0,0.0,0.0,0.09028813,0.0,0.0,0.0,0.0,0.0,0.00023143762,0.003084782,0.011540783,0.0,0.0,0.0,0.0,0.0,0.0
42684475,0.0,0.0,0.0,0.014472122,0.04078957,0.02609253,0.0,0.0,0.0,-0.009964347,0.0,0.0,0.0,0.0,0.0,0.0,0.0,0.0,101.1633,101.16329,4.051491,0.0,0.0,0.0,0.09028602,0.0,0.0,0.0,0.0,0.0,0.00025306907,0.0045447713,0.01741268,0.0,0.0,0.0,0.0,0.0,0.0
42892465,0.0,0.0,0.0,0.015895234,0.041377746,-0.14515686,0.0,0.0,0.0,-0.031992376,0.0,0.0,0.0,0.0,0.0,0.0,0.0,0.0,101.163055,101.16305,4.0515385,0.0,0.0,0.0,0.09028414,0.0,0.0,0.0,0.0,0.0,7.8133264e-05,0.0020274625,0.008245021,0.0,0.0,0.0,0.0,0.0,0.0
43091664,0.0,0.0,0.0,0.01724771,0.041973356,-0.11210632,0.0,0.0,0.0,0.019035041,0.0,0.0,0.0,0.0,0.0,0.0,0.0,0.0,101.15859,101.158585,4.051382,0.0,0.0,0.0,0.09028251,0.0,0.0,0.0,0.0,0.0,0.00019635604,0.0027189516,0.010767739,0.0,0.0,0.0,0.0,0.0,0.0
43292504,0.0,0.0,0.0,0.018711336,0.04253028,-0.243927,0.0,0.0,0.0,-0.06544769,0.0,0.0,0.0,0.0,0.0,0.0,0.0,0.0,101.15471,101.1547,4.051252,0.0,0.0,0.0,0.09028004,0.0,0.0,0.0,0.0,0.0,0.00056949013,0.001476478,0.0061280425,0.0,0.0,0.0,0.0,0.0,0.0
43498892,0.0,0.0,0.0,0.020074269,0.043144584,0.05532837,0.0,0.0,0.0,-0.0014366508,0.0,0.0,0.0,0.0,0.0,0.0,0.0,0.0,101.155045,101.15504,4.051324,0.0,0.0,0.0,0.090279594,0.0,0.0,0.0,0.0,0.0,0.00019033073,0.0006152421,0.002603154,0.0,0.0,0.0,0.0,0.0,0.0
43702071,0.0,0.0,0.0,0.021379195,0.043927494,-0.120391846,0.0,0.0,0.0,0.08663237,0.0,0.0,0.0,0.0,0.0,0.0,0.0,0.0,101.157616,101.15761,4.051511,0.0,0.0,0.0,0.090278246,0.0,0.0,0.0,0.0,0.0,0.00041550086,0.0007247002,0.0034854217,0.0,0.0,0.0,0.0,0.0,0.0
43901276,0.0,0.0,0.0,0.022535926,0.044452913,0.12738037,0.0,0.0,0.0,0.016747952,0.0,0.0,0.0,0.0,0.0,0.0,0.0,0.0,101.15802,101.15801,4.051579,0.0,0.0,0.0,0.09027694,0.0,0.0,0.0,0.0,0.0,0.00020816748,0.0015914063,0.006295739,0.0,0.0,0.0,0.0,0.0,0.0
44109328,0.0,0.0,0.0,0.023817101,0.04510323,-0.08703613,0.0,0.0,0.0,-0.064857125,0.0,0.0,0.0,0.0,0.0,0.0,0.0,0.0,101.15799,101.15798,4.0516286,0.0,0.0,0.0,0.090275615,0.0,0.0,0.0,0.0,0.0,6.389802e-05,0.00069840706,0.0028240082,0.0,0.0,0.0,0.0,0.0,0.0
44308472,0.0,0.0,0.0,0.02455832,0.045509163,-0.06251526,0.0,0.0,0.0,-0.013713479,0.0,0.0,0.0,0.0,0.0,0.0,0.0,0.0,101.15391,101.1539,4.051468,0.0,0.0,0.0,0.09027429,0.0,0.0,0.0,0.0,0.0,0.00023410983,0.0025246534,0.00949424,0.0,0.0,0.0,0.0,0.0,0.0
44515669,0.0,0.0,0.0,0.0,0.0,0.26602173,0.0,0.0,0.0,0.0015589595,0.0,0.0,0.0,0.0,0.0,0.3461,0.3461,0.6586,3.7373786,3.7373786,4.050726,0.0,0.0,0.0,0.09765293,0.0,0.0,0.0,0.0,0.0,0.00431003,0.0023863784,0.010792591,0.0,0.0,0.0,0.0,0.0,0.0
44715665,0.06440057,0.03791862,-0.05615288,0.009509945,0.005648631,0.100982666,0.0,0.0,0.0,-0.026038706,0.0,0.0,0.0,0.0,0.0,0.32207415,0.32207417,0.64465773,2.805813,2.805813,4.049243,0.0,0.0,0.0,0.09479734,0.0,0.0,0.0,0.0,0.0,0.019360872,0.01538958,0.0037482684,0.0,0.0,0.0,0.0,0.0,0.0
44915704,0.031161787,-0.00014503859,-0.030724162,0.010218227,0.0062190667,-0.10771179,0.0,0.0,0.0,0.03826803,0.0,0.0,0.0,0.0,0.0,0.3123848,0.31238514,0.6335491,2.4978793,2.4978793,4.0516872,0.0,0.0,0.0,0.09349367,0.0,0.0,0.0,0.0,0.0,0.019394096,0.012593792,0.009396903,0.0,0.0,0.0,0.0,0.0,0.0
45122065,0.027787212,-0.013221541,0.049801245,0.011347585,0.008912919,-0.031448364,0.0,0.0,0.0,0.026141107,0.0,0.0,0.0,0.0,0.0,0.30941597,0.30941653,0.624322,2.3483877,2.3483877,4.0554914,0.0,0.0,0.0,0.09266606,0.0,0.0,0.0,0.0,0.0,0.010896394,0.0091684535,0.007830475,0.0,0.0,0.0,0.0,0.0,0.0
45322120,0.050456353,0.018617813,-0.03561148,0.00016622245,0.013034063,0.021850586,0.0,0.0,0.0,-0.040905178,0.0,0.0,0.0,0.0,0.0,0.3097854,0.30978623,0.6163937,2.2586198,2.2586198,4.060342,0.0,0.0,0.0,0.09215563,0.0,0.0,0.0,0.0,0.0,0.0063138255,0.011810722,0.011140856,0.0,0.0,0.0,0.0,0.0,0.0
45521282,0.017883748,0.010584556,-0.030184148,-0.013146607,0.013673485,0.11883545,0.0,0.0,0.0,0.027248085,0.0,0.0,0.0,0.0,0.0,0.31168795,0.31168872,0.60917145,2.2002306,2.2002306,4.064165,0.0,0.0,0.0,0.091846466,0.0,0.0,0.0,0.0,0.0,0.0004974572,0.008869884,0.011509836,0.0,0.0,0.0,0.0,0.0,0.0
45720465,-0.032369234,-0.011624441,-0.0129143335,-0.011808547,0.014650586,0.12301636,0.0,0.0,0.0,0.043087065,0.0,0.0,0.0,0.0,0.0,0.3137585,0.31375924,0.6032376,2.1597488,2.1597488,4.0673013,0.0,0.0,0.0,0.09158674,0.0,0.0,0.0,0.0,0.0,0.0050551645,0.0051153162,0.007510763,0.0,0.0,0.0,0.0,0.0,0.0
45920471,0.017264497,0.012680328,0.014856799,-0.0046811234,0.011344427,0.10848999,0.0,0.0,0.0,0.11854082,0.0,0.0,0.0,0.0,0.0,0.31529525,0.31529593,0.59816587,2.133229,2.133229,4.070263,0.0,0.0,0.0,0.091412954,0.0,0.0,0.0,0.0,0.0,0.005772198,0.0057335985,0.00835297,0.0,0.0,0.0,0.0,0.0,0.0
46127715,0.03190855,-0.02524901,-0.036347993,-0.016393192,0.012975413,-0.19578552,0.0,0.0,0.0,0.061463714,0.0,0.0,0.0,0.0,0.0,0.31664714,0.3166476,0.59351814,2.1121552,2.1121552,4.071863,0.0,0.0,0.0,0.091255836,0.0,0.0,0.0,0.0,0.0,0.0046330313,0.006379219,0.005154729,0.0,0.0,0.0,0.0,0.0,0.0
46327711,0.0040621525,0.021835666,-0.021619579,-0.041915096,0.020172536,-0.23832703,0.0,0.0,0.0,0.032316327,0.0,0.0,0.0,0.0,0.0,0.31621188,0.31621215,0.5898959,2.0954027,2.0954027,4.0730886,0.0,0.0,0.0,0.09115936,0.0,0.0,0.0,0.0,0.0,0.001495243,0.0011335197,0.0042106607,0.0,0.0,0.0,0.0,0.0,0.0
46530872,0.06241602,0.04149557,-0.072487436,-0.017405525,0.019386211,0.024993896,0.0,0.0,0.0,0.0074101686,0.0,0.0,0.0,0.0,0.0,0.3144858,0.31448585,0.58684134,2.084379,2.084379,4.0735917,0.0,0.0,0.0,0.09105171,0.0,0.0,0.0,0.0,0.0,0.003152102,0.011470794,0.0067871124,0.0,0.0,0.0,0.0,0.0,0.0
46738070,0.01518525,0.042308085,0.014886759,-0.029506186,0.021706171,-0.14837646,0.0,0.0,0.0,-0.0056381226,0.0,0.0,0.0,0.0,0.0,0.31306595,0.3130657,0.5840612,2.0743995,2.0743995,4.07357,0.0,0.0,0.0,0.090962514,0.0,0.0,0.0,0.0,0.0,0.0050406577,0.010473492,0.008413818,0.0,0.0,0.0,0.0,0.0,0.0
46937265,-0.016992461,-0.070742,-0.06315709,-0.01314608,0.014100018,-0.18504333,0.0,0.0,0.0,-0.025949359,0.0,0.0,0.0,0.0,0.0,0.31104627,0.3110457,0.58199596,2.068745,2.0687451,4.072946,0.0,0.0,0.0,0.0908961,0.0,0.0,0.0,0.0,0.0,0.001701677,0.008708393,0.010642725,0.0,0.0,0.0,0.0,0.0,0.0
47145271,0.036022354,0.027726522,-0.14900218,0.0063236854,0.019453404,-0.3009796,0.0,0.0,0.0,-0.103132546,0.0,0.0,0.0,0.0,0.0,0.3087904,0.3087898,0.58030474,2.0618973,2.0618975,4.0721593,0.0,0.0,0.0,0.09083076,0.0,0.0,0.0,0.0,0.0,0.00015607395,0.005662743,0.012942282,0.0,0.0,0.0,0.0,0.0,0.0
47344491,0.009537283,0.048812665,-0.013746103,-0.009032808,0.022771811,0.46525574,0.0,0.0,0.0,-0.07869768,0.0,0.0,0.0,0.0,0.0,0.30686113,0.3068605,0.57877696,2.0598345,2.0598345,4.0707617,0.0,0.0,0.0,0.09078092,0.0,0.0,0.0,0.0,0.0,0.001610588,0.006172693,0.00510475,0.0,0.0,0.0,0.0,0.0,0.0
47543665,-0.005969625,-0.04540041,-0.10072618,-0.031265263,0.012893782,-0.3447876,0.0,0.0,0.0,0.0046181083,0.0,0.0,0.0,0.0,0.0,0.30434483,0.30434406,0.577534,2.0577602,2.0577602,4.06972,0.0,0.0,0.0,0.09073116,0.0,0.0,0.0,0.0,0.0,0.000581396,0.0057268194,0.0069749183,0.0,0.0,0.0,0.0,0.0,0.0
47753265,0.016247973,0.017486755,-0.052964527,-0.027839132,0.0201954,-0.5527344,0.0,0.0,0.0,-0.05851829,0.0,0.0,0.0,0.0,0.0,0.301909,0.30190825,0.5766994,2.0564764,2.0564764,4.068242,0.0,0.0,0.0,0.09069257,0.0,0.0,0.0,0.0,0.0,9.0715344e-05,0.003909721,0.0101036765,0.0,0.0,0.0,0.0,0.0,0.0
47954871,-0.023454193,-0.021174626,0.02383773,-0.05225667,0.015850702,-0.11677551,0.0,0.0,0.0,0.049229503,0.0,0.0,0.0,0.0,0.0,0.29958943,0.29958865,0.5759196,2.047657,2.047657,4.067381,0.0,0.0,0.0,0.09065334,0.0,0.0,0.0,0.0,0.0,0.000787287,0.008197195,0.014157086,0.0,0.0,0.0,0.0,0.0,0.0
48154114,-0.088845834,-0.07555411,-0.063675985,-0.057162102,0.011380371,0.22732544,0.0,0.0,0.0,0.036012948,0.0,0.0,0.0,0.0,0.0,0.29716226,0.2971616,0.5754163,2.0388336,2.0388336,4.066292,0.0,0.0,0.0,0.090618335,0.0,0.0,0.0,0.0,0.0,0.0005072721,0.019779224,0.02469411,0.0,0.0,0.0,0.0,0.0,0.0
48362065,-0.09390253,0.0017054286,0.050726406,-0.07186906,0.018586356,-0.070999146,0.0,0.0,0.0,0.047069788,0.0,0.0,0.0,0.0,0.0,0.29539374,0.29539335,0.5751017,2.0344393,2.0344393,4.0652275,0.0,0.0,0.0,0.09058335,0.0,0.0,0.0,0.0,0.0,0.00068771665,0.020915324,0.028521067,0.0,0.0,0.0,0.0,0.0,0.0
48565265,-0.018816639,0.026084248,-0.0034503918,-0.058497652,0.019472707,0.05810547,0.0,0.0,0.0,-0.034103334,0.0,0.0,0.0,0.0,0.0,0.29289934,0.29289916,0.5747785,2.036109,2.036109,4.0642786,0.0,0.0,0.0,0.090559,0.0,0.0,0.0,0.0,0.0,0.00039093578,0.01242211,0.019591603,0.0,0.0,0.0,0.0,0.0,0.0
48764479,-0.016245253,0.02729389,-0.03701987,-0.08181772,0.023253769,-0.18972778,0.0,0.0,0.0,0.023122132,0.0,0.0,0.0,0.0,0.0,0.29145533,0.29145533,0.574572,2.0409849,2.0409849,4.0632143,0.0,0.0,0.0,0.09053669,0.0,0.0,0.0,0.0,0.0,0.0013961203,0.008831723,0.016046587,0.0,0.0,0.0,0.0,0.0,0.0
48964482,-0.09059985,-0.025936354,-0.09315188,-0.07016401,0.018613597,0.648468,0.0,0.0,0.0,0.14131737,0.0,0.0,0.0,0.0,0.0,0.28976142,0.28976154,0.5745043,2.0477505,2.0477505,4.06241,0.0,0.0,0.0,0.090516135,0.0,0.0,0.0,0.0,0.0,0.0008894425,0.013546625,0.024339408,0.0,0.0,0.0,0.0,0.0,0.0
49171665,-0.019472525,-0.025503457,0.03276212,-0.066928685,0.016466424,0.30303955,0.0,0.0,0.0,0.0034192204,0.0,0.0,0.0,0.0,0.0,0.28813893,0.28813922,0.57438564,2.054545,2.0545447,4.0614276,0.0,0.0,0.0,0.09049464,0.0,0.0,0.0,0.0,0.0,0.00091649586,0.0087270755,0.017858407,0.0,0.0,0.0,0.0,0.0,0.0
49370887,0.027966073,0.0116007235,0.017852968,-0.074988306,0.022339925,0.16264343,0.0,0.0,0.0,-0.011809409,0.0,0.0,0.0,0.0,0.0,0.286645,0.28664547,0.5744259,2.0616531,2.0616531,4.0608706,0.0,0.0,0.0,0.090474956,0.0,0.0,0.0,0.0,0.0,0.0019899635,0.0030984024,0.01138309,0.0,0.0,0.0,0.0,0.0,0.0
49570865,0.0022778083,0.0035458663,-0.05804102,-0.08024712,0.02179275,0.49357605,0.0,0.0,0.0,0.08512038,0.0,0.0,0.0,0.0,0.0,0.28526485,0.28526536,0.5744068,2.071802,2.071802,4.060381,0.0,0.0,0.0,0.09045912,0.0,0.0,0.0,0.0,0.0,0.0018734667,0.002623419,0.00709169,0.0,0.0,0.0,0.0,0.0,0.0
49778072,-0.057910647,0.03830713,0.02464167,-0.09208348,0.029710278,0.03517151,0.0,0.0,0.0,-0.048409104,0.0,0.0,0.0,0.0,0.0,0.2839714,0.28397197,0.5745083,2.076511,2.076511,4.0600452,0.0,0.0,0.0,0.0904424,0.0,0.0,0.0,0.0,0.0,0.0013412485,0.005072908,0.008853945,0.0,0.0,0.0,0.0,0.0,0.0
49977265,-0.07056839,-0.026451454,0.022158831,-0.114230424,0.030456778,0.23390198,0.0,0.0,0.0,-0.101469755,0.0,0.0,0.0,0.0,0.0,0.2827646,0.2827653,0.5746216,2.0813391,2.0813391,4.0600057,0.0,0.0,0.0,0.09042879,0.0,0.0,0.0,0.0,0.0,0.00052056107,0.007871895,0.015588529,0.0,0.0,0.0,0.0,0.0,0.0
50185265,-0.027717508,0.010040684,-0.04044701,-0.10897039,0.03508747,-0.10623169,0.0,0.0,0.0,0.053189814,0.0,0.0,0.0,0.0,0.0,0.28164986,0.28165066,0.5747417,2.0863388,2.0863388,4.0594745,0.0,0.0,0.0,0.09041259,0.0,0.0,0.0,0.0,0.0,0.00021846192,0.004511768,0.009579017,0.0,0.0,0.0,0.0,0.0,0.0
50384465,-0.12757975,-0.06552989,0.18184729,-0.12117049,0.026215114,0.14442444,0.0,0.0,0.0,0.036518335,0.0,0.0,0.0,0.0,0.0,0.28073764,0.28073853,0.57481617,2.094846,2.0948462,4.0593324,0.0,0.0,0.0,0.090401046,0.0,0.0,0.0,0.0,0.0,0.0012688165,0.01194171,0.020922976,0.0,0.0,0.0,0.0,0.0,0.0
50591665,0.015168963,-0.028564341,0.26012412,-0.12456865,0.031275325,-0.3691101,0.0,0.0,0.0,0.061967373,0.0,0.0,0.0,0.0,0.0,0.27973244,0.2797334,0.5748436,2.1026676,2.1026676,4.059006,0.0,0.0,0.0,0.090388544,0.0,0.0,0.0,0.0,0.0,0.0014345841,0.004810402,0.009456328,0.0,0.0,0.0,0.0,0.0,0.0
50791664,-0.009983795,-0.0073948856,-1.0528136e-05,-0.12815057,0.038042348,0.07199097,0.0,0.0,0.0,0.06656253,0.0,0.0,0.0,0.0,0.0,0.27868748,0.27868855,0.5749198,2.1071556,2.1071556,4.058976,0.0,0.0,0.0,0.09037844,0.0,0.0,0.0,0.0,0.0,0.00078596966,0.0023614683,0.008509801,0.0,0.0,0.0,0.0,0.0,0.0
50994864,0.012479613,0.023654163,0.043464147,-0.11548108,0.041644894,0.22822571,0.0,0.0,0.0,-0.046293378,0.0,0.0,0.0,0.0,0.0,0.27797073,0.277972,0.5749752,2.1102855,2.1102858,4.059108,0.0,0.0,0.0,0.090367496,0.0,0.0,0.0,0.0,0.0,5.9083282e-05,0.004017662,0.0073232255,0.0,0.0,0.0,0.0,0.0,0.0
51194069,0.01326605,0.0046100747,0.025509182,-0.106995136,0.039396223,0.12799072,0.0,0.0,0.0,-0.0022175312,0.0,0.0,0.0,0.0,0.0,0.27698287,0.2769842,0.5749894,2.1032538,2.1032538,4.0590024,0.0,0.0,0.0,0.090358645,0.0,0.0,0.0,0.0,0.0,0.00052480825,0.0054977466,0.012689568,0.0,0.0,0.0,0.0,0.0,0.0
51394114,0.06616777,0.06925911,-0.061353415,-0.10971225,0.048158642,0.001449585,0.0,0.0,0.0,0.06974459,0.0,0.0,0.0,0.0,0.0,0.27638957,0.27639103,0.57511723,2.1008785,2.1008785,4.0591817,0.0,0.0,0.0,0.09034917,0.0,0.0,0.0,0.0,0.0,0.00030631004,0.008959968,0.015459458,0.0,0.0,0.0,0.0,0.0,0.0
51601271,0.11255995,0.08819723,-0.11529018,-0.08763377,0.052305784,-0.15835571,0.0,0.0,0.0,-0.045035362,0.0,0.0,0.0,0.0,0.0,0.2758083,0.27580988,0.5751179,2.0955608,2.0955608,4.0593023,0.0,0.0,0.0,0.0903402,0.0,0.0,0.0,0.0,0.0,0.0008882346,0.014796761,0.028598653,0.0,0.0,0.0,0.0,0.0,0.0
51800482,0.082416855,0.052092094,-0.18788451,-0.07591982,0.05143875,-0.35211182,0.0,0.0,0.0,-0.04169166,0.0,0.0,0.0,0.0,0.0,0.27505118,0.27505267,0.575109,2.0972009,2.097201,4.0595064,0.0,0.0,0.0,0.09033286,0.0,0.0,0.0,0.0,0.0,0.0011628945,0.015145067,0.033049762,0.0,0.0,0.0,0.0,0.0,0.0
52008467,0.009737076,-0.021992786,-0.02455023,-0.09477166,0.055200513,0.06903076,0.0,0.0,0.0,0.044937015,0.0,0.0,0.0,0.0,0.0,0.27447236,0.27447405,0.5751304,2.105274,2.1052742,4.059601,0.0,0.0,0.0,0.090324886,0.0,0.0,0.0,0.0,0.0,0.00020274756,0.0060948385,0.014046578,0.0,0.0,0.0,0.0,0.0,0.0
