timestamp,states[0],states[1],states[2],states[3],states[4],states[5],states[6],states[7],states[8],states[9],states[10],states[11],states[12],states[13],states[14],states[15],states[16],states[17],states[18],states[19],states[20],states[21],states[22],states[23],vibe[0],vibe[1],vibe[2],covariances[0],covariances[1],covariances[2],covariances[3],covariances[4],covariances[5],covariances[6],covariances[7],covariances[8],covariances[9],covariances[10],covariances[11],covariances[12],covariances[13],covariances[14],covariances[15],covariances[16],covariances[17],covariances[18],covariances[19],covariances[20],covariances[21],covariances[22],covariances[23],control_mode_flags,pos_horiz_accuracy,pos_vert_accuracy,mag_test_ratio,vel_test_ratio,pos_test_ratio,hgt_test_ratio,tas_test_ratio,hagl_test_ratio,beta_test_ratio,time_slip,gps_check_fail_flags,filter_fault_flags,innovation_check_flags,solution_status_flags,n_states,pre_flt_fail,health_flags,timeout_flags
273391065,0.926298,-0.04014011,0.04959054,0.37135097,-0.010532426,0.01558158,-0.021243125,37.504665,-24.010914,1.5609359,-4.1305997e-05,9.1902075e-06,-4.536266e-06,-0.0005961688,0.0002463723,0.0004704443,0.11948455,0.037706595,0.15050809,-0.12110404,-0.044568717,0.24363385,0.0,0.0,4.949474e-10,3.0017038e-05,0.0023627935,6.10092e-06,5.574548e-06,5.586574e-06,3.279414e-05,0.012401397,0.0124073895,0.008853166,0.05490988,0.05491483,0.05425509,1.0597108e-11,1.0491369e-11,1.8388197e-11,5.0352174e-08,5.0348575e-08,5.000007e-08,0.0,0.0,0.0,0.0,0.0,0.0,0.0,0.0,8520343,0.3313981,0.23292722,0.00501476,0.02501829,0.011329856,0.007196813,0.0,0.0,0.0,0.016001,0,0,0,831,24,0,0,0
273590271,0.9263549,-0.04010888,0.049599607,0.37121135,-0.0073613836,0.01235024,-0.016407773,37.50808,-24.015604,1.5697806,-4.1262345e-05,9.1950305e-06,-4.4768235e-06,-0.00059616636,0.00024638142,0.00046643446,0.11948455,0.037706595,0.15050809,-0.12110404,-0.044568717,0.24363385,0.0,0.0,6.3127903e-10,3.503326e-05,0.0021359317,6.1088454e-06,5.574784e-06,5.5863716e-06,3.2848704e-05,0.012399867,0.012405866,0.008810895,0.054967612,0.054972544,0.05379403,1.0595429e-11,1.0489518e-11,1.8398326e-11,5.0353076e-08,5.0349477e-08,5e-08,0.0,0.0,0.0,0.0,0.0,0.0,0.0,0.0,8520343,0.33157223,0.2319354,0.08897263,0.03474272,0.011549564,0.016433096,0.0,0.0,0.0,0.016001,0,0,0,831,24,0,0,0
273798319,0.9263854,-0.04019121,0.049568154,0.37113035,-0.0034841583,0.013076092,-0.013246401,37.510197,-24.016825,1.5722961,-4.1244763e-05,9.206605e-06,-4.4358962e-06,-0.00059616554,0.0002463851,0.00046468215,0.11948455,0.037706595,0.15050809,-0.12110404,-0.044568717,0.24363385,0.0,0.0,7.208943e-10,3.919526e-05,0.0017561661,6.1019355e-06,5.5812548e-06,5.5931996e-06,3.2808417e-05,0.012455866,0.01246192,0.008865823,0.055340976,0.055345975,0.05432589,1.0597062e-11,1.0491363e-11,1.8386235e-11,5.035401e-08,5.0350412e-08,5.0000043e-08,0.0,0.0,0.0,0.0,0.0,0.0,0.0,0.0,8520343,0.3326965,0.23307915,0.027610606,0.021559423,0.012138546,0.008563427,0.0,0.0,0.0,0.016001,0,0,0,831,24,0,0,0
273997465,0.9264389,-0.04026729,0.049624402,0.37098104,-0.005366822,0.010197176,-0.011532369,37.503963,-24.022688,1.5799311,-4.1244293e-05,9.162243e-06,-4.3631226e-06,-0.0005961536,0.0002463967,0.0004614681,0.11948455,0.037706595,0.15050809,-0.12110404,-0.044568717,0.24363385,0.0,0.0,7.44789e-10,4.2045125e-05,0.0018003343,6.1015353e-06,5.583452e-06,5.5956e-06,3.2806627e-05,0.012474331,0.012480408,0.008824869,0.055473268,0.055478275,0.05388979,1.0597189e-11,1.0491517e-11,1.8384412e-11,5.0354917e-08,5.0351318e-08,5.0000036e-08,0.0,0.0,0.0,0.0,0.0,0.0,0.0,0.0,8520343,0.33309388,0.23214175,0.11802134,0.018228026,0.011752171,0.02882361,0.0,0.0,0.0,0.016001,0,0,0,831,24,0,0,0
274204671,0.92649984,-0.04016765,0.04963626,0.3708381,-0.003592939,0.012836156,-0.008136224,37.504604,-24.021545,1.586745,-4.1245705e-05,9.176452e-06,-4.289208e-06,-0.0005961492,0.0002464014,0.00045883743,0.11948455,0.037706595,0.15050809,-0.12110404,-0.044568717,0.24363385,0.0,0.0,7.4714507e-10,4.4179455e-05,0.0019808041,6.094905e-06,5.590175e-06,5.601995e-06,3.276728e-05,0.012531549,0.012537673,0.008813818,0.055852134,0.05585722,0.053712305,1.0599235e-11,1.0493758e-11,1.8373074e-11,5.035584e-08,5.035224e-08,5e-08,0.0,0.0,0.0,0.0,0.0,0.0,0.0,0.0,8520343,0.3342295,0.23175915,0.035669062,0.017301163,0.0101318,0.018140968,0.0,0.0,0.0,0.016001,0,0,0,831,24,0,0,0
274404665,0.9265085,-0.040232934,0.049576964,0.3708175,-0.0004924141,0.013029598,-0.005518789,37.509735,-24.022188,1.5896584,-4.1213207e-05,9.201505e-06,-4.3038694e-06,-0.00059615675,0.0002464021,0.0004576689,0.11948455,0.037706595,0.15050809,-0.12110404,-0.044568717,0.24363385,0.0,0.0,7.294118e-10,4.670314e-05,0.0017387024,6.0926823e-06,5.588838e-06,5.6008575e-06,3.2767544e-05,0.012521801,0.0125279175,0.008845745,0.05588126,0.05588632,0.05401942,1.0596516e-11,1.0491047e-11,1.8370548e-11,5.0356732e-08,5.0353133e-08,5.000004e-08,0.0,0.0,0.0,0.0,0.0,0.0,0.0,0.0,8520343,0.33431658,0.23242079,0.0452394,0.031313255,0.0104866335,0.009930485,0.0,0.0,0.0,0.016001,0,0,0,831,24,0,0,0
274607865,0.92649806,-0.04016886,0.049658187,0.37083954,-0.0018881202,0.010170262,-0.0019101474,37.50628,-24.028856,1.6028413,-4.1198706e-05,9.159496e-06,-4.2958873e-06,-0.00059614755,0.00024641355,0.00045372892,0.11948455,0.037706595,0.15050809,-0.12110404,-0.044568717,0.24363385,0.0,0.0,7.88568e-10,4.8967533e-05,0.0026428828,6.0932894e-06,5.590247e-06,5.6018253e-06,3.2765936e-05,0.012532766,0.012538886,0.008809077,0.05598703,0.055992093,0.053620744,1.0595952e-11,1.04905026e-11,1.836904e-11,5.0357635e-08,5.0354036e-08,5e-08,0.0,0.0,0.0,0.0,0.0,0.0,0.0,0.0,8520343,0.3346328,0.23156154,0.08721055,0.020723471,0.012214123,0.013890251,0.0,0.0,0.0,0.016001,0,0,0,831,24,0,0,0
274807083,0.92648226,-0.040200554,0.049655985,0.37087584,-0.0028364407,0.010917383,-0.002403306,37.506245,-24.031372,1.5976164,-4.1184565e-05,9.158641e-06,-4.305035e-06,-0.0005961511,0.0002464113,0.00045540402,0.11948455,0.037706595,0.15050809,-0.12110404,-0.044568717,0.24363385,0.0,0.0,8.428927e-10,4.9694692e-05,0.0026428322,6.0936804e-06,5.5938417e-06,5.605489e-06,3.2767548e-05,0.012562656,0.012568774,0.008844916,0.056187484,0.056192577,0.05403217,1.060478e-11,1.0499356e-11,1.837743e-11,5.035863e-08,5.035503e-08,5.0000036e-08,0.0,0.0,0.0,0.0,0.0,0.0,0.0,0.0,8520343,0.33523136,0.2324482,0.009919192,0.007908855,0.012309904,0.014414389,0.0,0.0,0.0,0.016001,0,0,0,831,24,0,0,0
275007091,0.92646366,-0.0403603,0.049594343,0.37091315,0.0010523959,0.007842597,-0.002642605,37.51267,-24.038105,1.5984885,-4.1129322e-05,9.1663715e-06,-4.3307655e-06,-0.00059616,0.0002464092,0.00045537422,0.11948455,0.037706595,0.15050809,-0.12110404,-0.044568717,0.24363385,0.0,0.0,8.106445e-10,4.8546233e-05,0.0022354005,6.0924176e-06,5.593509e-06,5.6056165e-06,3.2766977e-05,0.0125617795,0.012567915,0.00887128,0.05623548,0.056240566,0.05430785,1.0602825e-11,1.04974284e-11,1.8375012e-11,5.0359525e-08,5.0355926e-08,5.0000047e-08,0.0,0.0,0.0,0.0,0.0,0.0,0.0,0.0,8520343,0.3353745,0.23304044,0.08369403,0.030892022,0.01352094,0.0025689204,0.0,0.0,0.0,0.016001,0,0,0,831,24,0,0,0
275210265,0.92643607,-0.04020293,0.04966039,0.37099022,-0.0031508554,0.0056036077,-0.0059088916,37.506283,-24.041986,1.583384,-4.114027e-05,9.138032e-06,-4.3654236e-06,-0.0005961634,0.0002464057,0.0004597253,0.11948455,0.037706595,0.15050809,-0.12110404,-0.044568717,0.24363385,0.0,0.0,8.5162366e-10,4.724119e-05,0.0020071026,6.101312e-06,5.594487e-06,5.6059184e-06,3.282175e-05,0.0125678275,0.012573945,0.008828633,0.056320377,0.056325484,0.053870823,1.06021416e-11,1.0496587e-11,1.8386277e-11,5.0360427e-08,5.0356828e-08,5e-08,0.0,0.0,0.0,0.0,0.0,0.0,0.0,0.0,8520343,0.33562756,0.23210089,0.057375606,0.02153829,0.0135271875,0.034828912,0.0,0.0,0.0,0.016001,0,0,0,831,24,0,0,0
275417478,0.92642945,-0.040268455,0.04965078,0.3710012,-0.003116651,0.0022534707,-0.012031678,37.502533,-24.047462,1.5628313,-4.113102e-05,9.11936e-06,-4.3849504e-06,-0.0005961723,0.0002464003,0.00046516975,0.11948455,0.037706595,0.15050809,-0.12110404,-0.044568717,0.24363385,0.0,0.0,8.6597024e-10,4.5681936e-05,0.0018967841,6.0942343e-06,5.604301e-06,5.616054e-06,3.2786633e-05,0.012655111,0.01266127,0.008823299,0.05683778,0.056842983,0.05381074,1.0616576e-11,1.051123e-11,1.8387713e-11,5.0361475e-08,5.0357876e-08,5e-08,0.0,0.0,0.0,0.0,0.0,0.0,0.0,0.0,8520343,0.33716577,0.23197143,0.0024862294,0.0067273322,0.012435097,0.007353597,0.0,0.0,0.0,0.016001,0,0,0,831,24,0,0,0
275617501,0.9264385,-0.04033707,0.04959817,0.37097818,-0.0023648108,-0.00024618756,-0.0063793473,37.504463,-24.054771,1.5746056,-4.109784e-05,9.111767e-06,-4.3858586e-06,-0.00059617206,0.0002464033,0.0004615215,0.11948455,0.037706595,0.15050809,-0.12110404,-0.044568717,0.24363385,0.0,0.0,8.383645e-10,4.4115084e-05,0.001648043,6.083709e-06,5.604664e-06,5.6167673e-06,3.2731074e-05,0.012659813,0.012665977,0.008849922,0.056903638,0.056908842,0.054083183,1.06146775e-11,1.0509565e-11,1.8372134e-11,5.0362367e-08,5.0358768e-08,5.0000008e-08,0.0,0.0,0.0,0.0,0.0,0.0,0.0,0.0,8520343,0.33736104,0.23255791,0.06861803,0.015033943,0.012822803,0.042001247,0.0,0.0,0.0,0.016001,0,0,0,831,24,0,0,0
275824665,0.92644674,-0.040395465,0.049525633,0.37096092,-0.00033392024,0.0007663617,-0.0063291513,37.50554,-24.054302,1.5715747,-4.1102718e-05,9.133428e-06,-4.388452e-06,-0.0005961706,0.0002463989,0.00046247704,0.11948455,0.037706595,0.15050809,-0.12110404,-0.044568717,0.24363385,0.0,0.0,7.573746e-10,4.179444e-05,0.0019643789,6.085527e-06,5.6112162e-06,5.6237536e-06,3.2748823e-05,0.012719666,0.012725872,0.008836243,0.05729024,0.057295516,0.053911343,1.0618063e-11,1.051298e-11,1.8375267e-11,5.0363308e-08,5.035971e-08,5e-08,0.0,0.0,0.0,0.0,0.0,0.0,0.0,0.0,8520343,0.33850518,0.23218817,0.00011895548,0.021523418,0.0108031435,0.033640157,0.0,0.0,0.0,0.016001,0,0,0,831,24,0,0,0
276023888,0.9263899,-0.04024161,0.04963906,0.37110436,-0.0029828786,-0.00079228415,-0.008042603,37.49874,-24.06016,1.5700543,-4.1101914e-05,9.0989315e-06,-4.446516e-06,-0.0005961736,0.00024640164,0.00046264922,0.11948455,0.037706595,0.15050809,-0.12110404,-0.044568717,0.24363385,0.0,0.0,6.969347e-10,3.8063074e-05,0.0017602616,6.085697e-06,5.6112804e-06,5.623032e-06,3.27473e-05,0.01272004,0.012726246,0.008861462,0.057334565,0.057339836,0.054178007,1.0616199e-11,1.051116e-11,1.8372992e-11,5.0364203e-08,5.0360605e-08,5.000001e-08,0.0,0.0,0.0,0.0,0.0,0.0,0.0,0.0,8520343,0.3386361,0.2327617,0.036396105,0.019341644,0.010981,0.024980618,0.0,0.0,0.0,0.016001,0,0,0,831,24,0,0,0
276231865,0.9264962,-0.040310692,0.04963541,0.37083167,-0.0053363354,-0.001373617,-0.005685189,37.495174,-24.06411,1.559472,-4.1118987e-05,9.0840695e-06,-4.332588e-06,-0.0005961679,0.00024640502,0.00046542543,0.11948455,0.037706595,0.15050809,-0.12110404,-0.044568717,0.24363385,0.0,0.0,6.06426e-10,3.495005e-05,0.0014252787,6.087138e-06,5.6173694e-06,5.6295007e-06,3.2764674e-05,0.012771822,0.012778068,0.00884489,0.057686355,0.057691693,0.05396975,1.0617817e-11,1.0512812e-11,1.8374224e-11,5.0365124e-08,5.0361525e-08,5e-08,0.0,0.0,0.0,0.0,0.0,0.0,0.0,0.0,8520343,0.33967346,0.2323139,0.02107757,0.0061890413,0.011282648,0.0056211753,0.0,0.0,0.0,0.016001,0,0,0,831,24,0,0,0
276431064,0.92656696,-0.04040877,0.04959572,0.37064976,-0.0013447397,-0.00022432432,-0.008131126,37.499043,-24.067482,1.5555546,-4.1105362e-05,9.101762e-06,-4.2412958e-06,-0.0005961673,0.0002464042,0.00046650408,0.11948455,0.037706595,0.15050809,-0.12110404,-0.044568717,0.24363385,0.0,0.0,5.215593e-10,3.3095963e-05,0.0017207218,6.0958027e-06,5.6165622e-06,5.629008e-06,3.281909e-05,0.012769025,0.0127752675,0.008869857,0.057720542,0.05772586,0.054253753,1.0616262e-11,1.0511111e-11,1.8385491e-11,5.036602e-08,5.036242e-08,5.0000036e-08,0.0,0.0,0.0,0.0,0.0,0.0,0.0,0.0,8520343,0.33977404,0.23292436,0.006124599,0.026087668,0.010221521,0.0060083847,0.0,0.0,0.0,0.016001,0,0,0,831,24,0,0,0
276638307,0.92662245,-0.040301442,0.049548894,0.3705288,0.00039110478,-0.0023001314,-0.011003244,37.499958,-24.072287,1.5486739,-4.1101106e-05,9.1008305e-06,-4.1489243e-06,-0.0005961659,0.0002464056,0.00046831783,0.11948455,0.037706595,0.15050809,-0.12110404,-0.044568717,0.24363385,0.0,0.0,6.126578e-10,3.3561697e-05,0.0017642755,6.090712e-06,5.6234308e-06,5.635724e-06,3.2778447e-05,0.012831182,0.012837463,0.008852959,0.058097385,0.058102787,0.054040592,1.0618655e-11,1.0513738e-11,1.8374252e-11,5.036696e-08,5.036336e-08,5e-08,0.0,0.0,0.0,0.0,0.0,0.0,0.0,0.0,8520343,0.34088147,0.23246633,0.012438321,0.013052732,0.011235401,0.022821706,0.0,0.0,0.0,0.016001,0,0,0,831,24,0,0,0
276838357,0.92667925,-0.04034681,0.049650114,0.37036833,-0.0026443992,-0.0039525554,-0.007882913,37.49354,-24.078096,1.5545617,-4.1119347e-05,9.065265e-06,-4.05539e-06,-0.00059615215,0.00024641774,0.000466009,0.11948455,0.037706595,0.15050809,-0.12110404,-0.044568717,0.24363385,0.0,0.0,6.5084554e-10,3.5197383e-05,0.00158895,6.09107e-06,5.6226595e-06,5.6349627e-06,3.2775813e-05,0.012825545,0.012831822,0.008876209,0.05811949,0.05812488,0.054294094,1.0615873e-11,1.0510992e-11,1.8371355e-11,5.0367845e-08,5.0364246e-08,5.0000008e-08,0.0,0.0,0.0,0.0,0.0,0.0,0.0,0.0,8520343,0.3409463,0.23301093,0.0173865,0.015820462,0.009927581,0.0063948175,0.0,0.0,0.0,0.016001,0,0,0,831,24,0,0,0
277041465,0.926743,-0.04029232,0.049644016,0.37021533,-0.0024858383,-0.00564826,-0.011022955,37.4919,-24.08383,1.5457714,-4.111198e-05,9.059457e-06,-4.0038863e-06,-0.0005961534,0.00024641893,0.00046776512,0.11948455,0.037706595,0.15050809,-0.12110404,-0.044568717,0.24363385,0.0,0.0,6.963287e-10,3.7388992e-05,0.0016641434,6.0889824e-06,5.624036e-06,5.636158e-06,3.2776457e-05,0.012839143,0.012845426,0.008901165,0.05821728,0.058222692,0.05457178,1.0615479e-11,1.05106574e-11,1.8369738e-11,5.0368747e-08,5.036515e-08,5.0000043e-08,0.0,0.0,0.0,0.0,0.0,0.0,0.0,0.0,8520343,0.34123302,0.23360604,0.048878223,0.01037681,0.010258576,0.027997652,0.0,0.0,0.0,0.016001,0,0,0,831,24,0,0,0
277240705,0.9266816,-0.040456545,0.04961529,0.3703551,-0.0032429541,-0.006307996,-0.012309094,37.489704,-24.08761,1.5408572,-4.1103704e-05,9.064374e-06,-4.0672858e-06,-0.00059615786,0.00024641366,0.0004687676,0.11948455,0.037706595,0.15050809,-0.12110404,-0.044568717,0.24363385,0.0,0.0,7.0615147e-10,3.9775547e-05,0.0016277409,6.0890775e-06,5.627731e-06,5.6404856e-06,3.2778473e-05,0.012873281,0.012879556,0.008865246,0.058418144,0.058423594,0.054226127,1.0626299e-11,1.0521523e-11,1.8380063e-11,5.0369763e-08,5.0366165e-08,5.000004e-08,0.0,0.0,0.0,0.0,0.0,0.0,0.0,0.0,8520343,0.3418212,0.23286504,0.07605926,0.008390196,0.0105876755,0.011742119,0.0,0.0,0.0,0.016001,0,0,0,831,24,0,0,0
277448665,0.9267985,-0.040310748,0.049692433,0.37006795,-0.00174706,-0.008566094,-0.006746688,37.487923,-24.09254,1.556901,-4.1112147e-05,9.0551075e-06,-3.9371894e-06,-0.0005961419,0.00024642804,0.00046298106,0.11948455,0.037706595,0.15050809,-0.12110404,-0.044568717,0.24363385,0.0,0.0,7.180724e-10,4.1005656e-05,0.0014556429,6.0907178e-06,5.634589e-06,5.6466315e-06,3.279592e-05,0.012932632,0.012938948,0.0088493,0.058791045,0.05879657,0.05401374,1.0628155e-11,1.0523425e-11,1.8381307e-11,5.0370684e-08,5.0367085e-08,5e-08,0.0,0.0,0.0,0.0,0.0,0.0,0.0,0.0,8520343,0.3429105,0.23240857,0.024262331,0.01176305,0.009618711,0.023650026,0.0,0.0,0.0,0.016001,0,0,0,831,24,0,0,0
277651865,0.9268254,-0.040213533,0.04975554,0.37000278,-0.0042626467,-0.009964568,-0.008006934,37.48308,-24.09855,1.5577104,-4.111355e-05,9.036817e-06,-3.909772e-06,-0.00059614016,0.00024643217,0.00046303723,0.11948455,0.037706595,0.15050809,-0.12110404,-0.044568717,0.24363385,0.0,0.0,7.317029e-10,4.3614094e-05,0.0017827157,6.0901557e-06,5.638195e-06,5.649754e-06,3.2798103e-05,0.012963555,0.012969868,0.008881289,0.058975,0.05898055,0.054374777,1.0637701e-11,1.0533027e-11,1.8390137e-11,5.037168e-08,5.036808e-08,5.0000025e-08,0.0,0.0,0.0,0.0,0.0,0.0,0.0,0.0,8520343,0.34344658,0.233184,0.09087887,0.018041,0.009709237,0.018296856,0.0,0.0,0.0,0.016001,0,0,0,831,24,0,0,0
277851065,0.9268624,-0.040324766,0.049685296,0.36990738,-0.0009797858,-0.010703902,-0.006551797,37.485134,-24.101439,1.5546494,-4.1106825e-05,9.058251e-06,-3.872075e-06,-0.0005961354,0.00024642603,0.00046377856,0.11948455,0.037706595,0.15050809,-0.12110404,-0.044568717,0.24363385,0.0,0.0,6.8666195e-10,4.4126038e-05,0.002038979,6.0889574e-06,5.6384633e-06,5.6505573e-06,3.2798533e-05,0.012970674,0.0129769705,0.008906481,0.059061415,0.059066962,0.054665584,1.0638304e-11,1.0533679e-11,1.8390484e-11,5.037258e-08,5.0368982e-08,5.000007e-08,0.0,0.0,0.0,0.0,0.0,0.0,0.0,0.0,8520343,0.34369808,0.23380673,0.027571172,0.022038246,0.008583063,0.023433335,0.0,0.0,0.0,0.016001,0,0,0,831,24,0,0,0
278059064,0.92689776,-0.040360395,0.049764723,0.3698043,-0.0021963073,-0.011731422,-0.006928432,37.479836,-24.107878,1.5485779,-4.1116593e-05,9.037556e-06,-3.820442e-06,-0.0005961332,0.0002464309,0.00046485293,0.11948455,0.037706595,0.15050809,-0.12110404,-0.044568717,0.24363385,0.0,0.0,6.6260686e-10,4.558821e-05,0.0016833256,6.082107e-06,5.644478e-06,5.6565787e-06,3.2759483e-05,0.013025816,0.013032168,0.008887569,0.05942251,0.059428114,0.054428667,1.0640723e-11,1.05363175e-11,1.8380006e-11,5.037351e-08,5.0369913e-08,5.0000008e-08,0.0,0.0,0.0,0.0,0.0,0.0,0.0,0.0,8520343,0.3447472,0.23329952,0.0005112489,0.0060427617,0.009698869,0.00245551,0.0,0.0,0.0,0.016001,0,0,0,831,24,0,0,0
279271865,0.9269408,-0.040344257,0.049667317,0.3697111,-0.0069275405,-0.015781734,-0.016691266,37.455452,-24.13014,1.5152014,-4.1178813e-05,9.023099e-06,-3.7909522e-06,-0.00059612474,0.00024642362,0.0004737367,0.11948455,0.037706595,0.15050809,-0.12110404,-0.044568717,0.24363385,0.0,0.0,7.6340817e-10,4.8420472e-05,0.0018556893,6.0909542e-06,5.660072e-06,5.672652e-06,3.284434e-05,0.013177324,0.013183759,0.008938097,0.060409866,0.060415667,0.054906115,1.0641791e-11,1.0537534e-11,1.8387458e-11,5.0378947e-08,5.037535e-08,5.000007e-08,0.0,0.0,0.0,0.0,0.0,0.0,0.0,0.0,8520343,0.34759966,0.23432054,0.06129208,0.020229027,0.009442581,0.0025853978,0.0,0.0,0.0,0.016001,0,0,0,831,24,0,0,0
279475065,0.92692286,-0.040129043,0.049762737,0.3697665,-0.008514581,-0.017667618,-0.015078652,37.450954,-24.134722,1.5107741,-4.1180898e-05,9.02075e-06,-3.8266344e-06,-0.0005961263,0.0002464217,0.0004744703,0.11948455,0.037706595,0.15050809,-0.12110404,-0.044568717,0.24363385,0.0,0.0,7.9077356e-10,4.6345143e-05,0.0017553533,6.089969e-06,5.663868e-06,5.6753565e-06,3.2846918e-05,0.013206572,0.013212976,0.008896345,0.060585223,0.06059105,0.05450792,1.065228e-11,1.0548071e-11,1.8397417e-11,5.0379946e-08,5.0376347e-08,5.0000036e-08,0.0,0.0,0.0,0.0,0.0,0.0,0.0,0.0,8520343,0.34810382,0.2334693,0.012613306,0.009996961,0.006968012,0.0062555973,0.0,0.0,0.0,0.016001,0,0,0,831,24,0,0,0
279682265,0.9269517,-0.04010052,0.049745414,0.36969975,-0.0040475125,-0.017596787,-0.018393908,37.452938,-24.140545,1.5036219,-4.116169e-05,9.03922e-06,-3.8033281e-06,-0.000596129,0.0002464143,0.0004754166,0.11948455,0.037706595,0.15050809,-0.12110404,-0.044568717,0.24363385,0.0,0.0,7.413687e-10,4.488313e-05,0.0018606918,6.082156e-06,5.6698204e-06,5.6811386e-06,3.2808683e-05,0.013266266,0.013272719,0.008878784,0.060958736,0.060964637,0.05428649,1.0654755e-11,1.05507755e-11,1.8387077e-11,5.0380883e-08,5.0377285e-08,5e-08,0.0,0.0,0.0,0.0,0.0,0.0,0.0,0.0,8520343,0.34917527,0.23299462,0.19467859,0.025734594,0.0066387476,0.0069879205,0.0,0.0,0.0,0.016001,0,0,0,831,24,0,0,0
279881471,0.9269392,-0.040224243,0.049678087,0.36972684,-0.0057067284,-0.01839778,-0.014742543,37.449753,-24.144587,1.5088329,-4.1168474e-05,9.040636e-06,-3.8087646e-06,-0.00059612497,0.00024641625,0.0004730317,0.11948455,0.037706595,0.15050809,-0.12110404,-0.044568717,0.24363385,0.0,0.0,7.4098067e-10,4.2736883e-05,0.0018095667,6.0907787e-06,5.6687327e-06,5.6806334e-06,3.2861768e-05,0.013259404,0.013265837,0.008901936,0.060955115,0.060961016,0.05451575,1.0652733e-11,1.054863e-11,1.8397197e-11,5.0381786e-08,5.0378187e-08,5.0000036e-08,0.0,0.0,0.0,0.0,0.0,0.0,0.0,0.0,8520343,0.3491649,0.23348609,0.025891328,0.010322117,0.0070706997,0.0019288483,0.0,0.0,0.0,0.016001,0,0,0,831,24,0,0,0
280089464,0.9269459,-0.04024281,0.049752142,0.36969802,-0.009456434,-0.018002102,-0.012892962,37.440575,-24.152674,1.5114881,-4.11846e-05,9.002771e-06,-3.7995578e-06,-0.0005961201,0.00024642787,0.00047072352,0.11948455,0.037706595,0.15050809,-0.12110404,-0.044568717,0.24363385,0.0,0.0,6.674233e-10,3.9543418e-05,0.0017032283,6.083479e-06,5.6743406e-06,5.6862477e-06,3.2822456e-05,0.01331236,0.013318856,0.008885544,0.06128751,0.06129347,0.05428408,1.0654005e-11,1.05501346e-11,1.8385547e-11,5.038271e-08,5.037911e-08,5.0000036e-08,0.0,0.0,0.0,0.0,0.0,0.0,0.0,0.0,8520343,0.35011566,0.23298945,0.04108075,0.024089146,0.007901202,0.039970875,0.0,0.0,0.0,0.016001,0,0,0,831,24,0,0,0
280288669,0.9269603,-0.040110968,0.04980885,0.3696687,-0.012198203,-0.01797847,-0.010195026,37.432915,-24.157198,1.5164146,-4.120879e-05,8.987542e-06,-3.7692546e-06,-0.00059611123,0.00024643447,0.0004681259,0.11948455,0.037706595,0.15050809,-0.12110404,-0.044568717,0.24363385,0.0,0.0,5.937211e-10,3.6380192e-05,0.0015413751,6.0745406e-06,5.674364e-06,5.685827e-06,3.276545e-05,0.013315402,0.013321892,0.008845345,0.06132811,0.06133407,0.0538383,1.0652791e-11,1.0549154e-11,1.8371284e-11,5.0383594e-08,5.0379995e-08,5e-08,0.0,0.0,0.0,0.0,0.0,0.0,0.0,0.0,8520343,0.35023162,0.23203082,0.031042647,0.013792759,0.007710733,0.0056993207,0.0,0.0,0.0,0.016001,0,0,0,831,24,0,0,0
280488699,0.9270197,-0.040196348,0.049830798,0.36950734,-0.014244413,-0.017715251,-0.006818236,37.42718,-24.162632,1.5200958,-4.1226744e-05,8.977868e-06,-3.673937e-06,-0.0005961024,0.00024644152,0.0004653366,0.11948455,0.037706595,0.15050809,-0.12110404,-0.044568717,0.24363385,0.0,0.0,5.21495e-10,3.337605e-05,0.0014859198,6.0747757e-06,5.6737144e-06,5.6854947e-06,3.2763368e-05,0.013311127,0.013317622,0.008875438,0.06132953,0.06133546,0.05411519,1.0650455e-11,1.0546881e-11,1.8368699e-11,5.038448e-08,5.038088e-08,5e-08,0.0,0.0,0.0,0.0,0.0,0.0,0.0,0.0,8520343,0.3502356,0.23262672,0.004816781,0.029959407,0.008437343,0.0115645705,0.0,0.0,0.0,0.016001,0,0,0,831,24,0,0,0
280695903,0.9270001,-0.04018623,0.04980461,0.36956102,-0.013789505,-0.018629218,-0.005016054,37.42284,-24.17148,1.5252521,-4.12158e-05,8.967583e-06,-3.6849224e-06,-0.0005961041,0.00024644515,0.00046338464,0.11948455,0.037706595,0.15050809,-0.12110404,-0.044568717,0.24363385,0.0,0.0,5.277706e-10,3.3048855e-05,0.001482467,6.0776542e-06,5.6805975e-06,5.692379e-06,3.278017e-05,0.013373951,0.0133805135,0.008931809,0.061703887,0.06170989,0.054661002,1.065402e-11,1.05505075e-11,1.8371854e-11,5.0385417e-08,5.0381818e-08,5.000004e-08,0.0,0.0,0.0,0.0,0.0,0.0,0.0,0.0,8520343,0.35130295,0.23379692,0.06516928,0.0031452808,0.010805739,0.013181237,0.0,0.0,0.0,0.016001,0,0,0,831,24,0,0,0
280895071,0.9270276,-0.040089794,0.04985205,0.36949646,-0.015638547,-0.01638438,0.0003343065,37.4199,-24.174145,1.5323957,-4.1230247e-05,8.978893e-06,-3.6561528e-06,-0.0005960983,0.00024644486,0.0004599083,0.11948455,0.037706595,0.15050809,-0.12110404,-0.044568717,0.24363385,0.0,0.0,5.6852306e-10,3.527512e-05,0.0018409546,6.0765433e-06,5.680505e-06,5.691844e-06,3.277932e-05,0.013371158,0.01337773,0.008886737,0.061715025,0.06172101,0.054172367,1.0651828e-11,1.0548369e-11,1.8369122e-11,5.0386305e-08,5.0382706e-08,5e-08,0.0,0.0,0.0,0.0,0.0,0.0,0.0,0.0,8520343,0.35133466,0.23274958,0.11174963,0.027136952,0.008527964,0.029364167,0.0,0.0,0.0,0.016001,0,0,0,831,24,0,0,0
281098321,0.9270775,-0.040161014,0.04983251,0.36936584,-0.016437544,-0.01738975,0.0017580366,37.415817,-24.18211,1.5369365,-4.1223167e-05,8.96873e-06,-3.6354709e-06,-0.00059609796,0.00024645013,0.00045770901,0.11948455,0.037706595,0.15050809,-0.12110404,-0.044568717,0.24363385,0.0,0.0,6.1307326e-10,3.8156588e-05,0.0017189465,6.0730895e-06,5.680674e-06,5.6923004e-06,3.2780743e-05,0.01337257,0.01337915,0.00891248,0.061728664,0.06173464,0.0544236,1.0650648e-11,1.05472575e-11,1.836714e-11,5.0387197e-08,5.0383598e-08,5.0000004e-08,0.0,0.0,0.0,0.0,0.0,0.0,0.0,0.0,8520343,0.35137346,0.23328866,0.032911185,0.023996199,0.0097435,0.021639273,0.0,0.0,0.0,0.016001,0,0,0,831,24,0,0,0
281306264,0.9271242,-0.040011957,0.04985642,0.3692618,-0.016387187,-0.018367443,0.0009312646,37.415,-24.187525,1.5348833,-4.1222756e-05,8.981234e-06,-3.5803355e-06,-0.0005960992,0.0002464487,0.0004582685,0.11948455,0.037706595,0.15050809,-0.12110404,-0.044568717,0.24363385,0.0,0.0,6.753276e-10,4.0018702e-05,0.0015137823,6.0757684e-06,5.6915956e-06,5.7025873e-06,3.2801127e-05,0.013466067,0.013472678,0.008905652,0.06225356,0.062259674,0.054337945,1.066556e-11,1.056222e-11,1.8381479e-11,5.0388238e-08,5.038464e-08,5.000004e-08,0.0,0.0,0.0,0.0,0.0,0.0,0.0,0.0,8520343,0.35286433,0.233105,0.13842022,0.011115456,0.009546403,0.008097861,0.0,0.0,0.0,0.016001,0,0,0,831,24,0,0,0
281505465,0.92718774,-0.040019874,0.049861405,0.3691004,-0.018332496,-0.016278464,8.112133e-05,37.41001,-24.192207,1.5367233,-4.1245494e-05,8.979004e-06,-3.4775571e-06,-0.0005960902,0.0002464537,0.00045766254,0.11948455,0.037706595,0.15050809,-0.12110404,-0.044568717,0.24363385,0.0,0.0,9.824471e-10,5.2817853e-05,0.0018028476,6.085464e-06,5.6915724e-06,5.702663e-06,3.2854452e-05,0.01346834,0.01347495,0.008934923,0.062285397,0.06229153,0.054631773,1.0664568e-11,1.05611145e-11,1.8392796e-11,5.0389136e-08,5.0385538e-08,5.000011e-08,0.0,0.0,0.0,0.0,0.0,0.0,0.0,0.0,8520343,0.35295457,0.23373441,0.07266463,0.013138369,0.010059152,0.0047236746,0.0,0.0,0.0,0.016001,0,0,0,831,24,0,0,0
281712665,0.92726123,-0.04040168,0.0495955,0.36891028,-0.01997145,-0.0138361305,-0.0012090753,37.40615,-24.198008,1.5335653,-4.125889e-05,8.977865e-06,-3.3795668e-06,-0.0005960835,0.00024645694,0.0004584832,0.11948455,0.037706595,0.15050809,-0.12110404,-0.044568717,0.24363385,0.0,0.0,2.0162576e-09,8.382968e-05,0.002873238,6.078515e-06,5.6963127e-06,5.7097554e-06,3.2814474e-05,0.013522903,0.013529565,0.008923282,0.06262633,0.06263253,0.054439384,1.0666353e-11,1.0563139e-11,1.8381473e-11,5.039007e-08,5.0386472e-08,5.000004e-08,0.0,0.0,0.0,0.0,0.0,0.0,0.0,0.0,8520343,0.3539193,0.23332249,0.17300864,0.00889726,0.010741916,0.02130199,0.0,0.0,0.0,0.016001,0,0,0,831,24,0,0,0
281912671,0.9272919,-0.040511068,0.04951868,0.36883122,-0.016759392,-0.014036857,-0.00266338,37.407837,-24.203154,1.533353,-4.1243275e-05,9.000215e-06,-3.348796e-06,-0.0005960859,0.000246453,0.00045814872,0.11948455,0.037706595,0.15050809,-0.12110404,-0.044568717,0.24363385,0.0,0.0,1.7901423e-09,7.7565026e-05,0.0025624176,6.076778e-06,5.6971685e-06,5.7111224e-06,3.2813656e-05,0.013532442,0.01353913,0.008883204,0.062678345,0.06268455,0.053986195,1.06654095e-11,1.0562272e-11,1.8379012e-11,5.0390963e-08,5.0387364e-08,5e-08,0.0,0.0,0.0,0.0,0.0,0.0,0.0,0.0,8520343,0.35406625,0.23234929,0.0035332334,0.022877015,0.009300743,0.0002625685,0.0,0.0,0.0,0.016001,0,0,0,831,24,0,0,0
282111865,0.9272727,-0.040279157,0.04959086,0.36889547,-0.021287391,-0.014317617,-0.0017399761,37.398384,-24.20788,1.5305643,-4.126353e-05,8.9823525e-06,-3.3989252e-06,-0.0005960833,0.00024645397,0.00045921246,0.11948455,0.037706595,0.15050809,-0.12110404,-0.044568717,0.24363385,0.0,0.0,1.5905911e-09,7.3990355e-05,0.0024793856,6.0837674e-06,5.6976232e-06,5.7106527e-06,3.2869924e-05,0.0135339955,0.013540687,0.0089131035,0.06271561,0.06272184,0.05428993,1.06645396e-11,1.05612845e-11,1.8390253e-11,5.039186e-08,5.0388262e-08,5.000004e-08,0.0,0.0,0.0,0.0,0.0,0.0,0.0,0.0,8520343,0.3541715,0.23300199,0.022778343,0.024145344,0.009814399,0.025123108,0.0,0.0,0.0,0.016001,0,0,0,831,24,0,0,0
282318335,0.9273051,-0.040079985,0.049611926,0.3688328,-0.019062253,-0.014660538,-0.0029472965,37.40021,-24.215546,1.527456,-4.123436e-05,9.0006e-06,-3.3680003e-06,-0.0005960908,0.00024645144,0.00045974852,0.11948455,0.037706595,0.15050809,-0.12110404,-0.044568717,0.24363385,0.0,0.0,1.583373e-09,7.60599e-05,0.0030743426,6.0760194e-06,5.703811e-06,5.7159823e-06,3.283108e-05,0.013589665,0.013596413,0.008899219,0.063061915,0.06306821,0.05409296,1.0665875e-11,1.0562863e-11,1.8378375e-11,5.039277e-08,5.0389172e-08,5e-08,0.0,0.0,0.0,0.0,0.0,0.0,0.0,0.0,8520343,0.35514805,0.23257893,0.08560421,0.02795635,0.010480501,0.021348463,0.0,0.0,0.0,0.016001,0,0,0,831,24,0,0,0
282519083,0.92736447,-0.03991243,0.04964673,0.36869693,-0.017370692,-0.013794979,-0.0038880594,37.398205,-24.220247,1.5267167,-4.1230847e-05,9.0133135e-06,-3.3249964e-06,-0.0005960918,0.00024644966,0.0004604545,0.11948455,0.037706595,0.15050809,-0.12110404,-0.044568717,0.24363385,0.0,0.0,1.6625051e-09,7.865075e-05,0.0031495504,6.0733605e-06,5.703875e-06,5.7153484e-06,3.283128e-05,0.013588568,0.0135953035,0.008926416,0.06307488,0.06308118,0.05436449,1.0664444e-11,1.0561502e-11,1.8376252e-11,5.0393663e-08,5.0390064e-08,5.0000036e-08,0.0,0.0,0.0,0.0,0.0,0.0,0.0,0.0,8520343,0.35518456,0.23316194,0.0019988776,0.020988591,0.008518652,0.01317257,0.0,0.0,0.0,0.016001,0,0,0,831,24,0,0,0
282718350,0.9273482,-0.039990462,0.049631923,0.36873138,-0.017018376,-0.014772678,-0.0054860115,37.396694,-24.227818,1.5175787,-4.120713e-05,9.019371e-06,-3.3492056e-06,-0.0005961004,0.00024644737,0.0004632063,0.11948455,0.037706595,0.15050809,-0.12110404,-0.044568717,0.24363385,0.0,0.0,1.8350822e-09,7.975772e-05,0.0036873496,6.071547e-06,5.7036327e-06,5.7153384e-06,3.2830045e-05,0.01358629,0.013593024,0.008952606,0.06308426,0.06309056,0.05463283,1.0662187e-11,1.0559311e-11,1.8373249e-11,5.0394554e-08,5.0390955e-08,5.0000033e-08,0.0,0.0,0.0,0.0,0.0,0.0,0.0,0.0,8520343,0.35521096,0.23373666,0.034123316,0.015643433,0.009185637,0.002672242,0.0,0.0,0.0,0.016001,0,0,0,831,24,0,0,0
282925465,0.9273358,-0.039878786,0.04971945,0.36876294,-0.022625064,-0.01743123,0.0032239922,37.384872,-24.237625,1.535989,-4.1211686e-05,8.984391e-06,-3.3577853e-06,-0.00059609424,0.00024645907,0.00045682755,0.11948455,0.037706595,0.15050809,-0.12110404,-0.044568717,0.24363385,0.0,0.0,1.8867823e-09,7.6216325e-05,0.00339948,6.0731068e-06,5.5459236e-06,5.5570117e-06,3.2845775e-05,0.012208294,0.012214015,0.008798466,0.05532115,0.055325523,0.053958315,1.0564368e-11,1.0460254e-11,1.8374592e-11,5.0395496e-08,5.0391897e-08,5e-08,0.0,0.0,0.0,0.0,0.0,0.0,0.0,0.0,8520343,0.33263594,0.2322893,0.020369839,0.011360698,0.008060552,0.020704886,0.0,0.0,0.0,0.016001,0,0,0,831,24,0,0,0
283125465,0.92736095,-0.039994158,0.049658,0.36869556,-0.019166926,-0.017371519,0.0007723443,37.383774,-24.242188,1.5291692,-4.1198018e-05,9.00938e-06,-3.3200188e-06,-0.0005961032,0.00024645618,0.00045844074,0.11948455,0.037706595,0.15050809,-0.12110404,-0.044568717,0.24363385,0.0,0.0,1.7257118e-09,6.8627116e-05,0.002949864,6.072073e-06,5.54572e-06,5.5573464e-06,3.2844047e-05,0.012207844,0.012213555,0.0087586185,0.05533251,0.05533688,0.05351556,1.0561996e-11,1.0457943e-11,1.8371521e-11,5.039637e-08,5.039277e-08,5e-08,0.0,0.0,0.0,0.0,0.0,0.0,0.0,0.0,8520343,0.3326701,0.2313343,0.042679764,0.028802773,0.007769856,0.013009427,0.0,0.0,0.0,0.016001,0,0,0,831,24,0,0,0
283328665,0.9273824,-0.040068906,0.04956339,0.36864612,-0.017937027,-0.014868392,0.003592145,37.381645,-24.245356,1.53521,-4.119565e-05,9.028067e-06,-3.2999717e-06,-0.00059610204,0.00024645383,0.00045683738,0.11948455,0.037706595,0.15050809,-0.12110404,-0.044568717,0.24363385,0.0,0.0,1.5687004e-09,6.741896e-05,0.0031124076,6.0619996e-06,5.5484184e-06,5.56071e-06,3.2790867e-05,0.012234034,0.012239736,0.008794137,0.055477984,0.055482395,0.05392369,1.057012e-11,1.0466306e-11,1.8366711e-11,5.039735e-08,5.039375e-08,5e-08,0.0,0.0,0.0,0.0,0.0,0.0,0.0,0.0,8520343,0.33310717,0.23221475,0.031277724,0.016552515,0.006462363,0.03823683,0.0,0.0,0.0,0.016001,0,0,0,831,24,0,0,0
283527897,0.92740536,-0.04010494,0.049534008,0.36858818,-0.016780574,-0.01577095,0.0053317007,37.37935,-24.248024,1.533651,-4.118882e-05,9.0450185e-06,-3.313745e-06,-0.0005961044,0.00024644932,0.00045712746,0.11948455,0.037706595,0.15050809,-0.12110404,-0.044568717,0.24363385,0.0,0.0,1.6057464e-09,7.375023e-05,0.003267262,6.0674797e-06,5.548473e-06,5.560906e-06,3.284824e-05,0.01223312,0.012238808,0.008820097,0.055498034,0.055502456,0.05421006,1.0569136e-11,1.0465195e-11,1.8378028e-11,5.0398256e-08,5.0394657e-08,5e-08,0.0,0.0,0.0,0.0,0.0,0.0,0.0,0.0,8520343,0.33316737,0.23283054,0.041554295,0.014465677,0.0042018206,0.037953317,0.0,0.0,0.0,0.016001,0,0,0,831,24,0,0,0
283735895,0.92729664,-0.039615374,0.049713794,0.36889064,-0.015829884,-0.0126795145,0.0012343626,37.375023,-24.253925,1.5290262,-4.1164058e-05,9.042881e-06,-3.442351e-06,-0.0005961126,0.0002464452,0.00045868245,0.11948455,0.037706595,0.15050809,-0.12110404,-0.044568717,0.24363385,0.0,0.0,1.8283991e-09,7.5309086e-05,0.0031007782,6.060819e-06,5.555453e-06,5.5656233e-06,3.280908e-05,0.012287716,0.012293437,0.008804059,0.0558087,0.055813175,0.054001577,1.0571152e-11,1.0467421e-11,1.8366962e-11,5.0399183e-08,5.0395585e-08,5.0000004e-08,0.0,0.0,0.0,0.0,0.0,0.0,0.0,0.0,8520343,0.3340986,0.23238239,0.017158745,0.005074744,0.0051135533,0.016540932,0.0,0.0,0.0,0.016001,0,0,0,831,24,0,0,0
283939072,0.9272707,-0.040013995,0.04955234,0.3689343,-0.019269593,-0.0142655475,-0.0053025037,37.36815,-24.258278,1.5040891,-4.1171003e-05,9.031168e-06,-3.462364e-06,-0.000596113,0.00024644166,0.00046522805,0.11948455,0.037706595,0.15050809,-0.12110404,-0.044568717,0.24363385,0.0,0.0,1.8579788e-09,7.3646865e-05,0.0032420114,6.0604652e-06,5.5582113e-06,5.570402e-06,3.2810614e-05,0.012314752,0.012320444,0.008768013,0.055944726,0.05594923,0.05365862,1.058202e-11,1.0478318e-11,1.8377425e-11,5.0400192e-08,5.0396594e-08,5e-08,0.0,0.0,0.0,0.0,0.0,0.0,0.0,0.0,8520343,0.33450553,0.2316433,0.05056719,0.020204239,0.0036171002,0.018332059,0.0,0.0,0.0,0.016001,0,0,0,831,24,0,0,0
284138299,0.92732316,-0.040094472,0.049521465,0.36879784,-0.016522925,-0.012992698,0.0018243407,37.367386,-24.263268,1.525144,-4.115332e-05,9.034984e-06,-3.4309014e-06,-0.0005961127,0.00024644446,0.00045857433,0.11948455,0.037706595,0.15050809,-0.12110404,-0.044568717,0.24363385,0.0,0.0,1.7059472e-09,7.1825925e-05,0.0033953432,6.057317e-06,5.5574706e-06,5.569993e-06,3.281216e-05,0.012310444,0.012316145,0.00879468,0.05594127,0.055945758,0.053945914,1.05809935e-11,1.0477325e-11,1.8376413e-11,5.0401095e-08,5.0397496e-08,5.0000036e-08,0.0,0.0,0.0,0.0,0.0,0.0,0.0,0.0,8520343,0.3344952,0.2322626,0.08675418,0.015322091,0.004466683,0.038674705,0.0,0.0,0.0,0.016001,0,0,0,831,24,0,0,0
284338296,0.9273515,-0.039622925,0.049694948,0.36875427,-0.017344162,-0.012983207,0.0056621497,37.36475,-24.269424,1.5310072,-4.1140036e-05,9.02923e-06,-3.4234035e-06,-0.00059611537,0.0002464468,0.0004563112,0.11948455,0.037706595,0.15050809,-0.12110404,-0.044568717,0.24363385,0.0,0.0,1.4843973e-09,6.957501e-05,0.0028939534,6.055172e-06,5.5587375e-06,5.569098e-06,3.2812644e-05,0.012311046,0.012316748,0.008820087,0.055946145,0.05595062,0.054207068,1.0579745e-11,1.047613e-11,1.8374082e-11,5.040199e-08,5.039839e-08,5.0000036e-08,0.0,0.0,0.0,0.0,0.0,0.0,0.0,0.0,8520343,0.33450973,0.23282412,0.026880424,0.01943561,0.006961704,0.038240157,0.0,0.0,0.0,0.016001,0,0,0,831,24,0,0,0
284545465,0.92730933,-0.03974094,0.049571197,0.36886406,-0.014703613,-0.010334792,0.012453511,37.36465,-24.27251,1.5467919,-4.112339e-05,9.046275e-06,-3.4633847e-06,-0.000596118,0.0002464451,0.0004520907,0.11948455,0.037706595,0.15050809,-0.12110404,-0.044568717,0.24363385,0.0,0.0,1.4529119e-09,7.039111e-05,0.0031938197,6.057564e-06,5.5640726e-06,5.5751916e-06,3.2828702e-05,0.01235761,0.012363339,0.008804387,0.056223113,0.05622765,0.053999297,1.0581728e-11,1.0478135e-11,1.8375919e-11,5.040293e-08,5.0399333e-08,5.0000054e-08,0.0,0.0,0.0,0.0,0.0,0.0,0.0,0.0,8520343,0.3353368,0.23237748,0.046553794,0.015317084,0.0053360313,0.0014716478,0.0,0.0,0.0,0.016001,0,0,0,831,24,0,0,0
284744708,0.9273451,-0.04006194,0.049437508,0.36875752,-0.012975877,-0.009651014,0.016424144,37.36597,-24.276491,1.5534288,-4.1115232e-05,9.058027e-06,-3.393781e-06,-0.0005961175,0.00024644582,0.00045051935,0.11948455,0.037706595,0.15050809,-0.12110404,-0.044568717,0.24363385,0.0,0.0,1.5254134e-09,7.4682546e-05,0.0030618291,6.0575653e-06,5.5633705e-06,5.576049e-06,3.282682e-05,0.01235471,0.012360432,0.008830463,0.056221765,0.056226283,0.054285035,1.0581009e-11,1.0477448e-11,1.8374989e-11,5.0403845e-08,5.0400246e-08,5.0000075e-08,0.0,0.0,0.0,0.0,0.0,0.0,0.0,0.0,8520343,0.33533275,0.23299149,0.0049575726,0.014582315,0.0065066246,0.006308636,0.0,0.0,0.0,0.016001,0,0,0,831,24,0,0,0
284951865,0.9273093,-0.03957426,0.04961616,0.3688763,-0.007834187,-0.00983022,0.01881186,37.374344,-24.281748,1.5630069,-4.106082e-05,9.0934645e-06,-3.4675572e-06,-0.00059613027,0.00024643907,0.00044875787,0.11948455,0.037706595,0.15050809,-0.12110404,-0.044568717,0.24363385,0.0,0.0,1.9218434e-09,7.8677425e-05,0.0032093427,6.048738e-06,5.5675964e-06,5.577763e-06,3.2789987e-05,0.012379221,0.01238496,0.008813168,0.05633609,0.05634063,0.0540689,1.0580835e-11,1.04774505e-11,1.8363436e-11,5.040477e-08,5.040117e-08,5e-08,0.0,0.0,0.0,0.0,0.0,0.0,0.0,0.0,8520343,0.33567354,0.23252721,0.11059898,0.0357803,0.008204454,0.009537557,0.0,0.0,0.0,0.016001,0,0,0,831,24,0,0,0
285151865,0.9272941,-0.03969968,0.04948543,0.36891866,-0.0030779522,-0.00892712,0.017212007,37.382557,-24.285233,1.559987,-4.103375e-05,9.118601e-06,-3.5022417e-06,-0.00059613725,0.00024643252,0.00045043445,0.11948455,0.037706595,0.15050809,-0.12110404,-0.044568717,0.24363385,0.0,0.0,2.0196105e-09,7.737371e-05,0.0031543307,6.0556563e-06,5.5652526e-06,5.57608e-06,3.2845233e-05,0.012349258,0.012354971,0.00883661,0.056070868,0.056075376,0.05431877,1.0578201e-11,1.0474648e-11,1.8373747e-11,5.0405664e-08,5.0402065e-08,5.000007e-08,0.0,0.0,0.0,0.0,0.0,0.0,0.0,0.0,8520343,0.33488244,0.23306388,0.17707348,0.012381142,0.017450836,0.065964684,0.0,0.0,0.0,0.016001,0,0,0,831,24,0,0,0
285359077,0.92733943,-0.0400194,0.04942586,0.36877793,-0.0023017847,-0.009051944,0.01166349,37.390312,-24.288088,1.5399313,-4.1038023e-05,9.135772e-06,-3.3974839e-06,-0.00059613556,0.00024642737,0.00045691183,0.11948455,0.037706595,0.15050809,-0.12110404,-0.044568717,0.24363385,0.0,0.0,1.7126603e-09,7.058029e-05,0.0034274631,6.0596544e-06,5.5696105e-06,5.581773e-06,3.28594e-05,0.012373956,0.012379678,0.008820902,0.056059703,0.056064222,0.054125458,1.0580241e-11,1.0476691e-11,1.8376327e-11,5.0406598e-08,5.0403e-08,5.0000036e-08,0.0,0.0,0.0,0.0,0.0,0.0,0.0,0.0,8520343,0.3348491,0.23264879,0.019093627,0.00917006,0.02113233,0.030444408,0.0,0.0,0.0,0.016001,0,0,0,831,24,0,0,0
285558296,0.92743176,-0.03958794,0.0494915,0.36858356,0.0033187163,-0.0072648665,0.01017737,37.40346,-24.294157,1.528239,-4.100272e-05,9.150541e-06,-3.3611254e-06,-0.00059614226,0.00024642472,0.00046069757,0.11948455,0.037706595,0.15050809,-0.12110404,-0.044568717,0.24363385,0.0,0.0,1.6724793e-09,6.376004e-05,0.0034489792,6.054727e-06,5.567711e-06,5.578035e-06,3.2862496e-05,0.012333887,0.012339603,0.008844314,0.05565929,0.055663746,0.054374557,1.05777834e-11,1.0474244e-11,1.8374285e-11,5.0407497e-08,5.0403898e-08,5.000007e-08,0.0,0.0,0.0,0.0,0.0,0.0,0.0,0.0,8520343,0.33365107,0.23318353,0.03515697,0.009823947,0.028014624,0.012236747,0.0,0.0,0.0,0.016001,0,0,0,831,24,0,0,0
285766265,0.92751265,-0.039505273,0.049610324,0.36837292,0.0069521326,-0.0053251013,0.0055820732,37.41418,-24.297985,1.5188997,-4.0999174e-05,9.1560305e-06,-3.2976156e-06,-0.0005961427,0.0002464221,0.0004632336,0.11948455,0.037706595,0.15050809,-0.12110404,-0.044568717,0.24363385,0.0,0.0,1.7850575e-09,6.4587606e-05,0.003062443,6.054058e-06,5.5725163e-06,5.582177e-06,3.2880707e-05,0.012352812,0.012358544,0.0088269245,0.055535045,0.05553953,0.054150846,1.0579026e-11,1.0475488e-11,1.837581e-11,5.040843e-08,5.0404832e-08,5.000004e-08,0.0,0.0,0.0,0.0,0.0,0.0,0.0,0.0,8520343,0.33327854,0.23270334,0.003618136,0.014910857,0.030411275,0.030726975,0.0,0.0,0.0,0.016001,0,0,0,831,24,0,0,0
285965465,0.9275373,-0.03970873,0.04943151,0.36831293,0.011853833,-0.0023075633,0.005809138,37.42835,-24.30148,1.5164196,-4.0979496e-05,9.170425e-06,-3.2761964e-06,-0.0005961463,0.000246419,0.00046509798,0.11948455,0.037706595,0.15050809,-0.12110404,-0.044568717,0.24363385,0.0,0.0,1.7243993e-09,6.769267e-05,0.0032054333,6.061359e-06,5.5688265e-06,5.5796513e-06,3.293559e-05,0.012306847,0.012312566,0.008850622,0.055054583,0.05505901,0.05442061,1.0576304e-11,1.0472583e-11,1.8386853e-11,5.040934e-08,5.0405742e-08,5.0000075e-08,0.0,0.0,0.0,0.0,0.0,0.0,0.0,0.0,8520343,0.3318337,0.23328225,0.089452304,0.020834068,0.033658788,0.014222069,0.0,0.0,0.0,0.016001,0,0,0,831,24,0,0,0
286172674,0.92751086,-0.03950666,0.049565528,0.36838332,0.0117190685,-0.0037228037,0.0061267666,37.44155,-24.305769,1.5143521,-4.0959025e-05,9.170461e-06,-3.3034773e-06,-0.0005961477,0.0002464161,0.00046716552,0.11948455,0.037706595,0.15050809,-0.12110404,-0.044568717,0.24363385,0.0,0.0,1.6795952e-09,7.179857e-05,0.0035591123,6.0539173e-06,5.572486e-06,5.5821974e-06,3.2895157e-05,0.012313718,0.012319453,0.008832433,0.05483391,0.05483834,0.0541909,1.0576578e-11,1.0473033e-11,1.8375159e-11,5.0410264e-08,5.0406666e-08,5e-08,0.0,0.0,0.0,0.0,0.0,0.0,0.0,0.0,8520343,0.331168,0.2327894,0.03366791,0.026681853,0.03589268,0.0016546107,0.0,0.0,0.0,0.016001,0,0,0,831,24,0,0,0
286372665,0.9275629,-0.039577883,0.04949103,0.3682546,0.01836296,-0.002837088,0.0012384574,37.45861,-24.309597,1.5037984,-4.094134e-05,9.184976e-06,-3.2135952e-06,-0.00059615046,0.000246415,0.0004706986,0.11948455,0.037706595,0.15050809,-0.12110404,-0.044568717,0.24363385,0.0,0.0,1.6012902e-09,7.035918e-05,0.0032656528,6.053956e-06,5.5709747e-06,5.5811456e-06,3.2891454e-05,0.012282027,0.012287756,0.008855527,0.054358315,0.05436269,0.054433312,1.0574245e-11,1.0470716e-11,1.8372305e-11,5.0411153e-08,5.0407554e-08,5.0000036e-08,0.0,0.0,0.0,0.0,0.0,0.0,0.0,0.0,8520343,0.3297287,0.23330948,0.0023508554,0.011818209,0.0354318,0.005531805,0.0,0.0,0.0,0.016001,0,0,0,831,24,0,0,0
286575867,0.92755044,-0.0396735,0.049371444,0.3682918,0.02536855,-0.0034916485,0.0014180109,37.478603,-24.312943,1.5020611,-4.0903484e-05,9.211598e-06,-3.2054563e-06,-0.0005961597,0.00024641384,0.00047163834,0.11948455,0.037706595,0.15050809,-0.12110404,-0.044568717,0.24363385,0.0,0.0,1.5859435e-09,7.010715e-05,0.0031014038,6.05384e-06,5.56977e-06,5.580483e-06,3.2888518e-05,0.012254304,0.012260023,0.0088103525,0.053898092,0.05390242,0.05396465,1.0572737e-11,1.04692045e-11,1.8370392e-11,5.0412055e-08,5.0408456e-08,5e-08,0.0,0.0,0.0,0.0,0.0,0.0,0.0,0.0,8520343,0.3283299,0.23230292,0.023367826,0.010642385,0.0338341,0.03488874,0.0,0.0,0.0,0.016001,0,0,0,831,24,0,0,0
286775065,0.92754036,-0.039611366,0.049380288,0.36832258,0.03121917,0.0010053775,0.00029667528,37.501934,-24.31304,1.4942176,-4.0865052e-05,9.2622495e-06,-3.242296e-06,-0.00059616886,0.00024640505,0.0004743007,0.11948455,0.037706595,0.15050809,-0.12110404,-0.044568717,0.24363385,0.0,0.0,1.4518077e-09,6.893943e-05,0.0030674436,6.0513744e-06,5.571875e-06,5.5820883e-06,3.2891465e-05,0.012249547,0.012255253,0.008843573,0.053546853,0.053551156,0.054344326,1.05828445e-11,1.0479316e-11,1.8380616e-11,5.0413067e-08,5.040947e-08,5.0000036e-08,0.0,0.0,0.0,0.0,0.0,0.0,0.0,0.0,8520343,0.32725832,0.2331187,0.011251727,0.019715184,0.034380764,0.017338235,0.0,0.0,0.0,0.016001,0,0,0,831,24,0,0,0
286975070,0.9275177,-0.039627444,0.04931453,0.36838675,0.035565335,-0.0014862187,-0.0025584192,37.516838,-24.315136,1.4804497,-4.0847703e-05,9.267781e-06,-3.299294e-06,-0.00059617305,0.0002464011,0.00047796703,0.11948455,0.037706595,0.15050809,-0.12110404,-0.044568717,0.24363385,0.0,0.0,1.3696043e-09,6.753765e-05,0.0028432275,6.048365e-06,5.57125e-06,5.581718e-06,3.28911e-05,0.012227346,0.012233056,0.008867842,0.05311272,0.053116996,0.05458921,1.0581062e-11,1.0477553e-11,1.8377867e-11,5.0413966e-08,5.0410367e-08,5.0000036e-08,0.0,0.0,0.0,0.0,0.0,0.0,0.0,0.0,8520343,0.32592902,0.23364334,0.011961724,0.013257733,0.027821748,0.04123009,0.0,0.0,0.0,0.016001,0,0,0,831,24,0,0,0
287182275,0.92750853,-0.039704315,0.04928881,0.3684047,0.03749191,0.00054178206,0.0015843961,37.532227,-24.319492,1.4926304,-4.0822844e-05,9.257396e-06,-3.3176777e-06,-0.0005961785,0.0002464052,0.00047444768,0.11948455,0.037706595,0.15050809,-0.12110404,-0.044568717,0.24363385,0.0,0.0,1.5516556e-09,7.0978145e-05,0.002908102,6.0492443e-06,5.576003e-06,5.5867895e-06,3.290762e-05,0.01225563,0.012261365,0.008848486,0.052966356,0.05297067,0.054364234,1.0583074e-11,1.04795625e-11,1.8380034e-11,5.0414908e-08,5.041131e-08,5e-08,0.0,0.0,0.0,0.0,0.0,0.0,0.0,0.0,8520343,0.3254797,0.23316139,0.051871706,0.014378494,0.02670166,0.025558578,0.0,0.0,0.0,0.016001,0,0,0,831,24,0,0,0
287381465,0.9275033,-0.039652746,0.04935809,0.3684144,0.03765229,0.00053664984,-0.0072446438,37.544613,-24.322435,1.4747664,-4.0816623e-05,9.252516e-06,-3.2988282e-06,-0.00059617864,0.00024640415,0.0004788801,0.11948455,0.037706595,0.15050809,-0.12110404,-0.044568717,0.24363385,0.0,0.0,1.8994664e-09,7.581672e-05,0.0031792931,6.0491348e-06,5.572617e-06,5.583071e-06,3.290397e-05,0.012217302,0.012223022,0.008802832,0.052482903,0.052487183,0.053874068,1.0579211e-11,1.0475691e-11,1.8377206e-11,5.0415807e-08,5.0412208e-08,5e-08,0.0,0.0,0.0,0.0,0.0,0.0,0.0,0.0,8520343,0.32399088,0.23210788,0.10926931,0.015040455,0.019299043,0.0016455284,0.0,0.0,0.0,0.016001,0,0,0,831,24,0,0,0
287589464,0.9275021,-0.039643906,0.049252313,0.36843234,0.03960937,0.0013079278,-0.0132240895,37.558117,-24.32412,1.456163,-4.080883e-05,9.254926e-06,-3.2980372e-06,-0.00059617887,0.00024640138,0.00048398855,0.11948455,0.037706595,0.15050809,-0.12110404,-0.044568717,0.24363385,0.0,0.0,2.0659732e-09,7.867412e-05,0.0030576522,6.051085e-06,5.576955e-06,5.587793e-06,3.2919434e-05,0.012246211,0.012251952,0.008856574,0.052352827,0.052357163,0.054388847,1.05800585e-11,1.0476546e-11,1.8378065e-11,5.0416737e-08,5.041314e-08,5.000007e-08,0.0,0.0,0.0,0.0,0.0,0.0,0.0,0.0,8520343,0.32358924,0.23321417,0.03182404,0.009326974,0.01908517,0.0135295065,0.0,0.0,0.0,0.016001,0,0,0,831,24,0,0,0
287788664,0.9274346,-0.039699912,0.049233757,0.36859894,0.03932749,0.0011408731,-0.013714965,37.571667,-24.325483,1.4429625,-4.0790495e-05,9.256733e-06,-3.354631e-06,-0.00059618213,0.0002463986,0.0004869283,0.11948455,0.037706595,0.15050809,-0.12110404,-0.044568717,0.24363385,0.0,0.0,2.0473345e-09,7.634106e-05,0.0032595184,6.051078e-06,5.5741366e-06,5.58521e-06,3.291639e-05,0.012214389,0.012220111,0.008812686,0.051940285,0.05194461,0.053927816,1.05772596e-11,1.0473726e-11,1.8376222e-11,5.0417636e-08,5.0414037e-08,5e-08,0.0,0.0,0.0,0.0,0.0,0.0,0.0,0.0,8520343,0.3223118,0.23222363,0.061572753,0.008134605,0.018407036,0.008838356,0.0,0.0,0.0,0.016001,0,0,0,831,24,0,0,0
287991872,0.9273867,-0.03982267,0.04915445,0.36871666,0.04648773,0.0039782496,-0.011826,37.589485,-24.324049,1.4532895,-4.0767438e-05,9.2805785e-06,-3.4202103e-06,-0.00059618935,0.00024639603,0.00048388483,0.11948455,0.037706595,0.15050809,-0.12110404,-0.044568717,0.24363385,0.0,0.0,1.7448802e-09,7.0833725e-05,0.0037381733,6.049033e-06,5.5709074e-06,5.5825803e-06,3.2914428e-05,0.012181833,0.012187555,0.008836722,0.05152029,0.051524587,0.054174297,1.0573711e-11,1.0470177e-11,1.8373362e-11,5.041852e-08,5.0414926e-08,5.0000036e-08,0.0,0.0,0.0,0.0,0.0,0.0,0.0,0.0,8520343,0.32100606,0.23275372,0.01147223,0.019954612,0.020864828,0.012044927,0.0,0.0,0.0,0.016001,0,0,0,831,24,0,0,0
288191865,0.9274159,-0.039697576,0.049140465,0.36865863,0.047425967,0.0080826,-0.009765632,37.604916,-24.323994,1.4555593,-4.0768024e-05,9.278638e-06,-3.3812075e-06,-0.0005961909,0.00024639964,0.0004831341,0.11948455,0.037706595,0.15050809,-0.12110404,-0.044568717,0.24363385,0.0,0.0,1.5863035e-09,6.6346554e-05,0.003150031,6.0488464e-06,5.5730625e-06,5.5844334e-06,3.2915566e-05,0.01218765,0.012193359,0.00886965,0.051281955,0.05128628,0.05454732,1.0587145e-11,1.0483608e-11,1.838693e-11,5.0419562e-08,5.0415967e-08,5.0000033e-08,0.0,0.0,0.0,0.0,0.0,0.0,0.0,0.0,8520343,0.32026276,0.23355368,0.03963375,0.017656816,0.022083059,0.041340183,0.0,0.0,0.0,0.016001,0,0,0,831,24,0,0,0
288395065,0.9273885,-0.039472427,0.0492955,0.3687311,0.049801704,0.011964652,-0.0072144596,37.620487,-24.321672,1.4623017,-4.07634e-05,9.285785e-06,-3.429968e-06,-0.0005961949,0.0002464003,0.00048132407,0.11948455,0.037706595,0.15050809,-0.12110404,-0.044568717,0.24363385,0.0,0.0,1.5811066e-09,6.798371e-05,0.0038927488,6.0471366e-06,5.5755286e-06,5.5856294e-06,3.291745e-05,0.012194801,0.012200499,0.008830312,0.051071994,0.051076338,0.054168243,1.0597203e-11,1.0493646e-11,1.8397102e-11,5.0420574e-08,5.041698e-08,5e-08,0.0,0.0,0.0,0.0,0.0,0.0,0.0,0.0,8520343,0.3196065,0.23274072,0.0016188743,0.013619577,0.020896494,0.014126087,0.0,0.0,0.0,0.016001,0,0,0,831,24,0,0,0
288602275,0.92736953,-0.03997403,0.04899074,0.3687651,0.05507969,0.010951132,-0.005288252,37.64011,-24.321562,1.4647075,-4.074379e-05,9.292094e-06,-3.4239981e-06,-0.0005961998,0.00024639943,0.0004807859,0.11948455,0.037706595,0.15050809,-0.12110404,-0.044568717,0.24363385,0.0,0.0,1.7719184e-09,7.286588e-05,0.0035518683,6.0500847e-06,5.579914e-06,5.592676e-06,3.2931865e-05,0.012235101,0.0122408485,0.008816169,0.05106481,0.051069226,0.05396876,1.060058e-11,1.0497002e-11,1.8400266e-11,5.0421527e-08,5.041793e-08,5e-08,0.0,0.0,0.0,0.0,0.0,0.0,0.0,0.0,8520343,0.31958416,0.23231177,0.0005313279,0.015055353,0.02288934,0.014367416,0.0,0.0,0.0,0.016001,0,0,0,831,24,0,0,0
288802265,0.92736036,-0.039552093,0.049154006,0.36881196,0.05311346,0.013419816,-0.008980193,37.65651,-24.322458,1.4507134,-4.0730643e-05,9.2809e-06,-3.4553034e-06,-0.00059620553,0.0002463984,0.00048486528,0.11948455,0.037706595,0.15050809,-0.12110404,-0.044568717,0.24363385,0.0,0.0,1.9231052e-09,7.291279e-05,0.0034798577,6.048043e-06,5.577216e-06,5.587974e-06,3.293054e-05,0.01220341,0.012209153,0.008839577,0.050723094,0.050727487,0.054207258,1.0596552e-11,1.0492952e-11,1.8396965e-11,5.0422425e-08,5.041883e-08,5.0000036e-08,0.0,0.0,0.0,0.0,0.0,0.0,0.0,0.0,8520343,0.31851307,0.23282452,0.06100181,0.020231225,0.023570381,0.025469666,0.0,0.0,0.0,0.016001,0,0,0,831,24,0,0,0
289009465,0.9274228,-0.039426997,0.049183093,0.36866453,0.058211092,0.016548468,-0.007154852,37.670895,-24.323053,1.4586263,-4.0737545e-05,9.253725e-06,-3.420816e-06,-0.0005962133,0.00024640566,0.00048228443,0.11948455,0.037706595,0.15050809,-0.12110404,-0.044568717,0.24363385,0.0,0.0,2.0120479e-09,7.091706e-05,0.0031544205,6.038515e-06,5.5826317e-06,5.5930623e-06,3.289325e-05,0.012246865,0.012252659,0.008824791,0.05075992,0.050764397,0.054006644,1.0599391e-11,1.04959435e-11,1.8386966e-11,5.0423374e-08,5.041978e-08,5e-08,0.0,0.0,0.0,0.0,0.0,0.0,0.0,0.0,8520343,0.31862882,0.2323933,0.11566526,0.03206108,0.022150649,0.005242263,0.0,0.0,0.0,0.016001,0,0,0,831,24,0,0,0
289208667,0.92741483,-0.039911088,0.04893795,0.36866504,0.06339116,0.016572796,-0.0103131635,37.691338,-24.324024,1.4500641,-4.071775e-05,9.255472e-06,-3.3641668e-06,-0.0005962141,0.0002464032,0.0004844399,0.11948455,0.037706595,0.15050809,-0.12110404,-0.044568717,0.24363385,0.0,0.0,1.7149284e-09,6.960299e-05,0.003194052,6.0405177e-06,5.5797004e-06,5.592533e-06,3.288736e-05,0.012227673,0.01223347,0.008849229,0.05049268,0.050497174,0.054250065,1.05964e-11,1.0492922e-11,1.83839e-11,5.0424266e-08,5.042067e-08,5.0000036e-08,0.0,0.0,0.0,0.0,0.0,0.0,0.0,0.0,8520343,0.31778902,0.23291643,0.030607779,0.010477126,0.021393506,0.004388267,0.0,0.0,0.0,0.016001,0,0,0,831,24,0,0,0
289415916,0.92742866,-0.039674774,0.04909643,0.36863476,0.06380858,0.020044558,-0.009391161,37.707882,-24.323904,1.4481081,-4.0714338e-05,9.242377e-06,-3.3650442e-06,-0.0005962173,0.00024640432,0.00048430637,0.11948455,0.037706595,0.15050809,-0.12110404,-0.044568717,0.24363385,0.0,0.0,1.740634e-09,7.597749e-05,0.0031720507,6.0411317e-06,5.58491e-06,5.596431e-06,3.2904172e-05,0.012263121,0.012268962,0.008832804,0.050531,0.050535575,0.05402273,1.0597802e-11,1.0494288e-11,1.8385316e-11,5.0425196e-08,5.04216e-08,5e-08,0.0,0.0,0.0,0.0,0.0,0.0,0.0,0.0,8520343,0.3179097,0.2324279,0.012489697,0.019590521,0.018608166,0.025213279,0.0,0.0,0.0,0.016001,0,0,0,831,24,0,0,0
289615864,0.9274309,-0.039339676,0.049219072,0.36864844,0.06558745,0.017157136,-0.006060439,37.72413,-24.324251,1.4517177,-4.0698662e-05,9.230471e-06,-3.392682e-06,-0.00059622235,0.00024640438,0.00048258668,0.11948455,0.037706595,0.15050809,-0.12110404,-0.044568717,0.24363385,0.0,0.0,1.899709e-09,8.701066e-05,0.0030295672,6.0384386e-06,5.584651e-06,5.5946093e-06,3.2904056e-05,0.01225126,0.0122571,0.008857689,0.050323363,0.050327957,0.054267354,1.05955566e-11,1.0492019e-11,1.838231e-11,5.042609e-08,5.0422496e-08,5.000004e-08,0.0,0.0,0.0,0.0,0.0,0.0,0.0,0.0,8520343,0.3172559,0.23295355,0.04620832,0.011003383,0.01405277,0.016464494,0.0,0.0,0.0,0.016001,0,0,0,831,24,0,0,0
289823069,0.92741895,-0.03976544,0.04909421,0.36864978,0.064571574,0.021104844,-0.010760558,37.73366,-24.324358,1.437016,-4.0718296e-05,9.1927695e-06,-3.3876154e-06,-0.00059622107,0.00024640563,0.0004865525,0.11948455,0.037706595,0.15050809,-0.12110404,-0.044568717,0.24363385,0.0,0.0,1.8950057e-09,9.5106305e-05,0.003408555,6.040738e-06,5.588496e-06,5.600535e-06,3.2919095e-05,0.012289669,0.012295529,0.008842177,0.050403718,0.050408393,0.054064382,1.059747e-11,1.04938835e-11,1.8384598e-11,5.0427023e-08,5.0423427e-08,5e-08,0.0,0.0,0.0,0.0,0.0,0.0,0.0,0.0,8520343,0.31750923,0.23251748,0.01269523,0.038693815,0.009076988,0.036853187,0.0,0.0,0.0,0.016001,0,0,0,831,24,0,0,0
290021512,0.92748404,-0.03967684,0.04914971,0.36848807,0.061097972,0.025776597,-0.008590049,37.74179,-24.322123,1.4421687,-4.075008e-05,9.1609445e-06,-3.3373815e-06,-0.0005962199,0.00024640988,0.0004844381,0.11948455,0.037706595,0.15050809,-0.12110404,-0.044568717,0.24363385,0.0,0.0,1.7702022e-09,8.794683e-05,0.0037138143,6.037966e-06,5.5844434e-06,5.5962564e-06,3.291834e-05,0.0122540835,0.012259922,0.008865789,0.050132003,0.050136678,0.05430607,1.0593419e-11,1.04897705e-11,1.8381777e-11,5.0427918e-08,5.0424322e-08,5.0000036e-08,0.0,0.0,0.0,0.0,0.0,0.0,0.0,0.0,8520343,0.3166523,0.23303664,0.02377402,0.034888066,0.008427887,0.0049220836,0.0,0.0,0.0,0.016001,0,0,0,831,24,0,0,0
290222265,0.9275645,-0.03922099,0.049260624,0.3683195,0.057755373,0.027149033,-0.0038113901,37.745617,-24.322819,1.4548469,-4.0779425e-05,9.101283e-06,-3.2591913e-06,-0.00059622066,0.00024641797,0.00047983797,0.11948455,0.037706595,0.15050809,-0.12110404,-0.044568717,0.24363385,0.0,0.0,2.4335947e-09,9.463785e-05,0.0042159157,6.0364705e-06,5.5825544e-06,5.5927803e-06,3.2917003e-05,0.012231888,0.012237697,0.008889851,0.049922496,0.049927182,0.054548472,1.059059e-11,1.0486901e-11,1.8378946e-11,5.042881e-08,5.0425214e-08,5.0000036e-08,0.0,0.0,0.0,0.0,0.0,0.0,0.0,0.0,8520343,0.31599,0.23355614,0.008999441,0.04254875,0.009185783,0.013379577,0.0,0.0,0.0,0.016001,0,0,0,831,24,0,0,0
290429498,0.92756456,-0.039600246,0.049038764,0.36830825,0.056343574,0.022932176,0.0024984186,37.754627,-24.32348,1.4717215,-4.077459e-05,9.068864e-06,-3.250634e-06,-0.0005962239,0.0002464225,0.00047467646,0.11948455,0.037706595,0.15050809,-0.12110404,-0.044568717,0.24363385,0.0,0.0,2.90234e-09,9.474876e-05,0.0049120453,6.0382845e-06,5.5850583e-06,5.5973833e-06,3.2932294e-05,0.012259767,0.012265595,0.008873792,0.050000135,0.05000489,0.054343898,1.0591827e-11,1.0488077e-11,1.838111e-11,5.0429755e-08,5.042616e-08,5.0000036e-08,0.0,0.0,0.0,0.0,0.0,0.0,0.0,0.0,8520343,0.31623572,0.23311777,0.07817333,0.013910063,0.009058706,0.010815576,0.0,0.0,0.0,0.016001,0,0,0,831,24,0,0,0
290629465,0.92755246,-0.039491475,0.049074,0.3683459,0.053264253,0.031075792,-0.00015554775,37.763412,-24.320135,1.4561685,-4.078e-05,9.061081e-06,-3.292418e-06,-0.0005962225,0.0002464187,0.00047808018,0.11948455,0.037706595,0.15050809,-0.12110404,-0.044568717,0.24363385,0.0,0.0,3.2205574e-09,9.663786e-05,0.0052375966,6.035494e-06,5.581635e-06,5.5935166e-06,3.293112e-05,0.012225602,0.0122313965,0.0088297445,0.049759887,0.04976462,0.05386389,1.0587712e-11,1.0483897e-11,1.8377746e-11,5.0430643e-08,5.0427047e-08,5e-08,0.0,0.0,0.0,0.0,0.0,0.0,0.0,0.0,8520343,0.31547505,0.23208596,0.10745215,0.03478069,0.008821562,0.04702739,0.0,0.0,0.0,0.016001,0,0,0,831,24,0,0,0
291239123,0.9275901,-0.039567173,0.04906125,0.3682448,0.045228958,0.0301016,0.003398722,37.776424,-24.317593,1.4668622,-4.079849e-05,8.947985e-06,-3.2919952e-06,-0.0005962151,0.00024642234,0.00047593465,0.11948455,0.037706595,0.15050809,-0.12110404,-0.044568717,0.24363385,0.0,0.0,2.52761e-09,7.817715e-05,0.0037388017,6.0315806e-06,5.57863e-06,5.5912783e-06,3.294361e-05,0.012189021,0.012194816,0.008870725,0.04940573,0.04941048,0.054212272,1.0582559e-11,1.0478591e-11,1.8374278e-11,5.043338e-08,5.0429783e-08,5e-08,0.0,0.0,0.0,0.0,0.0,0.0,0.0,0.0,8520343,0.31435046,0.2328353,0.037882473,0.018196259,0.01120414,0.0019444567,0.0,0.0,0.0,0.016001,0,0,0,831,24,0,0,0
291439065,0.927684,-0.039232995,0.0492768,0.36801493,0.046072494,0.02904759,0.007316783,37.784065,-24.31706,1.4790645,-4.0794526e-05,8.925464e-06,-3.2216378e-06,-0.0005962146,0.00024642856,0.0004728094,0.11948455,0.037706595,0.15050809,-0.12110404,-0.044568717,0.24363385,0.0,0.0,2.001561e-09,6.313051e-05,0.003172943,6.028216e-06,5.5813775e-06,5.5922214e-06,3.2946868e-05,0.012196411,0.012202173,0.008836961,0.04936656,0.049371313,0.05387492,1.0593065e-11,1.0489064e-11,1.8384658e-11,5.0434398e-08,5.0430803e-08,5e-08,0.0,0.0,0.0,0.0,0.0,0.0,0.0,0.0,8520343,0.31422582,0.23210971,0.041184586,0.008744119,0.010748409,0.03473266,0.0,0.0,0.0,0.016001,0,0,0,831,24,0,0,0
291638303,0.92766196,-0.039554432,0.04918514,0.3680483,0.046349674,0.031350397,0.0063499953,37.790882,-24.320278,1.4773082,-4.0768467e-05,8.892872e-06,-3.2342457e-06,-0.0005962164,0.00024642775,0.00047393478,0.11948455,0.037706595,0.15050809,-0.12110404,-0.044568717,0.24363385,0.0,0.0,1.8909365e-09,5.9692706e-05,0.0028907636,6.0359575e-06,5.5778683e-06,5.590022e-06,3.299897e-05,0.012164339,0.012170071,0.008863789,0.04915933,0.04916408,0.054141633,1.0589473e-11,1.0485252e-11,1.8394003e-11,5.043528e-08,5.0431684e-08,5.0000025e-08,0.0,0.0,0.0,0.0,0.0,0.0,0.0,0.0,8520343,0.31356564,0.23268355,0.045057174,0.021712828,0.013135476,0.026401863,0.0,0.0,0.0,0.016001,0,0,0,831,24,0,0,0
291838320,0.9276041,-0.039638113,0.049172875,0.36818686,0.042686667,0.025586221,0.0051216315,37.793774,-24.324806,1.4577042,-4.0754698e-05,8.841456e-06,-3.2880284e-06,-0.000596215,0.00024642303,0.00048022825,0.11948455,0.037706595,0.15050809,-0.12110404,-0.044568717,0.24363385,0.0,0.0,1.7386308e-09,6.143335e-05,0.003684216,6.035385e-06,5.5756555e-06,5.5881937e-06,3.2995707e-05,0.01213861,0.012144332,0.008891861,0.048997678,0.04900242,0.05443542,1.05873825e-11,1.04831265e-11,1.8392024e-11,5.043618e-08,5.0432586e-08,5.0000075e-08,0.0,0.0,0.0,0.0,0.0,0.0,0.0,0.0,8520343,0.31304967,0.233314,0.08309631,0.02495812,0.014304892,0.047175314,0.0,0.0,0.0,0.016001,0,0,0,831,24,0,0,0
292045508,0.9276387,-0.039146956,0.049430203,0.36811763,0.038685106,0.021329623,0.0049806656,37.79637,-24.329088,1.4573925,-4.074924e-05,8.797289e-06,-3.280884e-06,-0.00059621566,0.00024642478,0.0004805783,0.11948455,0.037706595,0.15050809,-0.12110404,-0.044568717,0.24363385,0.0,0.0,2.4756368e-09,7.531745e-05,0.004635965,6.0351763e-06,5.580507e-06,5.590572e-06,3.3012693e-05,0.012164308,0.012170033,0.008876712,0.049087863,0.049092665,0.054225974,1.0588284e-11,1.0483989e-11,1.839309e-11,5.043712e-08,5.0433524e-08,5.0000036e-08,0.0,0.0,0.0,0.0,0.0,0.0,0.0,0.0,8520343,0.31333774,0.23286471,0.02949781,0.015850035,0.017293738,0.028538983,0.0,0.0,0.0,0.016001,0,0,0,831,24,0,0,0
