timestamp,timestamp_sample,control[0],control[1],control[2],control[3],control[4],control[5],control[6],control[7]
273391738,273391065,0.28051558,-0.6828674,0.13861786,0.0,1.0,0.0,0.0,0.0
273395636,273395072,0.27968317,-0.6827694,0.13872042,0.0,1.0,0.0,0.0,0.0
273399623,273399083,0.27933946,-0.6832429,0.13879251,0.0,1.0,0.0,0.0,0.0
273403795,273403074,0.2811363,-0.6831879,0.13869838,0.0,1.0,0.0,0.0,0.0
273407572,273407104,0.28180405,-0.6826086,0.13878518,0.0,1.0,0.0,0.0,0.0
273411612,273411091,0.28118685,-0.68349934,0.13862948,0.0,1.0,0.0,0.0,0.0
273415891,273415071,0.28067052,-0.6837305,0.13831052,0.0,1.0,0.0,0.0,0.0
273419597,273419065,0.28000915,-0.6833378,0.13863884,0.0,1.0,0.0,0.0,0.0
273423571,273423069,0.28065363,-0.68455964,0.13877583,0.0,1.0,0.0,0.0,0.0
273427812,273427077,0.2816794,-0.68344295,0.13876286,0.0,1.0,0.0,0.0,0.0
273431569,273431076,0.28275344,-0.6842739,0.13852042,0.0,1.0,0.0,0.0,0.0
273435618,273435064,0.28046,-0.6836032,0.13830316,0.0,1.0,0.0,0.0,0.0
273439756,273439064,0.27993256,-0.68368995,0.13846983,0.0,1.0,0.0,0.0,0.0
273443657,273443093,0.2789439,-0.6831792,0.13840683,0.0,1.0,0.0,0.0,0.0
273447644,273447107,0.2814231,-0.684022,0.13852566,0.0,1.0,0.0,0.0,0.0
273451648,273451065,0.2820148,-0.68326837,0.13835737,0.0,1.0,0.0,0.0,0.0
273455652,273455066,0.28215572,-0.68377656,0.1382904,0.0,1.0,0.0,0.0,0.0
273459625,273459065,0.2813295,-0.68310744,0.13836329,0.0,1.0,0.0,0.0,0.0
273463934,273463097,0.28077242,-0.6827541,0.1383285,0.0,1.0,0.0,0.0,0.0
273467622,273467107,0.2812626,-0.68414384,0.13818686,0.0,1.0,0.0,0.0,0.0
273471594,273471069,0.2828011,-0.6836435,0.13824643,0.0,1.0,0.0,0.0,0.0
273475764,273475064,0.28396577,-0.683894,0.13799387,0.0,1.0,0.0,0.0,0.0
273479751,273479066,0.2819171,-0.68345827,0.13783379,0.0,1.0,0.0,0.0,0.0
273483622,273483092,0.28094932,-0.6840662,0.13774467,0.0,1.0,0.0,0.0,0.0
273487838,273487111,0.2800508,-0.68329036,0.13796292,0.0,1.0,0.0,0.0,0.0
273491573,273491065,0.28151554,-0.68424433,0.13799414,0.0,1.0,0.0,0.0,0.0
273495762,273495136,0.28217265,-0.6830376,0.13797142,0.0,1.0,0.0,0.0,0.0
273499787,273499064,0.28320822,-0.6835372,0.13770027,0.0,1.0,0.0,0.0,0.0
273503752,273503093,0.28122327,-0.6827734,0.13758634,0.0,1.0,0.0,0.0,0.0
273507563,273507079,0.2799993,-0.6829544,0.13790077,0.0,1.0,0.0,0.0,0.0
273511744,273511064,0.27960145,-0.68369776,0.13805212,0.0,1.0,0.0,0.0,0.0
273515575,273515115,0.28146023,-0.68348145,0.13800591,0.0,1.0,0.0,0.0,0.0
273519747,273519083,0.28257766,-0.6837447,0.13805027,0.0,1.0,0.0,0.0,0.0
273523806,273523091,0.28101403,-0.6830226,0.13785067,0.0,1.0,0.0,0.0,0.0
273527795,273527066,0.28002408,-0.6832267,0.13811755,0.0,1.0,0.0,0.0,0.0
273531569,273531064,0.27916306,-0.6827248,0.1381167,0.0,1.0,0.0,0.0,0.0
273535799,273535089,0.28067377,-0.6841055,0.13814303,0.0,1.0,0.0,0.0,0.0
273539628,273539071,0.28168884,-0.6825405,0.13844107,0.0,1.0,0.0,0.0,0.0
273543653,273543096,0.2834425,-0.6839069,0.13837445,0.0,1.0,0.0,0.0,0.0
273547773,273547065,0.28171977,-0.68328494,0.13834237,0.0,1.0,0.0,0.0,0.0
273551821,273551066,0.2803567,-0.6831294,0.13826919,0.0,1.0,0.0,0.0,0.0
273554762,273554315,0.2796543,-0.68366724,0.13853636,0.0,1.0,0.0,0.0,0.0
273558994,273558331,0.28193003,-0.6844156,0.13866863,0.0,1.0,0.0,0.0,0.0
273562821,273562302,0.28248057,-0.68295974,0.13871153,0.0,1.0,0.0,0.0,0.0
273566817,273566265,0.2826074,-0.6839348,0.13859758,0.0,1.0,0.0,0.0,0.0
273570915,273570265,0.28085062,-0.68324625,0.13845146,0.0,1.0,0.0,0.0,0.0
273574773,273574283,0.27965906,-0.68311685,0.13883746,0.0,1.0,0.0,0.0,0.0
273578797,273578296,0.27982378,-0.68411,0.13891724,0.0,1.0,0.0,0.0,0.0
273582960,273582300,0.28184912,-0.68336827,0.1390788,0.0,1.0,0.0,0.0,0.0
273586841,273586266,0.28322193,-0.6833829,0.13868059,0.0,1.0,0.0,0.0,0.0
273590805,273590271,0.28193808,-0.6831856,0.13870682,0.0,1.0,0.0,0.0,0.0
273594952,273594265,0.28036207,-0.6828454,0.13854918,0.0,1.0,0.0,0.0,0.0
273598774,273598296,0.27933684,-0.68275034,0.13872823,0.0,1.0,0.0,0.0,0.0
273602723,273602266,0.2810501,-0.684206,0.1389585,0.0,1.0,0.0,0.0,0.0
273606934,273606265,0.28195578,-0.68300307,0.13888068,0.0,1.0,0.0,0.0,0.0
273610817,273610272,0.28271306,-0.68413997,0.1388844,0.0,1.0,0.0,0.0,0.0
273614834,273614264,0.28140852,-0.68334895,0.13861302,0.0,1.0,0.0,0.0,0.0
273618996,273618306,0.2804323,-0.68395084,0.13866088,0.0,1.0,0.0,0.0,0.0
273622760,273622302,0.28032777,-0.68410075,0.13874221,0.0,1.0,0.0,0.0,0.0
273626820,273626264,0.28257638,-0.68337625,0.13852768,0.0,1.0,0.0,0.0,0.0
273630953,273630271,0.2837695,-0.6837424,0.13840039,0.0,1.0,0.0,0.0,0.0
273634809,273634265,0.28284773,-0.6833923,0.13842635,0.0,1.0,0.0,0.0,0.0
273638801,273638296,0.28140423,-0.6836089,0.1382166,0.0,1.0,0.0,0.0,0.0
273642979,273642305,0.28017846,-0.6832342,0.138477,0.0,1.0,0.0,0.0,0.0
273646789,273646291,0.28131276,-0.68457186,0.13850312,0.0,1.0,0.0,0.0,0.0
273650792,273650264,0.28234276,-0.68336195,0.13835861,0.0,1.0,0.0,0.0,0.0
273654957,273654265,0.28355142,-0.68441284,0.13805528,0.0,1.0,0.0,0.0,0.0
273658849,273658306,0.28239924,-0.68369687,0.13786374,0.0,1.0,0.0,0.0,0.0
273662771,273662286,0.28108472,-0.6839413,0.13793775,0.0,1.0,0.0,0.0,0.0
273666861,273666273,0.280415,-0.6844873,0.1378977,0.0,1.0,0.0,0.0,0.0
273670819,273670280,0.28233543,-0.68428755,0.13801315,0.0,1.0,0.0,0.0,0.0
273674809,273674265,0.283873,-0.68325454,0.13798428,0.0,1.0,0.0,0.0,0.0
273678999,273678296,0.28327733,-0.6830528,0.13776454,0.0,1.0,0.0,0.0,0.0
273682777,273682320,0.28188422,-0.68346274,0.13772675,0.0,1.0,0.0,0.0,0.0
273686774,273686273,0.28043368,-0.6829012,0.13799377,0.0,1.0,0.0,0.0,0.0
273690949,273690265,0.28069484,-0.68354297,0.13806984,0.0,1.0,0.0,0.0,0.0
273694804,273694265,0.28219485,-0.6830195,0.13809572,0.0,1.0,0.0,0.0,0.0
273698863,273698296,0.2838216,-0.68384266,0.13792038,0.0,1.0,0.0,0.0,0.0
273702850,273702283,0.28292906,-0.6832105,0.13774516,0.0,1.0,0.0,0.0,0.0
273706783,273706264,0.2814549,-0.68345284,0.13788679,0.0,1.0,0.0,0.0,0.0
273710836,273710265,0.28008476,-0.68344915,0.13801783,0.0,1.0,0.0,0.0,0.0
273714980,273714264,0.2821062,-0.6841128,0.1378441,0.0,1.0,0.0,0.0,0.0
273718845,273718296,0.28336558,-0.68301415,0.13763505,0.0,1.0,0.0,0.0,0.0
273723052,273722306,0.28326058,-0.6833811,0.13796887,0.0,1.0,0.0,0.0,0.0
273726947,273726279,0.2813353,-0.6828226,0.13787314,0.0,1.0,0.0,0.0,0.0
273730851,273730327,0.27986595,-0.6828505,0.13808838,0.0,1.0,0.0,0.0,0.0
273734956,273734267,0.279956,-0.6840612,0.13835272,0.0,1.0,0.0,0.0,0.0
273738854,273738296,0.2815382,-0.68347216,0.13842946,0.0,1.0,0.0,0.0,0.0
273742759,273742265,0.2835144,-0.6841237,0.13845554,0.0,1.0,0.0,0.0,0.0
273746852,273746265,0.28285092,-0.68332046,0.1382829,0.0,1.0,0.0,0.0,0.0
273750795,273750310,0.2811387,-0.6833823,0.13850406,0.0,1.0,0.0,0.0,0.0
273754847,273754271,0.28014186,-0.6834213,0.13855892,0.0,1.0,0.0,0.0,0.0
273758979,273758307,0.28222397,-0.6842566,0.13865748,0.0,1.0,0.0,0.0,0.0
273762819,273762265,0.28348684,-0.6835823,0.13854507,0.0,1.0,0.0,0.0,0.0
273766806,273766265,0.2837339,-0.6841517,0.1384267,0.0,1.0,0.0,0.0,0.0
273770892,273770314,0.2820129,-0.6833319,0.13843231,0.0,1.0,0.0,0.0,0.0
273774836,273774271,0.28065917,-0.68369687,0.13868119,0.0,1.0,0.0,0.0,0.0
273778849,273778301,0.2802631,-0.6841821,0.13905828,0.0,1.0,0.0,0.0,0.0
273782947,273782265,0.28184584,-0.6834058,0.13881093,0.0,1.0,0.0,0.0,0.0
273786782,273786265,0.2834195,-0.68338394,0.13867499,0.0,1.0,0.0,0.0,0.0
273790758,273790286,0.28287923,-0.6835897,0.1384611,0.0,1.0,0.0,0.0,0.0
273794957,273794271,0.28111407,-0.68294823,0.13833328,0.0,1.0,0.0,0.0,0.0
273798978,273798319,0.28006256,-0.6834226,0.13852239,0.0,1.0,0.0,0.0,0.0
273802856,273802267,0.2814942,-0.6840465,0.13845913,0.0,1.0,0.0,0.0,0.0
273806821,273806265,0.28290966,-0.6832109,0.13832077,0.0,1.0,0.0,0.0,0.0
273810762,273810277,0.2833827,-0.68408257,0.13818653,0.0,1.0,0.0,0.0,0.0
273814986,273814293,0.28246886,-0.68339956,0.13837378,0.0,1.0,0.0,0.0,0.0
273818983,273818337,0.28067458,-0.6833057,0.13844296,0.0,1.0,0.0,0.0,0.0
273822825,273822265,0.28009814,-0.68440354,0.13824275,0.0,1.0,0.0,0.0,0.0
273826898,273826265,0.28187102,-0.68412876,0.13829274,0.0,1.0,0.0,0.0,0.0
273830725,273830273,0.28364247,-0.6834682,0.13832152,0.0,1.0,0.0,0.0,0.0
273834794,273834265,0.28328127,-0.6837447,0.13807394,0.0,1.0,0.0,0.0,0.0
273839102,273838314,0.2811348,-0.68312997,0.13800989,0.0,1.0,0.0,0.0,0.0
273842800,273842265,0.28014702,-0.6834035,0.13816248,0.0,1.0,0.0,0.0,0.0
273846947,273846289,0.2806352,-0.68374586,0.13811234,0.0,1.0,0.0,0.0,0.0
273850805,273850284,0.28271845,-0.6829338,0.13823889,0.0,1.0,0.0,0.0,0.0
273854800,273854287,0.28389,-0.68361366,0.13788733,0.0,1.0,0.0,0.0,0.0
273859006,273858347,0.28300852,-0.6834651,0.13776201,0.0,1.0,0.0,0.0,0.0
273862955,273862265,0.2808345,-0.68342996,0.1380029,0.0,1.0,0.0,0.0,0.0
273866846,273866272,0.2798195,-0.6836279,0.13790503,0.0,1.0,0.0,0.0,0.0
273870808,273870265,0.28149253,-0.6839936,0.13816941,0.0,1.0,0.0,0.0,0.0
273874824,273874265,0.28311637,-0.6830963,0.13800836,0.0,1.0,0.0,0.0,0.0
273877949,273877492,0.2827586,-0.68357456,0.13795024,0.0,1.0,0.0,0.0,0.0
273882817,273882265,0.2813251,-0.683317,0.1377311,0.0,1.0,0.0,0.0,0.0
273886977,273886271,0.27985114,-0.6832198,0.13795449,0.0,1.0,0.0,0.0,0.0
273890751,273890265,0.28022397,-0.6836067,0.13808507,0.0,1.0,0.0,0.0,0.0
273894809,273894266,0.282235,-0.68322945,0.1377987,0.0,1.0,0.0,0.0,0.0
273898020,273897498,0.28360507,-0.6833179,0.13792403,0.0,1.0,0.0,0.0,0.0
273901994,273901476,0.28346315,-0.6837457,0.1379497,0.0,1.0,0.0,0.0,0.0
273906035,273905465,0.28079057,-0.6829287,0.13807759,0.0,1.0,0.0,0.0,0.0
273910172,273909465,0.27970037,-0.6839293,0.13824472,0.0,1.0,0.0,0.0,0.0
273914015,273913465,0.28069153,-0.6840576,0.13811834,0.0,1.0,0.0,0.0,0.0
273917991,273917500,0.2823738,-0.68369544,0.13815613,0.0,1.0,0.0,0.0,0.0
273922052,273921480,0.28276056,-0.6842236,0.13827135,0.0,1.0,0.0,0.0,0.0
273925971,273925478,0.28158143,-0.68358606,0.13814929,0.0,1.0,0.0,0.0,0.0
273930047,273929465,0.27986795,-0.68393075,0.13810565,0.0,1.0,0.0,0.0,0.0
273934168,273933465,0.27948782,-0.68463653,0.13818827,0.0,1.0,0.0,0.0,0.0
273937969,273937471,0.2813254,-0.6843627,0.13823862,0.0,1.0,0.0,0.0,0.0
273941987,273941464,0.28323972,-0.683503,0.13835359,0.0,1.0,0.0,0.0,0.0
273946043,273945465,0.28330237,-0.6842689,0.13837552,0.0,1.0,0.0,0.0,0.0
273949997,273949465,0.2810809,-0.6831683,0.13854383,0.0,1.0,0.0,0.0,0.0
273954013,273953464,0.2796694,-0.68374556,0.13855723,0.0,1.0,0.0,0.0,0.0
273958034,273957465,0.28001946,-0.6840726,0.13878208,0.0,1.0,0.0,0.0,0.0
273961992,273961465,0.28248844,-0.6838374,0.13841939,0.0,1.0,0.0,0.0,0.0
273966158,273965487,0.28315127,-0.68347645,0.13850649,0.0,1.0,0.0,0.0,0.0
273970053,273969471,0.28238758,-0.6839914,0.1383999,0.0,1.0,0.0,0.0,0.0
273974000,273973465,0.28028697,-0.6835047,0.13834307,0.0,1.0,0.0,0.0,0.0
273978065,273977465,0.2797768,-0.6838376,0.13844377,0.0,1.0,0.0,0.0,0.0
273981995,273981465,0.28096366,-0.68411165,0.13824782,0.0,1.0,0.0,0.0,0.0
273985946,273985474,0.28299052,-0.6832943,0.13838945,0.0,1.0,0.0,0.0,0.0
273990171,273989471,0.28381684,-0.68332297,0.13844508,0.0,1.0,0.0,0.0,0.0
273994021,273993465,0.2813793,-0.68239546,0.1384295,0.0,1.0,0.0,0.0,0.0
273998010,273997465,0.27987537,-0.6828982,0.13844082,0.0,1.0,0.0,0.0,0.0
274002181,274001464,0.2797698,-0.68300766,0.13847779,0.0,1.0,0.0,0.0,0.0
274005946,274005474,0.28193948,-0.68327016,0.13818723,0.0,1.0,0.0,0.0,0.0
274010024,274009471,0.2830691,-0.68337166,0.13824283,0.0,1.0,0.0,0.0,0.0
274014181,274013465,0.28277132,-0.68365407,0.13809238,0.0,1.0,0.0,0.0,0.0
274017991,274017465,0.28019914,-0.68328786,0.13818268,0.0,1.0,0.0,0.0,0.0
274021971,274021464,0.27947122,-0.6839075,0.13818572,0.0,1.0,0.0,0.0,0.0
274026055,274025473,0.28092778,-0.6837133,0.13836303,0.0,1.0,0.0,0.0,0.0
274030008,274029471,0.28328913,-0.6837504,0.1383117,0.0,1.0,0.0,0.0,0.0
274034022,274033465,0.28370085,-0.68408597,0.13804744,0.0,1.0,0.0,0.0,0.0
274038184,274037465,0.28181928,-0.6830447,0.13814525,0.0,1.0,0.0,0.0,0.0
274041981,274041471,0.28006765,-0.68348545,0.13770662,0.0,1.0,0.0,0.0,0.0
274045948,274045479,0.28018385,-0.683523,0.13803154,0.0,1.0,0.0,0.0,0.0
274050179,274049487,0.2821093,-0.68423164,0.13798246,0.0,1.0,0.0,0.0,0.0
274054029,274053464,0.28330666,-0.6839273,0.13771315,0.0,1.0,0.0,0.0,0.0
274058059,274057464,0.28340897,-0.68430567,0.13767394,0.0,1.0,0.0,0.0,0.0
274062097,274061471,0.2804455,-0.68411726,0.13785999,0.0,1.0,0.0,0.0,0.0
274065968,274065499,0.27934456,-0.6846246,0.13813126,0.0,1.0,0.0,0.0,0.0
274070156,274069503,0.28049704,-0.68395495,0.13791633,0.0,1.0,0.0,0.0,0.0
274074083,274073465,0.2832598,-0.68395144,0.13807079,0.0,1.0,0.0,0.0,0.0
274078008,274077464,0.28366283,-0.6842303,0.13813123,0.0,1.0,0.0,0.0,0.0
274082060,274081471,0.2817992,-0.6838814,0.13794583,0.0,1.0,0.0,0.0,0.0
274085995,274085465,0.28012097,-0.6837355,0.13804007,0.0,1.0,0.0,0.0,0.0
274089944,274089465,0.2799369,-0.6837341,0.13824426,0.0,1.0,0.0,0.0,0.0
274094085,274093464,0.28177005,-0.6837383,0.13800354,0.0,1.0,0.0,0.0,0.0
274098152,274097465,0.28325307,-0.68318003,0.13794357,0.0,1.0,0.0,0.0,0.0
274102041,274101471,0.2834311,-0.68399435,0.13782622,0.0,1.0,0.0,0.0,0.0
274106013,274105464,0.2806129,-0.6834618,0.13801144,0.0,1.0,0.0,0.0,0.0
274110019,274109465,0.27977622,-0.6839684,0.13834804,0.0,1.0,0.0,0.0,0.0
274114022,274113490,0.28034982,-0.683776,0.13851433,0.0,1.0,0.0,0.0,0.0
274118045,274117464,0.2830694,-0.68389505,0.13842376,0.0,1.0,0.0,0.0,0.0
274122054,274121465,0.28377396,-0.68396366,0.13824943,0.0,1.0,0.0,0.0,0.0
274125989,274125465,0.28261024,-0.68311644,0.13833334,0.0,1.0,0.0,0.0,0.0
274130010,274129473,0.28034136,-0.6833922,0.13832252,0.0,1.0,0.0,0.0,0.0
274134042,274133513,0.28023875,-0.6835171,0.13857235,0.0,1.0,0.0,0.0,0.0
274138015,274137465,0.2814584,-0.6841622,0.13850507,0.0,1.0,0.0,0.0,0.0
274142122,274141464,0.28281853,-0.6832928,0.13848068,0.0,1.0,0.0,0.0,0.0
274146054,274145465,0.28379935,-0.68403,0.13854674,0.0,1.0,0.0,0.0,0.0
274149950,274149465,0.28161135,-0.6830222,0.13834059,0.0,1.0,0.0,0.0,0.0
274154151,274153510,0.2802656,-0.68390054,0.13855651,0.0,1.0,0.0,0.0,0.0
274157998,274157465,0.28023598,-0.6832268,0.13835004,0.0,1.0,0.0,0.0,0.0
274162026,274161465,0.282877,-0.6838217,0.13826562,0.0,1.0,0.0,0.0,0.0
274166152,274165465,0.2832941,-0.68326795,0.13829203,0.0,1.0,0.0,0.0,0.0
274169971,274169465,0.28308493,-0.6840171,0.13829947,0.0,1.0,0.0,0.0,0.0
274173614,274172679,0.28052083,-0.6827205,0.13825576,0.0,1.0,0.0,0.0,0.0
274177246,274176665,0.27948087,-0.6833261,0.13856256,0.0,1.0,0.0,0.0,0.0
274180368,274179899,0.27950463,-0.6831332,0.13864829,0.0,1.0,0.0,0.0,0.0
274185253,274184671,0.28220892,-0.68405086,0.13868801,0.0,1.0,0.0,0.0,0.0
274189382,274188706,0.28330064,-0.6837632,0.13844606,0.0,1.0,0.0,0.0,0.0
274193615,274192665,0.28225732,-0.6833149,0.13827375,0.0,1.0,0.0,0.0,0.0
274197188,274196664,0.28020206,-0.6830958,0.13844538,0.0,1.0,0.0,0.0,0.0
274201368,274200717,0.2798544,-0.6834186,0.13844411,0.0,1.0,0.0,0.0,0.0
274205257,274204671,0.28149188,-0.6843487,0.13849324,0.0,1.0,0.0,0.0,0.0
274209211,274208678,0.28288138,-0.68357974,0.1385187,0.0,1.0,0.0,0.0,0.0
274213667,274212665,0.28398663,-0.6837462,0.13819529,0.0,1.0,0.0,0.0,0.0
274217223,274216699,0.281278,-0.6829901,0.13824627,0.0,1.0,0.0,0.0,0.0
274221203,274220720,0.28002578,-0.68436694,0.13820456,0.0,1.0,0.0,0.0,0.0
274225412,274224671,0.28004903,-0.68312204,0.13838303,0.0,1.0,0.0,0.0,0.0
274229223,274228664,0.2832975,-0.684068,0.13804074,0.0,1.0,0.0,0.0,0.0
274233612,274232665,0.28418812,-0.6836958,0.13809359,0.0,1.0,0.0,0.0,0.0
274237260,274236664,0.283419,-0.6837635,0.13808466,0.0,1.0,0.0,0.0,0.0
274241217,274240706,0.28064162,-0.6836471,0.1379409,0.0,1.0,0.0,0.0,0.0
274245340,274244704,0.2804559,-0.68386215,0.13812849,0.0,1.0,0.0,0.0,0.0
274249243,274248665,0.2815496,-0.684144,0.13802248,0.0,1.0,0.0,0.0,0.0
274253670,274252664,0.28345105,-0.6837461,0.1378877,0.0,1.0,0.0,0.0,0.0
274257174,274256671,0.28437385,-0.6842912,0.13775294,0.0,1.0,0.0,0.0,0.0
274261235,274260694,0.28132185,-0.6834386,0.13765422,0.0,1.0,0.0,0.0,0.0
274265360,274264665,0.2793331,-0.68442965,0.1379388,0.0,1.0,0.0,0.0,0.0
274269260,274268676,0.27909234,-0.68374074,0.13790667,0.0,1.0,0.0,0.0,0.0
274273681,274272699,0.2822852,-0.6841233,0.13781124,0.0,1.0,0.0,0.0,0.0
274277213,274276671,0.28300485,-0.6832009,0.13772771,0.0,1.0,0.0,0.0,0.0
274281150,274280665,0.2824026,-0.68355584,0.13772082,0.0,1.0,0.0,0.0,0.0
274285356,274284687,0.27972937,-0.68347144,0.13770667,0.0,1.0,0.0,0.0,0.0
274289204,274288664,0.27948582,-0.6836491,0.13806894,0.0,1.0,0.0,0.0,0.0
274293620,274292664,0.2806785,-0.68338835,0.13794498,0.0,1.0,0.0,0.0,0.0
274297306,274296671,0.28300834,-0.6838709,0.13790786,0.0,1.0,0.0,0.0,0.0
274301216,274300699,0.2841835,-0.6838421,0.13802609,0.0,1.0,0.0,0.0,0.0
274305192,274304670,0.28173974,-0.68331325,0.13786468,0.0,1.0,0.0,0.0,0.0
274309352,274308665,0.2797641,-0.6841339,0.13810539,0.0,1.0,0.0,0.0,0.0
274313625,274312665,0.2795846,-0.68326735,0.13823579,0.0,1.0,0.0,0.0,0.0
274317238,274316671,0.28211737,-0.68424845,0.13823938,0.0,1.0,0.0,0.0,0.0
274321230,274320665,0.28319934,-0.68335223,0.13796648,0.0,1.0,0.0,0.0,0.0
274325226,274324672,0.28330454,-0.6835172,0.13803522,0.0,1.0,0.0,0.0,0.0
274329210,274328684,0.28037745,-0.68290836,0.13783965,0.0,1.0,0.0,0.0,0.0
274333682,274332665,0.28015158,-0.6837486,0.1382464,0.0,1.0,0.0,0.0,0.0
274337229,274336673,0.2802995,-0.6834891,0.13815181,0.0,1.0,0.0,0.0,0.0
274341169,274340665,0.28226432,-0.68383425,0.1381966,0.0,1.0,0.0,0.0,0.0
274345251,274344665,0.28324127,-0.6841747,0.13829848,0.0,1.0,0.0,0.0,0.0
274349200,274348684,0.28143758,-0.683406,0.13809979,0.0,1.0,0.0,0.0,0.0
274353623,274352664,0.2794639,-0.68384075,0.13836831,0.0,1.0,0.0,0.0,0.0
274357365,274356690,0.2793456,-0.68368006,0.13825013,0.0,1.0,0.0,0.0,0.0
274361208,274360674,0.2811763,-0.68437546,0.13828231,0.0,1.0,0.0,0.0,0.0
274365190,274364665,0.28229368,-0.6833726,0.13827613,0.0,1.0,0.0,0.0,0.0
274369239,274368701,0.28288838,-0.6837748,0.13826497,0.0,1.0,0.0,0.0,0.0
274373649,274372664,0.28019965,-0.6835937,0.13833714,0.0,1.0,0.0,0.0,0.0
274377202,274376664,0.27951258,-0.68413395,0.1385443,0.0,1.0,0.0,0.0,0.0
274381396,274380665,0.27935144,-0.6836449,0.13836373,0.0,1.0,0.0,0.0,0.0
274385225,274384704,0.2822451,-0.6840458,0.13825913,0.0,1.0,0.0,0.0,0.0
274389185,274388702,0.28347287,-0.6834682,0.13830881,0.0,1.0,0.0,0.0,0.0
274401209,274400665,0.2800046,-0.68358594,0.13830963,0.0,1.0,0.0,0.0,0.0
274405261,274404665,0.28139836,-0.6840054,0.13826858,0.0,1.0,0.0,0.0,0.0
274409216,274408703,0.28288683,-0.6831018,0.1381336,0.0,1.0,0.0,0.0,0.0
274413663,274412705,0.28348804,-0.6835011,0.13804401,0.0,1.0,0.0,0.0,0.0
274417272,274416665,0.28084433,-0.68312377,0.137932,0.0,1.0,0.0,0.0,0.0
274421225,274420665,0.27946895,-0.68425506,0.13804515,0.0,1.0,0.0,0.0,0.0
274425193,274424665,0.27924407,-0.68321013,0.13790941,0.0,1.0,0.0,0.0,0.0
274429257,274428664,0.28227296,-0.6841485,0.13798088,0.0,1.0,0.0,0.0,0.0
274433539,274432665,0.28371128,-0.6830625,0.1380193,0.0,1.0,0.0,0.0,0.0
274437185,274436671,0.28261,-0.6831794,0.13780464,0.0,1.0,0.0,0.0,0.0
274441378,274440671,0.2798239,-0.6832862,0.13772608,0.0,1.0,0.0,0.0,0.0
274445203,274444664,0.27942008,-0.68309915,0.13808127,0.0,1.0,0.0,0.0,0.0
274449172,274448665,0.2799328,-0.6830727,0.13799733,0.0,1.0,0.0,0.0,0.0
274453557,274452688,0.2818366,-0.6832365,0.13775767,0.0,1.0,0.0,0.0,0.0
274456407,274455902,0.28331286,-0.683293,0.13793996,0.0,1.0,0.0,0.0,0.0
274460417,274459865,0.2815429,-0.6834307,0.13778126,0.0,1.0,0.0,0.0,0.0
274463635,274463082,0.27858284,-0.6836696,0.13784361,0.0,1.0,0.0,0.0,0.0
274468612,274467864,0.27845484,-0.6835731,0.13815258,0.0,1.0,0.0,0.0,0.0
274472391,274471881,0.28092924,-0.6839831,0.13805729,0.0,1.0,0.0,0.0,0.0
274475657,274475099,0.28248864,-0.6829424,0.13822134,0.0,1.0,0.0,0.0,0.0
274480452,274479865,0.2832105,-0.6829294,0.13804336,0.0,1.0,0.0,0.0,0.0
274483632,274483106,0.2806538,-0.6824912,0.137999,0.0,1.0,0.0,0.0,0.0
274488612,274487865,0.27958786,-0.68351734,0.13814922,0.0,1.0,0.0,0.0,0.0
274492399,274491871,0.27946317,-0.68304026,0.13837871,0.0,1.0,0.0,0.0,0.0
274496393,274495865,0.28202823,-0.6842456,0.13842687,0.0,1.0,0.0,0.0,0.0
274500560,274499865,0.28356174,-0.6834911,0.13842162,0.0,1.0,0.0,0.0,0.0
274503641,274503140,0.28242236,-0.6838474,0.1382206,0.0,1.0,0.0,0.0,0.0
274508541,274507865,0.27956507,-0.6839591,0.13847443,0.0,1.0,0.0,0.0,0.0
274512576,274511906,0.2793466,-0.68385905,0.13859035,0.0,1.0,0.0,0.0,0.0
274516398,274515865,0.28128028,-0.68425965,0.1384719,0.0,1.0,0.0,0.0,0.0
274520373,274519876,0.28305823,-0.6834389,0.13852178,0.0,1.0,0.0,0.0,0.0
274523746,274523138,0.28372717,-0.683489,0.13836621,0.0,1.0,0.0,0.0,0.0
274528607,274527865,0.28155386,-0.6832402,0.13822685,0.0,1.0,0.0,0.0,0.0
274532370,274531871,0.28035545,-0.68410397,0.13836816,0.0,1.0,0.0,0.0,0.0
274536448,274535865,0.2800076,-0.6836485,0.13828567,0.0,1.0,0.0,0.0,0.0
274540406,274539900,0.28247705,-0.684784,0.13829097,0.0,1.0,0.0,0.0,0.0
274544437,274543905,0.2836352,-0.68400383,0.13829996,0.0,1.0,0.0,0.0,0.0
274548703,274547865,0.2825767,-0.683919,0.13800077,0.0,1.0,0.0,0.0,0.0
274552415,274551865,0.27932093,-0.6841749,0.13809597,0.0,1.0,0.0,0.0,0.0
274556405,274555865,0.27923754,-0.6837597,0.13837339,0.0,1.0,0.0,0.0,0.0
274560435,274559865,0.28071815,-0.6837344,0.13821977,0.0,1.0,0.0,0.0,0.0
274564593,274563901,0.28311056,-0.6834643,0.13792607,0.0,1.0,0.0,0.0,0.0
274568461,274567865,0.28380495,-0.6836448,0.1379796,0.0,1.0,0.0,0.0,0.0
274572470,274571865,0.28203446,-0.6833308,0.13774107,0.0,1.0,0.0,0.0,0.0
274576393,274575865,0.28053224,-0.6833587,0.13802814,0.0,1.0,0.0,0.0,0.0
274580359,274579865,0.28035212,-0.68311846,0.13819088,0.0,1.0,0.0,0.0,0.0
274584592,274583869,0.28258592,-0.6844125,0.13789697,0.0,1.0,0.0,0.0,0.0
274588544,274587865,0.28379646,-0.6833319,0.1380013,0.0,1.0,0.0,0.0,0.0
274592439,274591864,0.28292373,-0.68419886,0.13793793,0.0,1.0,0.0,0.0,0.0
274596588,274595865,0.28002128,-0.6837257,0.13789748,0.0,1.0,0.0,0.0,0.0
274600376,274599865,0.2797938,-0.68367785,0.13791166,0.0,1.0,0.0,0.0,0.0
274604433,274603923,0.28050616,-0.6833908,0.1378864,0.0,1.0,0.0,0.0,0.0
274608632,274607865,0.2827582,-0.6829039,0.13772488,0.0,1.0,0.0,0.0,0.0
274612572,274611915,0.28405932,-0.683042,0.13767146,0.0,1.0,0.0,0.0,0.0
274616472,274615865,0.28237042,-0.68279135,0.13763864,0.0,1.0,0.0,0.0,0.0
274620455,274619865,0.28055736,-0.68357843,0.13786384,0.0,1.0,0.0,0.0,0.0
274624445,274623906,0.27998713,-0.6833498,0.13792832,0.0,1.0,0.0,0.0,0.0
274628558,274627865,0.28194714,-0.68455046,0.13780059,0.0,1.0,0.0,0.0,0.0
274632490,274631864,0.28320044,-0.6835833,0.1380227,0.0,1.0,0.0,0.0,0.0
274636460,274635865,0.2829269,-0.6840461,0.13801719,0.0,1.0,0.0,0.0,0.0
274640374,274639864,0.28006628,-0.68349934,0.13785824,0.0,1.0,0.0,0.0,0.0
274644557,274643875,0.27952117,-0.6835983,0.13827582,0.0,1.0,0.0,0.0,0.0
274648573,274647864,0.2796606,-0.6833197,0.13812648,0.0,1.0,0.0,0.0,0.0
274652426,274651900,0.2821921,-0.68370605,0.13796939,0.0,1.0,0.0,0.0,0.0
274656571,274655871,0.28387555,-0.68305904,0.13795543,0.0,1.0,0.0,0.0,0.0
274660397,274659865,0.28282005,-0.6837958,0.13809088,0.0,1.0,0.0,0.0,0.0
274664407,274663864,0.28044438,-0.6846642,0.13826743,0.0,1.0,0.0,0.0,0.0
274668710,274667864,0.27988693,-0.6841675,0.13855256,0.0,1.0,0.0,0.0,0.0
274672409,274671877,0.28175017,-0.6850674,0.13834065,0.0,1.0,0.0,0.0,0.0
274676445,274675871,0.28360403,-0.6838008,0.1381982,0.0,1.0,0.0,0.0,0.0
274680420,274679864,0.28366867,-0.6843123,0.13823919,0.0,1.0,0.0,0.0,0.0
274684385,274683865,0.2809083,-0.6835943,0.13830553,0.0,1.0,0.0,0.0,0.0
274688515,274687887,0.2800903,-0.68356067,0.13838668,0.0,1.0,0.0,0.0,0.0
274692578,274691912,0.27980703,-0.6826531,0.13829659,0.0,1.0,0.0,0.0,0.0
274696459,274695871,0.28232983,-0.6835358,0.13827565,0.0,1.0,0.0,0.0,0.0
274700378,274699877,0.2841608,-0.6824554,0.13852696,0.0,1.0,0.0,0.0,0.0
274704440,274703865,0.28352293,-0.6831726,0.13823481,0.0,1.0,0.0,0.0,0.0
274708544,274707874,0.28109634,-0.6835327,0.13814273,0.0,1.0,0.0,0.0,0.0
274712380,274711875,0.28047708,-0.68346906,0.13840519,0.0,1.0,0.0,0.0,0.0
274716532,274715871,0.28183025,-0.6841692,0.13823044,0.0,1.0,0.0,0.0,0.0
274720337,274719865,0.28392607,-0.6839067,0.13816805,0.0,1.0,0.0,0.0,0.0
274724402,274723865,0.2841519,-0.683879,0.1383756,0.0,1.0,0.0,0.0,0.0
274728583,274727876,0.28203848,-0.6836237,0.13805601,0.0,1.0,0.0,0.0,0.0
274732391,274731868,0.28077406,-0.6834996,0.1380503,0.0,1.0,0.0,0.0,0.0
274736414,274735865,0.28075457,-0.68326944,0.13815592,0.0,1.0,0.0,0.0,0.0
274740483,274739865,0.28321883,-0.68395215,0.13812394,0.0,1.0,0.0,0.0,0.0
274744388,274743866,0.28466666,-0.683372,0.1379724,0.0,1.0,0.0,0.0,0.0
274748446,274747871,0.28406364,-0.6838238,0.13777407,0.0,1.0,0.0,0.0,0.0
274752538,274751900,0.28123176,-0.68328,0.13766061,0.0,1.0,0.0,0.0,0.0
274756454,274755865,0.2807638,-0.68351424,0.13782066,0.0,1.0,0.0,0.0,0.0
274760380,274759871,0.28180134,-0.68428373,0.13759615,0.0,1.0,0.0,0.0,0.0
274763764,274763116,0.28355926,-0.6848336,0.13765089,0.0,1.0,0.0,0.0,0.0
274768548,274767871,0.284265,-0.6841135,0.13785948,0.0,1.0,0.0,0.0,0.0
274772400,274771887,0.28254032,-0.68414944,0.13741127,0.0,1.0,0.0,0.0,0.0
274776531,274775865,0.2801582,-0.6843116,0.13760737,0.0,1.0,0.0,0.0,0.0
274780459,274779870,0.27995598,-0.6834146,0.13772863,0.0,1.0,0.0,0.0,0.0
274783741,274783114,0.28189513,-0.6837574,0.13769458,0.0,1.0,0.0,0.0,0.0
274787688,274787064,0.28364763,-0.68352795,0.13762346,0.0,1.0,0.0,0.0,0.0
274791631,274791065,0.28384063,-0.68403035,0.13768482,0.0,1.0,0.0,0.0,0.0
274795588,274795076,0.28167683,-0.6838348,0.13741615,0.0,1.0,0.0,0.0,0.0
274798970,274798335,0.28052804,-0.6837746,0.13757896,0.0,1.0,0.0,0.0,0.0
274803626,274803063,0.2803777,-0.68314695,0.13777955,0.0,1.0,0.0,0.0,0.0
274807649,274807083,0.28278705,-0.68486583,0.13782337,0.0,1.0,0.0,0.0,0.0
274811658,274811065,0.28415248,-0.6839127,0.1377182,0.0,1.0,0.0,0.0,0.0
274815741,274815068,0.2833586,-0.68470615,0.13783534,0.0,1.0,0.0,0.0,0.0
274818815,274818321,0.28059265,-0.68406796,0.1378462,0.0,1.0,0.0,0.0,0.0
274823924,274823114,0.28025034,-0.68380487,0.13804527,0.0,1.0,0.0,0.0,0.0
274827644,274827085,0.2815898,-0.683785,0.1381304,0.0,1.0,0.0,0.0,0.0
274831576,274831065,0.2837658,-0.6832862,0.13820226,0.0,1.0,0.0,0.0,0.0
274835643,274835064,0.28383654,-0.6830888,0.13816465,0.0,1.0,0.0,0.0,0.0
274839619,274839093,0.28207502,-0.68309414,0.13792431,0.0,1.0,0.0,0.0,0.0
274843766,274843114,0.28058246,-0.68337774,0.13844863,0.0,1.0,0.0,0.0,0.0
274847682,274847071,0.2803961,-0.68340737,0.13840576,0.0,1.0,0.0,0.0,0.0
274851581,274851065,0.28240213,-0.6844547,0.13821214,0.0,1.0,0.0,0.0,0.0
274855600,274855065,0.2840743,-0.683481,0.1381636,0.0,1.0,0.0,0.0,0.0
274859783,274859110,0.28371614,-0.6840744,0.13818961,0.0,1.0,0.0,0.0,0.0
274863809,274863114,0.28083023,-0.68407303,0.13805838,0.0,1.0,0.0,0.0,0.0
274867598,274867071,0.28026682,-0.6836084,0.13834944,0.0,1.0,0.0,0.0,0.0
274871754,274871071,0.28118572,-0.6833919,0.13817008,0.0,1.0,0.0,0.0,0.0
274875570,274875064,0.28325513,-0.68373513,0.13822645,0.0,1.0,0.0,0.0,0.0
274879586,274879083,0.28384757,-0.68316627,0.13842332,0.0,1.0,0.0,0.0,0.0
274883897,274883114,0.28264034,-0.6833628,0.13800807,0.0,1.0,0.0,0.0,0.0
274887775,274887112,0.28070325,-0.68372494,0.13788937,0.0,1.0,0.0,0.0,0.0
274891623,274891072,0.28005534,-0.68378663,0.13818185,0.0,1.0,0.0,0.0,0.0
274895822,274895065,0.281841,-0.6844129,0.13811432,0.0,1.0,0.0,0.0,0.0
274899591,274899064,0.2840559,-0.6832941,0.13792028,0.0,1.0,0.0,0.0,0.0
274903637,274903071,0.2837301,-0.6839924,0.13786379,0.0,1.0,0.0,0.0,0.0
274907801,274907111,0.2809405,-0.6837788,0.13788626,0.0,1.0,0.0,0.0,0.0
274911806,274911079,0.28036672,-0.6835056,0.13785233,0.0,1.0,0.0,0.0,0.0
274915543,274915081,0.28063244,-0.6836361,0.13799082,0.0,1.0,0.0,0.0,0.0
274919769,274919065,0.2830805,-0.6837919,0.13782969,0.0,1.0,0.0,0.0,0.0
274923651,274923103,0.28361985,-0.6830942,0.13780954,0.0,1.0,0.0,0.0,0.0
274927599,274927082,0.28271535,-0.68409467,0.1376072,0.0,1.0,0.0,0.0,0.0
274931646,274931071,0.28005067,-0.68378913,0.13768831,0.0,1.0,0.0,0.0,0.0
274935795,274935065,0.27983466,-0.6834264,0.13795294,0.0,1.0,0.0,0.0,0.0
274939647,274939065,0.28125882,-0.68410116,0.13775042,0.0,1.0,0.0,0.0,0.0
274943625,274943105,0.283633,-0.6839575,0.13781682,0.0,1.0,0.0,0.0,0.0
274947784,274947102,0.28328466,-0.6837551,0.13756602,0.0,1.0,0.0,0.0,0.0
274951747,274951065,0.28096944,-0.6838491,0.13760029,0.0,1.0,0.0,0.0,0.0
274955648,274955083,0.2799472,-0.6837347,0.13761967,0.0,1.0,0.0,0.0,0.0
274959745,274959065,0.2804675,-0.68341875,0.13755591,0.0,1.0,0.0,0.0,0.0
274963638,274963108,0.28259602,-0.68418753,0.13763003,0.0,1.0,0.0,0.0,0.0
274967651,274967083,0.28361988,-0.68350995,0.13748811,0.0,1.0,0.0,0.0,0.0
274971749,274971065,0.28279805,-0.683697,0.13746166,0.0,1.0,0.0,0.0,0.0
274975582,274975071,0.28061995,-0.6836957,0.1374494,0.0,1.0,0.0,0.0,0.0
274979600,274979065,0.28037718,-0.6833703,0.13769716,0.0,1.0,0.0,0.0,0.0
274983785,274983094,0.28112048,-0.68375415,0.13763504,0.0,1.0,0.0,0.0,0.0
274987737,274987065,0.28350195,-0.6839298,0.13776466,0.0,1.0,0.0,0.0,0.0
274991596,274991065,0.28340605,-0.6834841,0.13759008,0.0,1.0,0.0,0.0,0.0
274995985,274995067,0.28137195,-0.6838417,0.13769494,0.0,1.0,0.0,0.0,0.0
274999566,274999064,0.27995032,-0.6837348,0.13785034,0.0,1.0,0.0,0.0,0.0
275003658,275003108,0.28023756,-0.6831739,0.13780789,0.0,1.0,0.0,0.0,0.0
275007759,275007091,0.28166458,-0.6840263,0.13787706,0.0,1.0,0.0,0.0,0.0
275011758,275011065,0.28293768,-0.683145,0.13775674,0.0,1.0,0.0,0.0,0.0
275015581,275015067,0.28268474,-0.6838596,0.13777952,0.0,1.0,0.0,0.0,0.0
275019699,275019064,0.28023112,-0.68342096,0.13801455,0.0,1.0,0.0,0.0,0.0
275023582,275023072,0.27964106,-0.6834894,0.13820179,0.0,1.0,0.0,0.0,0.0
275027619,275027083,0.280426,-0.6834159,0.13796507,0.0,1.0,0.0,0.0,0.0
275031912,275031073,0.2829001,-0.68381184,0.13795525,0.0,1.0,0.0,0.0,0.0
275035609,275035073,0.28304034,-0.68324965,0.13810933,0.0,1.0,0.0,0.0,0.0
275039642,275039083,0.28163752,-0.6839079,0.13810535,0.0,1.0,0.0,0.0,0.0
275043747,275043102,0.27994406,-0.6835963,0.13840684,0.0,1.0,0.0,0.0,0.0
275047641,275047083,0.28013945,-0.68305266,0.13833651,0.0,1.0,0.0,0.0,0.0
275051608,275051065,0.28119308,-0.68428284,0.13840234,0.0,1.0,0.0,0.0,0.0
275055791,275055081,0.2835561,-0.68314624,0.13823542,0.0,1.0,0.0,0.0,0.0
275059644,275059064,0.28345564,-0.6834244,0.13823992,0.0,1.0,0.0,0.0,0.0
275063598,275063084,0.28104752,-0.6829677,0.13838452,0.0,1.0,0.0,0.0,0.0
275067768,275067070,0.27998257,-0.68293536,0.1384014,0.0,1.0,0.0,0.0,0.0
275071653,275071066,0.2805215,-0.6831218,0.13829195,0.0,1.0,0.0,0.0,0.0
275078153,275077511,0.2832234,-0.6833123,0.13828588,0.0,1.0,0.0,0.0,0.0
275082782,275082293,0.28291646,-0.68441755,0.13829874,0.0,1.0,0.0,0.0,0.0
275086788,275086264,0.28033853,-0.6841577,0.13846682,0.0,1.0,0.0,0.0,0.0
275090838,275090265,0.27997637,-0.6837594,0.138522,0.0,1.0,0.0,0.0,0.0
275094818,275094306,0.2809,-0.6838499,0.13817519,0.0,1.0,0.0,0.0,0.0
275098859,275098296,0.28375253,-0.68368304,0.13805471,0.0,1.0,0.0,0.0,0.0
275103053,275102306,0.2838208,-0.6833046,0.13805926,0.0,1.0,0.0,0.0,0.0
275106831,275106271,0.28202856,-0.68373525,0.13813898,0.0,1.0,0.0,0.0,0.0
275110955,275110267,0.28019518,-0.6831005,0.138041,0.0,1.0,0.0,0.0,0.0
275114815,275114265,0.2803627,-0.6834613,0.13775949,0.0,1.0,0.0,0.0,0.0
275118834,275118296,0.2817905,-0.6837179,0.1379074,0.0,1.0,0.0,0.0,0.0
275122862,275122273,0.2831181,-0.6833103,0.13786082,0.0,1.0,0.0,0.0,0.0
275126947,275126271,0.28319365,-0.68404865,0.13765866,0.0,1.0,0.0,0.0,0.0
275130739,275130265,0.28084332,-0.6842951,0.13772376,0.0,1.0,0.0,0.0,0.0
275134835,275134264,0.28018734,-0.68350697,0.13775685,0.0,1.0,0.0,0.0,0.0
275138951,275138296,0.28095308,-0.68364775,0.13739647,0.0,1.0,0.0,0.0,0.0
275142792,275142293,0.28381717,-0.683843,0.13743569,0.0,1.0,0.0,0.0,0.0
275146957,275146271,0.2838742,-0.6830189,0.13755623,0.0,1.0,0.0,0.0,0.0
275150741,275150265,0.28250816,-0.6840526,0.13758537,0.0,1.0,0.0,0.0,0.0
275154802,275154271,0.28048754,-0.6834551,0.13742115,0.0,1.0,0.0,0.0,0.0
275159135,275158342,0.2802376,-0.6837132,0.13754967,0.0,1.0,0.0,0.0,0.0
275162830,275162265,0.28134203,-0.68403614,0.13742131,0.0,1.0,0.0,0.0,0.0
275166819,275166264,0.28322873,-0.683847,0.13726628,0.0,1.0,0.0,0.0,0.0
275170972,275170290,0.2830558,-0.68439204,0.13737041,0.0,1.0,0.0,0.0,0.0
275174771,275174265,0.2807969,-0.68438494,0.1374146,0.0,1.0,0.0,0.0,0.0
275178861,275178340,0.27998263,-0.6835119,0.13765042,0.0,1.0,0.0,0.0,0.0
275182861,275182265,0.28078076,-0.68290275,0.13762362,0.0,1.0,0.0,0.0,0.0
275186804,275186265,0.28300884,-0.68394864,0.13777067,0.0,1.0,0.0,0.0,0.0
275190751,275190264,0.2832312,-0.6830566,0.13781613,0.0,1.0,0.0,0.0,0.0
275194842,275194268,0.28267387,-0.68409234,0.13769192,0.0,1.0,0.0,0.0,0.0
275198847,275198326,0.28065786,-0.6839564,0.13779062,0.0,1.0,0.0,0.0,0.0
275202807,275202265,0.28090787,-0.6836777,0.13775136,0.0,1.0,0.0,0.0,0.0
275206940,275206265,0.2815806,-0.6839661,0.13795924,0.0,1.0,0.0,0.0,0.0
275210795,275210265,0.28407836,-0.6835606,0.13792832,0.0,1.0,0.0,0.0,0.0
275214803,275214265,0.2837204,-0.6835041,0.13792752,0.0,1.0,0.0,0.0,0.0
275218958,275218343,0.2820837,-0.6837945,0.13793951,0.0,1.0,0.0,0.0,0.0
275222815,275222265,0.28095523,-0.6834515,0.13798575,0.0,1.0,0.0,0.0,0.0
275226839,275226264,0.28124934,-0.6834463,0.13783921,0.0,1.0,0.0,0.0,0.0
275230850,275230273,0.28342557,-0.6842214,0.13796884,0.0,1.0,0.0,0.0,0.0
275234777,275234265,0.28411767,-0.68262136,0.13798063,0.0,1.0,0.0,0.0,0.0
275238799,275238309,0.28361043,-0.68409765,0.13786481,0.0,1.0,0.0,0.0,0.0
275242925,275242291,0.28132522,-0.68338466,0.1380966,0.0,1.0,0.0,0.0,0.0
275246827,275246265,0.28097674,-0.6834736,0.1381369,0.0,1.0,0.0,0.0,0.0
275250785,275250279,0.2810082,-0.6835254,0.13807568,0.0,1.0,0.0,0.0,0.0
275254874,275254265,0.28353357,-0.6837288,0.13807876,0.0,1.0,0.0,0.0,0.0
275258814,275258310,0.28370273,-0.6833429,0.13823353,0.0,1.0,0.0,0.0,0.0
275262969,275262282,0.2824859,-0.6838258,0.1381464,0.0,1.0,0.0,0.0,0.0
275266851,275266265,0.28065097,-0.6833332,0.1381792,0.0,1.0,0.0,0.0,0.0
275270845,275270302,0.28104812,-0.6834801,0.13819839,0.0,1.0,0.0,0.0,0.0
275274940,275274264,0.28271785,-0.6837309,0.1384561,0.0,1.0,0.0,0.0,0.0
275278920,275278325,0.2839223,-0.6825702,0.13832779,0.0,1.0,0.0,0.0,0.0
275282788,275282277,0.28369874,-0.6836903,0.13808447,0.0,1.0,0.0,0.0,0.0
275286801,275286264,0.28142908,-0.68321234,0.13803199,0.0,1.0,0.0,0.0,0.0
275290919,275290289,0.28121653,-0.6836446,0.13836138,0.0,1.0,0.0,0.0,0.0
275294827,275294265,0.28154165,-0.68329084,0.13818136,0.0,1.0,0.0,0.0,0.0
275298873,275298339,0.28429946,-0.6837922,0.13819526,0.0,1.0,0.0,0.0,0.0
275302843,275302265,0.28437734,-0.6834702,0.13800731,0.0,1.0,0.0,0.0,0.0
275306812,275306265,0.28307378,-0.6843746,0.13792787,0.0,1.0,0.0,0.0,0.0
275310809,275310271,0.2808223,-0.6831836,0.1377723,0.0,1.0,0.0,0.0,0.0
275314934,275314265,0.28134462,-0.6833962,0.1375793,0.0,1.0,0.0,0.0,0.0
275318782,275318319,0.2826388,-0.68373615,0.13760181,0.0,1.0,0.0,0.0,0.0
275322793,275322265,0.28369716,-0.6832958,0.13762511,0.0,1.0,0.0,0.0,0.0
275326850,275326278,0.283484,-0.683881,0.1373604,0.0,1.0,0.0,0.0,0.0
275330829,275330265,0.28132564,-0.6835231,0.1372729,0.0,1.0,0.0,0.0,0.0
275334833,275334265,0.28060174,-0.68376213,0.13736932,0.0,1.0,0.0,0.0,0.0
275339010,275338319,0.28105038,-0.68366337,0.13734138,0.0,1.0,0.0,0.0,0.0
275342809,275342271,0.2838982,-0.6839394,0.1374204,0.0,1.0,0.0,0.0,0.0
275346790,275346273,0.2839467,-0.68263245,0.1373775,0.0,1.0,0.0,0.0,0.0
275350954,275350265,0.28266925,-0.6843271,0.13728301,0.0,1.0,0.0,0.0,0.0
275354829,275354265,0.28026032,-0.68292296,0.13772272,0.0,1.0,0.0,0.0,0.0
275359124,275358333,0.28083044,-0.6834021,0.13777223,0.0,1.0,0.0,0.0,0.0
275362812,275362273,0.28130662,-0.68391955,0.13773897,0.0,1.0,0.0,0.0,0.0
275366815,275366297,0.28346097,-0.68333226,0.13763534,0.0,1.0,0.0,0.0,0.0
275370852,275370265,0.2839904,-0.68363655,0.13747232,0.0,1.0,0.0,0.0,0.0
275374849,275374265,0.28234527,-0.68320036,0.13755506,0.0,1.0,0.0,0.0,0.0
275378835,275378331,0.2811446,-0.68265265,0.13746843,0.0,1.0,0.0,0.0,0.0
275382824,275382271,0.2815876,-0.68315434,0.13761842,0.0,1.0,0.0,0.0,0.0
275386796,275386265,0.28385413,-0.6838926,0.13772427,0.0,1.0,0.0,0.0,0.0
275390812,275390265,0.28388858,-0.68262285,0.13780034,0.0,1.0,0.0,0.0,0.0
275394164,275393498,0.28367752,-0.6842009,0.13756734,0.0,1.0,0.0,0.0,0.0
275398035,275397465,0.28179765,-0.68365496,0.13743044,0.0,1.0,0.0,0.0,0.0
275402027,275401465,0.28098944,-0.68394667,0.13778043,0.0,1.0,0.0,0.0,0.0
275406161,275405465,0.28060058,-0.6834844,0.13802978,0.0,1.0,0.0,0.0,0.0
275409993,275409465,0.28339604,-0.68433934,0.13780874,0.0,1.0,0.0,0.0,0.0
275414049,275413483,0.28387707,-0.6832653,0.13781887,0.0,1.0,0.0,0.0,0.0
275418151,275417478,0.2832224,-0.68413496,0.13773966,0.0,1.0,0.0,0.0,0.0
275422041,275421465,0.2809394,-0.6833015,0.13792634,0.0,1.0,0.0,0.0,0.0
275426014,275425471,0.2814995,-0.68330663,0.13788788,0.0,1.0,0.0,0.0,0.0
275430023,275429464,0.28226143,-0.6835721,0.13789245,0.0,1.0,0.0,0.0,0.0
275434161,275433520,0.28380978,-0.68328476,0.13800503,0.0,1.0,0.0,0.0,0.0
275438026,275437465,0.28380388,-0.6841939,0.13808952,0.0,1.0,0.0,0.0,0.0
275442040,275441464,0.28224653,-0.6838748,0.13796103,0.0,1.0,0.0,0.0,0.0
275446023,275445470,0.28087562,-0.6837611,0.13788316,0.0,1.0,0.0,0.0,0.0
275449960,275449465,0.2809892,-0.6834688,0.1380049,0.0,1.0,0.0,0.0,0.0
275454058,275453475,0.28369182,-0.6841849,0.13806339,0.0,1.0,0.0,0.0,0.0
275458042,275457465,0.2842053,-0.68276906,0.13806216,0.0,1.0,0.0,0.0,0.0
275462041,275461465,0.28386623,-0.6839466,0.13779587,0.0,1.0,0.0,0.0,0.0
275466228,275465496,0.2818874,-0.6828798,0.13780092,0.0,1.0,0.0,0.0,0.0
275469971,275469465,0.28204274,-0.68331313,0.13794407,0.0,1.0,0.0,0.0,0.0
275474022,275473497,0.2820822,-0.6838388,0.13814163,0.0,1.0,0.0,0.0,0.0
275478175,275477476,0.28409287,-0.6836864,0.13784264,0.0,1.0,0.0,0.0,0.0
275481987,275481465,0.28406528,-0.68421185,0.13772196,0.0,1.0,0.0,0.0,0.0
275486001,275485485,0.2826518,-0.684326,0.13771555,0.0,1.0,0.0,0.0,0.0
275490066,275489465,0.28100315,-0.6837338,0.13763207,0.0,1.0,0.0,0.0,0.0
275493971,275493465,0.2811244,-0.6831969,0.1375861,0.0,1.0,0.0,0.0,0.0
275498018,275497477,0.283148,-0.68415487,0.13764818,0.0,1.0,0.0,0.0,0.0
275502194,275501465,0.28409505,-0.68317765,0.13758902,0.0,1.0,0.0,0.0,0.0
275506000,275505471,0.28364202,-0.684178,0.13771716,0.0,1.0,0.0,0.0,0.0
275510027,275509465,0.28159267,-0.6831473,0.1376312,0.0,1.0,0.0,0.0,0.0
275514060,275513467,0.28163436,-0.683685,0.13764277,0.0,1.0,0.0,0.0,0.0
275517978,275517477,0.28167534,-0.683529,0.1373996,0.0,1.0,0.0,0.0,0.0
275522023,275521464,0.28368452,-0.6837344,0.1372753,0.0,1.0,0.0,0.0,0.0
275526237,275525471,0.28394824,-0.6833149,0.13770822,0.0,1.0,0.0,0.0,0.0
275529975,275529465,0.2825863,-0.68382204,0.13750172,0.0,1.0,0.0,0.0,0.0
275533969,275533481,0.28078762,-0.6834047,0.13766941,0.0,1.0,0.0,0.0,0.0
275538019,275537465,0.28125957,-0.6839397,0.13749976,0.0,1.0,0.0,0.0,0.0
275542007,275541465,0.28314614,-0.6835312,0.13736382,0.0,1.0,0.0,0.0,0.0
275546032,275545464,0.28444546,-0.68315643,0.13745415,0.0,1.0,0.0,0.0,0.0
275550181,275549465,0.2842631,-0.68486893,0.13748771,0.0,1.0,0.0,0.0,0.0
275553959,275553481,0.2823626,-0.68383235,0.13752845,0.0,1.0,0.0,0.0,0.0
275558012,275557471,0.28178412,-0.68395585,0.13748787,0.0,1.0,0.0,0.0,0.0
275562170,275561505,0.28150493,-0.6837092,0.1374674,0.0,1.0,0.0,0.0,0.0
275566008,275565465,0.28384122,-0.6843191,0.13744433,0.0,1.0,0.0,0.0,0.0
275570059,275569494,0.28374517,-0.68308187,0.13764217,0.0,1.0,0.0,0.0,0.0
275574101,275573480,0.2830178,-0.68368477,0.13776982,0.0,1.0,0.0,0.0,0.0
275577968,275577471,0.280928,-0.6833331,0.13760848,0.0,1.0,0.0,0.0,0.0
275582018,275581477,0.28120595,-0.68342453,0.13755569,0.0,1.0,0.0,0.0,0.0
275586161,275585464,0.2825311,-0.6833803,0.13770324,0.0,1.0,0.0,0.0,0.0
275589981,275589464,0.28384435,-0.6829264,0.13770372,0.0,1.0,0.0,0.0,0.0
275594018,275593466,0.28404182,-0.6840899,0.13783017,0.0,1.0,0.0,0.0,0.0
275598062,275597471,0.28256005,-0.68309194,0.13787955,0.0,1.0,0.0,0.0,0.0
275602010,275601478,0.281259,-0.6836927,0.13782996,0.0,1.0,0.0,0.0,0.0
275606022,275605464,0.28115508,-0.6838033,0.13814084,0.0,1.0,0.0,0.0,0.0
275610175,275609464,0.28382018,-0.6838112,0.13808806,0.0,1.0,0.0,0.0,0.0
275613977,275613466,0.283852,-0.68276775,0.13783354,0.0,1.0,0.0,0.0,0.0
275618018,275617501,0.2832465,-0.6844758,0.13807021,0.0,1.0,0.0,0.0,0.0
275622297,275621497,0.28103262,-0.68327355,0.13808058,0.0,1.0,0.0,0.0,0.0
275625985,275625465,0.28167996,-0.68359864,0.13811605,0.0,1.0,0.0,0.0,0.0
275630050,275629471,0.28255215,-0.6835175,0.13797836,0.0,1.0,0.0,0.0,0.0
275634198,275633483,0.28414607,-0.683368,0.13772048,0.0,1.0,0.0,0.0,0.0
275637977,275637465,0.28445354,-0.68398196,0.13761564,0.0,1.0,0.0,0.0,0.0
275641983,275641500,0.2831071,-0.6836612,0.1375696,0.0,1.0,0.0,0.0,0.0
275646146,275645487,0.28166854,-0.6837703,0.13777688,0.0,1.0,0.0,0.0,0.0
275649184,275648709,0.28090054,-0.68329346,0.13784963,0.0,1.0,0.0,0.0,0.0
275654041,275653465,0.28307194,-0.6839657,0.13761136,0.0,1.0,0.0,0.0,0.0
275658057,275657465,0.28366545,-0.6833015,0.13765723,0.0,1.0,0.0,0.0,0.0
275661204,275660712,0.28302997,-0.6846229,0.13793951,0.0,1.0,0.0,0.0,0.0
275665223,275664665,0.28196055,-0.6832791,0.13777983,0.0,1.0,0.0,0.0,0.0
275669346,275668669,0.281438,-0.68402606,0.1376501,0.0,1.0,0.0,0.0,0.0
275673343,275672678,0.2808936,-0.6836,0.13762873,0.0,1.0,0.0,0.0,0.0
275677229,275676665,0.28324378,-0.68418956,0.13755138,0.0,1.0,0.0,0.0,0.0
275681234,275680680,0.28361636,-0.6831092,0.1375215,0.0,1.0,0.0,0.0,0.0
275685172,275684665,0.2828954,-0.68442905,0.13749625,0.0,1.0,0.0,0.0,0.0
275689162,275688679,0.28103468,-0.6833209,0.13740544,0.0,1.0,0.0,0.0,0.0
275693613,275692666,0.2812202,-0.68375874,0.13760184,0.0,1.0,0.0,0.0,0.0
275696388,275695903,0.28198093,-0.6838255,0.13750227,0.0,1.0,0.0,0.0,0.0
275701331,275700712,0.28363785,-0.6838067,0.13746005,0.0,1.0,0.0,0.0,0.0
275705344,275704665,0.28373715,-0.6837973,0.13749707,0.0,1.0,0.0,0.0,0.0
275709140,275708686,0.28250265,-0.68334055,0.13732646,0.0,1.0,0.0,0.0,0.0
275713263,275712687,0.28152663,-0.68318945,0.13726753,0.0,1.0,0.0,0.0,0.0
275717254,275716664,0.28115308,-0.6831176,0.13757129,0.0,1.0,0.0,0.0,0.0
275721262,275720671,0.28328305,-0.68387145,0.13762274,0.0,1.0,0.0,0.0,0.0
275725257,275724665,0.28342193,-0.68293524,0.13767157,0.0,1.0,0.0,0.0,0.0
275729254,275728684,0.28281796,-0.68431157,0.13784017,0.0,1.0,0.0,0.0,0.0
275733257,275732670,0.28017282,-0.6833022,0.13771744,0.0,1.0,0.0,0.0,0.0
275737217,275736665,0.28021386,-0.68372613,0.13759522,0.0,1.0,0.0,0.0,0.0
275741337,275740671,0.2807514,-0.68417597,0.13780075,0.0,1.0,0.0,0.0,0.0
275745211,275744665,0.2824853,-0.68367904,0.13780789,0.0,1.0,0.0,0.0,0.0
275749147,275748670,0.28263965,-0.6838611,0.13812728,0.0,1.0,0.0,0.0,0.0
275753337,275752670,0.2818123,-0.68393373,0.13821018,0.0,1.0,0.0,0.0,0.0
275757235,275756712,0.2805342,-0.6835534,0.13795473,0.0,1.0,0.0,0.0,0.0
275761227,275760665,0.28052905,-0.6835558,0.13777746,0.0,1.0,0.0,0.0,0.0
275765356,275764665,0.28258574,-0.6841118,0.1376957,0.0,1.0,0.0,0.0,0.0
275769137,275768670,0.28365958,-0.6829707,0.13802192,0.0,1.0,0.0,0.0,0.0
275773315,275772671,0.28325692,-0.68463665,0.13799594,0.0,1.0,0.0,0.0,0.0
275777342,275776666,0.28119108,-0.68371993,0.1378118,0.0,1.0,0.0,0.0,0.0
275781209,275780664,0.28133172,-0.6845674,0.13782395,0.0,1.0,0.0,0.0,0.0
275785319,275784699,0.2814615,-0.68404037,0.13785256,0.0,1.0,0.0,0.0,0.0
275789207,275788667,0.28319693,-0.6844177,0.13790223,0.0,1.0,0.0,0.0,0.0
275793212,275792675,0.28366637,-0.6848087,0.13795596,0.0,1.0,0.0,0.0,0.0
275797255,275796716,0.2828759,-0.6846112,0.13773695,0.0,1.0,0.0,0.0,0.0
275801333,275800665,0.28110728,-0.6837128,0.13756216,0.0,1.0,0.0,0.0,0.0
275805231,275804665,0.28098962,-0.68325245,0.13780923,0.0,1.0,0.0,0.0,0.0
275809231,275808712,0.2825053,-0.683917,0.13762279,0.0,1.0,0.0,0.0,0.0
275813400,275812711,0.28331974,-0.6834536,0.13752037,0.0,1.0,0.0,0.0,0.0
275817136,275816669,0.28327236,-0.68468726,0.1374524,0.0,1.0,0.0,0.0,0.0
275821216,275820665,0.28168988,-0.68368334,0.13747838,0.0,1.0,0.0,0.0,0.0
275825356,275824665,0.28127334,-0.6839941,0.13722931,0.0,1.0,0.0,0.0,0.0
275829199,275828689,0.28103784,-0.6837754,0.13749544,0.0,1.0,0.0,0.0,0.0
275833329,275832671,0.28267828,-0.6838466,0.13748781,0.0,1.0,0.0,0.0,0.0
275837398,275836711,0.28275535,-0.6829838,0.13726677,0.0,1.0,0.0,0.0,0.0
275841226,275840667,0.28242114,-0.68394697,0.13746317,0.0,1.0,0.0,0.0,0.0
275845259,275844671,0.2806346,-0.6827879,0.13728014,0.0,1.0,0.0,0.0,0.0
275849340,275848664,0.28079188,-0.6830815,0.1372847,0.0,1.0,0.0,0.0,0.0
275853215,275852664,0.28181484,-0.6832732,0.13709652,0.0,1.0,0.0,0.0,0.0
275857245,275856695,0.28283456,-0.6829008,0.13717774,0.0,1.0,0.0,0.0,0.0
275861369,275860665,0.28283566,-0.6838365,0.1373049,0.0,1.0,0.0,0.0,0.0
275865329,275864671,0.28163466,-0.68322366,0.1374241,0.0,1.0,0.0,0.0,0.0
275869317,275868699,0.28128752,-0.6834558,0.13743672,0.0,1.0,0.0,0.0,0.0
275873383,275872665,0.28066206,-0.6830402,0.13737357,0.0,1.0,0.0,0.0,0.0
275877174,275876686,0.28269053,-0.683676,0.1374719,0.0,1.0,0.0,0.0,0.0
275881205,275880687,0.28274533,-0.6827165,0.13742624,0.0,1.0,0.0,0.0,0.0
275885381,275884672,0.28317523,-0.683242,0.13773823,0.0,1.0,0.0,0.0,0.0
275889190,275888665,0.28069955,-0.6828243,0.1517883,0.0,1.0,0.0,0.0,0.0
275893248,275892665,0.28075862,-0.68367636,0.1517907,0.0,1.0,0.0,0.0,0.0
275897235,275896673,0.28142494,-0.68348163,0.15182067,0.0,1.0,0.0,0.0,0.0
275901167,275900680,0.28277218,-0.68353534,0.15178098,0.0,1.0,0.0,0.0,0.0
275905366,275904671,0.2828992,-0.68444693,0.15177429,0.0,1.0,0.0,0.0,0.0
275909263,275908665,0.2819979,-0.6840995,0.15203954,0.0,1.0,0.0,0.0,0.0
275913243,275912665,0.28120193,-0.7815772,0.22741154,0.0,1.0,0.0,0.0,0.0
275917221,275916711,0.2809469,-0.781243,0.2274266,0.0,1.0,0.0,0.0,0.0
275921238,275920670,0.2825358,-0.7816149,0.22739255,0.0,1.0,0.0,0.0,0.0
275925239,275924674,0.28299308,-0.7809475,0.2274926,0.0,1.0,0.0,0.0,0.0
275929211,275928665,0.2830396,-0.78170264,0.22764957,0.0,1.0,0.0,0.0,0.0
275933253,275932664,0.281012,-1.0,0.36116308,0.0,1.0,0.0,0.0,0.0
275937443,275936718,0.28070676,-1.0,0.3610755,0.0,1.0,0.0,0.0,0.0
275941204,275940672,0.28119814,-1.0,0.36125287,0.0,1.0,0.0,0.0,0.0
275945253,275944686,0.2823592,-1.0,0.36144298,0.0,1.0,0.0,0.0,0.0
275949374,275948665,0.2828074,-1.0,0.361396,0.0,1.0,0.0,0.0,0.0
275953349,275952706,0.2823036,-1.0,0.3614108,0.0,1.0,0.0,0.0,0.0
275957177,275956681,0.2809686,-1.0,0.45871207,0.0,1.0,0.0,0.0,0.0
275961234,275960665,0.2807649,-1.0,0.45888823,0.0,1.0,0.0,0.0,0.0
275965259,275964720,0.2820859,-1.0,0.45895594,0.0,1.0,0.0,0.0,0.0
275969246,275968665,0.28368893,-1.0,0.4589862,0.0,1.0,0.0,0.0,0.0
275973383,275972665,0.28372106,-1.0,0.45918316,0.0,1.0,0.0,0.0,0.0
275977259,275976704,0.28214204,-1.0,0.4587086,0.0,1.0,0.0,0.0,0.0
275981201,275980699,0.2813098,-1.0,0.50572985,0.0,1.0,0.0,0.0,0.0
275985385,275984715,0.28166854,-1.0,0.5058009,0.0,1.0,0.0,0.0,0.0
275989229,275988665,0.28247932,-1.0,0.505771,0.0,1.0,0.0,0.0,0.0
275993218,275992665,0.283017,-1.0,0.50567913,0.0,1.0,0.0,0.0,0.0
275997375,275996671,0.28334388,-1.0,0.5056514,0.0,1.0,0.0,0.0,0.0
276001170,276000665,0.2813164,-1.0,0.5054687,0.0,1.0,0.0,0.0,0.0
276004388,276003911,0.28084883,-1.0,0.55151767,0.0,1.0,0.0,0.0,0.0
276008625,276007871,0.28211412,-1.0,0.55148923,0.0,1.0,0.0,0.0,0.0
276012452,276011865,0.28329006,-1.0,0.55119,0.0,1.0,0.0,0.0,0.0
276016432,276015865,0.28354433,-1.0,0.5512333,0.0,1.0,0.0,0.0,0.0
276020460,276019865,0.283137,-1.0,0.551014,0.0,1.0,0.0,0.0,0.0
276024372,276023888,0.28156236,-1.0,0.551051,0.0,1.0,0.0,0.0,0.0
276028451,276027871,0.28094125,-1.0,0.5719722,0.0,1.0,0.0,0.0,0.0
276032549,276031910,0.28196192,-1.0,0.572034,0.0,1.0,0.0,0.0,0.0
276036444,276035865,0.28288564,-1.0,0.57191885,0.0,1.0,0.0,0.0,0.0
276040428,276039865,0.28326175,-1.0,0.5720202,0.0,1.0,0.0,0.0,0.0
276044501,276043865,0.28188476,-1.0,0.57199395,0.0,1.0,0.0,0.0,0.0
276048443,276047871,0.2812895,-1.0,0.5717149,0.0,1.0,0.0,0.0,0.0
276052380,276051914,0.28161725,-1.0,0.5603167,0.0,1.0,0.0,0.0,0.0
276056582,276055864,0.28326204,-1.0,0.5602352,0.0,1.0,0.0,0.0,0.0
276060457,276059871,0.28369358,-1.0,0.56037796,0.0,1.0,0.0,0.0,0.0
276064433,276063864,0.2836172,-1.0,0.5603742,0.0,1.0,0.0,0.0,0.0
276068594,276067866,0.28202486,-1.0,0.5601357,0.0,1.0,0.0,0.0,0.0
276072412,276071923,0.28150746,-1.0,0.5602235,0.0,1.0,0.0,0.0,0.0
276076426,276075865,0.28220782,-1.0,0.55014086,0.0,1.0,0.0,0.0,0.0
276080559,276079871,0.2834595,-1.0,0.5497941,0.0,1.0,0.0,0.0,0.0
276084417,276083865,0.28387618,-1.0,0.55011714,0.0,1.0,0.0,0.0,0.0
276088446,276087888,0.28286952,-1.0,0.5501202,0.0,1.0,0.0,0.0,0.0
276092424,276091895,0.28237614,-1.0,0.5496935,0.0,1.0,0.0,0.0,0.0
276096410,276095865,0.28269848,-1.0,0.5498059,0.0,1.0,0.0,0.0,0.0
276100448,276099889,0.2837844,-1.0,0.52702403,0.0,1.0,0.0,0.0,0.0
276104566,276103865,0.28418028,-1.0,0.52732086,0.0,1.0,0.0,0.0,0.0
276108593,276107864,0.28435835,-1.0,0.5272385,0.0,1.0,0.0,0.0,0.0
276112390,276111876,0.28240335,-1.0,0.5271566,0.0,1.0,0.0,0.0,0.0
276116458,276115887,0.28113443,-1.0,0.5270894,0.0,1.0,0.0,0.0,0.0
276120538,276119871,0.28147072,-1.0,0.5270711,0.0,1.0,0.0,0.0,0.0
276124434,276123865,0.2826437,-1.0,0.46056136,0.0,1.0,0.0,0.0,0.0
276128576,276127865,0.28318256,-1.0,0.4608699,0.0,1.0,0.0,0.0,0.0
276132399,276131881,0.2823372,-1.0,0.46060467,0.0,1.0,0.0,0.0,0.0
276136402,276135887,0.28133935,-1.0,0.46044284,0.0,1.0,0.0,0.0,0.0
276140453,276139882,0.28147465,-1.0,0.4605953,0.0,1.0,0.0,0.0,0.0
276144560,276143865,0.28266504,-1.0,0.4607769,0.0,1.0,0.0,0.0,0.0
276148541,276147865,0.28368104,-1.0,0.35505137,0.0,1.0,0.0,0.0,0.0
276152416,276151887,0.2840852,-1.0,0.35532978,0.0,1.0,0.0,0.0,0.0
276156454,276155883,0.28263655,-1.0,0.3549961,0.0,1.0,0.0,0.0,0.0
276160357,276159866,0.281413,-1.0,0.35531348,0.0,1.0,0.0,0.0,0.0
276164460,276163864,0.28197807,-1.0,0.35515857,0.0,1.0,0.0,0.0,0.0
276168604,276167864,0.28377324,-1.0,0.35516196,0.0,1.0,0.0,0.0,0.0
276172373,276171899,0.28808376,-1.0,0.23502693,0.0,1.0,0.0,0.0,0.0
276176459,276175871,0.287542,-1.0,0.23488006,0.0,1.0,0.0,0.0,0.0
276180455,276179882,0.2865661,-1.0,0.23441201,0.0,1.0,0.0,0.0,0.0
276184406,276183865,0.2865618,-1.0,0.23451346,0.0,1.0,0.0,0.0,0.0
276188603,276187865,0.28693774,-1.0,0.23451948,0.0,1.0,0.0,0.0,0.0
276192385,276191871,0.2877983,-1.0,0.23439434,0.0,1.0,0.0,0.0,0.0
276196387,276195872,0.293034,-0.7529043,0.14544438,0.0,1.0,0.0,0.0,0.0
276200493,276199917,0.29099452,-0.7522248,0.14522289,0.0,1.0,0.0,0.0,0.0
276204440,276203865,0.28935683,-0.75318795,0.14520217,0.0,1.0,0.0,0.0,0.0
276208565,276207865,0.28991577,-0.7531829,0.14506175,0.0,1.0,0.0,0.0,0.0
276212615,276211871,0.29066435,-0.7541327,0.1450608,0.0,1.0,0.0,0.0,0.0
276216369,276215865,0.29102156,-0.754174,0.14529274,0.0,1.0,0.0,0.0,0.0
276220352,276219874,0.2885556,-0.64567804,0.12000395,0.0,1.0,0.0,0.0,0.0
276224458,276223865,0.28745747,-0.64557695,0.119627774,0.0,1.0,0.0,0.0,0.0
276228566,276227865,0.28746173,-0.6449436,0.11967075,0.0,1.0,0.0,0.0,0.0
276232339,276231865,0.28785127,-0.6442523,0.11988501,0.0,1.0,0.0,0.0,0.0
276236454,276235864,0.289192,-0.6448267,0.11987239,0.0,1.0,0.0,0.0,0.0
276240399,276239865,0.2898631,-0.64470303,0.12016338,0.0,1.0,0.0,0.0,0.0
276244463,276243871,0.2832289,-0.6556691,0.1295001,0.0,1.0,0.0,0.0,0.0
276248720,276247865,0.28177565,-0.6561724,0.12907389,0.0,1.0,0.0,0.0,0.0
276252416,276251865,0.28235435,-0.6560217,0.12924808,0.0,1.0,0.0,0.0,0.0
276256384,276255865,0.28337103,-0.656418,0.12930672,0.0,1.0,0.0,0.0,0.0
276260414,276259873,0.28437516,-0.65649307,0.12952575,0.0,1.0,0.0,0.0,0.0
276264447,276263871,0.28508216,-0.65668416,0.12934625,0.0,1.0,0.0,0.0,0.0
276267607,276267114,0.2821579,-0.68913543,0.1486903,0.0,1.0,0.0,0.0,0.0
276271805,276271065,0.28143138,-0.68872565,0.14894512,0.0,1.0,0.0,0.0,0.0
276275787,276275063,0.28161427,-0.68807924,0.14892414,0.0,1.0,0.0,0.0,0.0
276278848,276278307,0.28271747,-0.6886692,0.14850628,0.0,1.0,0.0,0.0,0.0
276283738,276283114,0.28298223,-0.68831223,0.14865932,0.0,1.0,0.0,0.0,0.0
276286823,276286333,0.28240335,-0.6889547,0.14881764,0.0,1.0,0.0,0.0,0.0
276291631,276291083,0.28091824,-0.75594044,0.19687034,0.0,1.0,0.0,0.0,0.0
276295955,276295091,0.28058666,-0.75631636,0.19703166,0.0,1.0,0.0,0.0,0.0
276299735,276299065,0.28034958,-0.7560733,0.19698544,0.0,1.0,0.0,0.0,0.0
276303636,276303114,0.28179044,-0.75612074,0.19698185,0.0,1.0,0.0,0.0,0.0
276307649,276307085,0.2824911,-0.75596166,0.19705111,0.0,1.0,0.0,0.0,0.0
276311752,276311065,0.281744,-0.75537753,0.19708541,0.0,1.0,0.0,0.0,0.0
276315776,276315071,0.28060064,-0.92989814,0.29397577,0.0,1.0,0.0,0.0,0.0
276319721,276319065,0.28122887,-0.92954177,0.2942696,0.0,1.0,0.0,0.0,0.0
276323797,276323114,0.28221574,-0.9299315,0.29438663,0.0,1.0,0.0,0.0,0.0
276327576,276327099,0.28237396,-0.9300167,0.29450727,0.0,1.0,0.0,0.0,0.0
276331720,276331066,0.28272092,-0.93044144,0.29462767,0.0,1.0,0.0,0.0,0.0
276335771,276335071,0.28138593,-0.92978466,0.29435664,0.0,1.0,0.0,0.0,0.0
276339631,276339064,0.28148764,-1.0,0.43006346,0.0,1.0,0.0,0.0,0.0
276343792,276343117,0.28150052,-1.0,0.4301606,0.0,1.0,0.0,0.0,0.0
276347765,276347111,0.2834938,-1.0,0.42991975,0.0,1.0,0.0,0.0,0.0
276351596,276351087,0.28422785,-1.0,0.43024752,0.0,1.0,0.0,0.0,0.0
276355904,276355079,0.2837441,-1.0,0.43004328,0.0,1.0,0.0,0.0,0.0
276359637,276359065,0.28216553,-1.0,0.42989293,0.0,1.0,0.0,0.0,0.0
276363673,276363114,0.28222007,-1.0,0.5505381,0.0,1.0,0.0,0.0,0.0
276367641,276367096,0.28299144,-1.0,0.55050904,0.0,1.0,0.0,0.0,0.0
276371585,276371073,0.28338596,-1.0,0.5504151,0.0,1.0,0.0,0.0,0.0
276375783,276375089,0.28369996,-1.0,0.5503299,0.0,1.0,0.0,0.0,0.0
276379753,276379065,0.2822302,-1.0,0.5502669,0.0,1.0,0.0,0.0,0.0
276383786,276383114,0.28123033,-1.0,0.5500937,0.0,1.0,0.0,0.0,0.0
276387611,276387071,0.2809752,-1.0,0.61159647,0.0,1.0,0.0,0.0,0.0
276391649,276391070,0.28205076,-1.0,0.6116767,0.0,1.0,0.0,0.0,0.0
276396019,276395077,0.2829345,-1.0,0.6118315,0.0,1.0,0.0,0.0,0.0
276399617,276399065,0.28242046,-1.0,0.61179274,0.0,1.0,0.0,0.0,0.0
276403787,276403114,0.28076908,-1.0,0.61149555,0.0,1.0,0.0,0.0,0.0
276407603,276407071,0.2808973,-1.0,0.6115635,0.0,1.0,0.0,0.0,0.0
276411613,276411065,0.28112853,-1.0,0.6181306,0.0,1.0,0.0,0.0,0.0
276416018,276415081,0.28238314,-1.0,0.6181295,0.0,1.0,0.0,0.0,0.0
276419646,276419064,0.28313482,-1.0,0.6181562,0.0,1.0,0.0,0.0,0.0
276423744,276423116,0.28268278,-1.0,0.61804104,0.0,1.0,0.0,0.0,0.0
276427960,276427071,0.2814987,-1.0,0.6181474,0.0,1.0,0.0,0.0,0.0
276431566,276431064,0.281473,-1.0,0.61801064,0.0,1.0,0.0,0.0,0.0
276435978,276435112,0.28329778,-1.0,0.6045288,0.0,1.0,0.0,0.0,0.0
276439779,276439065,0.28431508,-1.0,0.60478765,0.0,1.0,0.0,0.0,0.0
276443612,276443065,0.28415945,-1.0,0.60477674,0.0,1.0,0.0,0.0,0.0
276447781,276447072,0.28218138,-1.0,0.60440534,0.0,1.0,0.0,0.0,0.0
276451619,276451064,0.28226554,-1.0,0.6045529,0.0,1.0,0.0,0.0,0.0
276455937,276455111,0.2816358,-1.0,0.6044791,0.0,1.0,0.0,0.0,0.0
276459762,276459090,0.28286844,-1.0,0.59696627,0.0,1.0,0.0,0.0,0.0
276463807,276463100,0.28341866,-1.0,0.5971742,0.0,1.0,0.0,0.0,0.0
276467923,276467065,0.2826485,-1.0,0.597125,0.0,1.0,0.0,0.0,0.0
276471582,276471066,0.28075695,-1.0,0.59696317,0.0,1.0,0.0,0.0,0.0
276476033,276475115,0.28066006,-1.0,0.5970158,0.0,1.0,0.0,0.0,0.0
276479779,276479072,0.28146967,-1.0,0.59713954,0.0,1.0,0.0,0.0,0.0
276483612,276483067,0.28220597,-1.0,0.58202386,0.0,1.0,0.0,0.0,0.0
276487962,276487065,0.28257596,-1.0,0.58207357,0.0,1.0,0.0,0.0,0.0
276491594,276491064,0.2808814,-1.0,0.58202577,0.0,1.0,0.0,0.0,0.0
276495983,276495100,0.28035313,-1.0,0.58204794,0.0,1.0,0.0,0.0,0.0
276499752,276499071,0.28038165,-1.0,0.5823559,0.0,1.0,0.0,0.0,0.0
276503752,276503088,0.28174058,-1.0,0.5824265,0.0,1.0,0.0,0.0,0.0
276507619,276507065,0.2829003,-1.0,0.5223472,0.0,1.0,0.0,0.0,0.0
276511796,276511065,0.282938,-1.0,0.52219576,0.0,1.0,0.0,0.0,0.0
276515991,276515086,0.28143147,-1.0,0.5221623,0.0,1.0,0.0,0.0,0.0
276519598,276519076,0.2817981,-1.0,0.52230126,0.0,1.0,0.0,0.0,0.0
276523807,276523090,0.28294536,-1.0,0.52225757,0.0,1.0,0.0,0.0,0.0
276527611,276527064,0.28435588,-1.0,0.5223185,0.0,1.0,0.0,0.0,0.0
276531646,276531071,0.2847967,-1.0,0.41004032,0.0,1.0,0.0,0.0,0.0
276536051,276535065,0.2832343,-1.0,0.40975314,0.0,1.0,0.0,0.0,0.0
276539619,276539070,0.2825217,-1.0,0.40978053,0.0,1.0,0.0,0.0,0.0
276543699,276543096,0.28172573,-1.0,0.409764,0.0,1.0,0.0,0.0,0.0
276547788,276547065,0.28309628,-1.0,0.40957665,0.0,1.0,0.0,0.0,0.0
276551659,276551071,0.2833231,-1.0,0.40968314,0.0,1.0,0.0,0.0,0.0
276555972,276555065,0.2834674,-0.95161766,0.27373517,0.0,1.0,0.0,0.0,0.0
276558980,276558312,0.28069425,-0.95087475,0.27334246,0.0,1.0,0.0,0.0,0.0
276562816,276562297,0.28150985,-0.9518826,0.27335244,0.0,1.0,0.0,0.0,0.0
276566793,276566265,0.28105545,-0.9516716,0.27316213,0.0,1.0,0.0,0.0,0.0
276570048,276569532,0.2825018,-0.95317745,0.27330598,0.0,1.0,0.0,0.0,0.0
276574946,276574265,0.283231,-0.9525645,0.2734329,0.0,1.0,0.0,0.0,0.0
276578808,276578299,0.28309727,-0.7214341,0.16224095,0.0,1.0,0.0,0.0,0.0
276582860,276582306,0.2813342,-0.72105664,0.16224673,0.0,1.0,0.0,0.0,0.0
276586802,276586282,0.28149253,-0.7207705,0.16231906,0.0,1.0,0.0,0.0,0.0
276590845,276590277,0.282343,-0.7212425,0.16246708,0.0,1.0,0.0,0.0,0.0
276594861,276594265,0.28326526,-0.6445598,0.11978241,0.0,1.0,0.0,0.0,0.0
276598801,276598299,0.2838373,-0.64462507,0.1198541,0.0,1.0,0.0,0.0,0.0
276602786,276602271,0.28257763,-0.6443302,0.119379155,0.0,1.0,0.0,0.0,0.0
276606854,276606279,0.2826109,-0.64444137,0.119430445,0.0,1.0,0.0,0.0,0.0
276610868,276610277,0.28219232,-0.64427155,0.11936226,0.0,1.0,0.0,0.0,0.0
276614834,276614265,0.2838259,-0.646073,0.119475625,0.0,1.0,0.0,0.0,0.0
276619115,276618316,0.2850243,-0.6625357,0.12572911,0.0,1.0,0.0,0.0,0.0
276622815,276622271,0.28538394,-0.6630998,0.12533897,0.0,1.0,0.0,0.0,0.0
276626814,276626279,0.28276005,-0.66247934,0.1250538,0.0,1.0,0.0,0.0,0.0
276630904,276630286,0.282492,-0.66200966,0.12507334,0.0,1.0,0.0,0.0,0.0
276634850,276634265,0.2823647,-0.66177297,0.12506145,0.0,1.0,0.0,0.0,0.0
276638955,276638307,0.28334537,-0.6834324,0.13558732,0.0,1.0,0.0,0.0,0.0
276642849,276642271,0.28355125,-0.6828022,0.13572522,0.0,1.0,0.0,0.0,0.0
276646797,276646271,0.2823106,-0.68285996,0.13541767,0.0,1.0,0.0,0.0,0.0
276650816,276650285,0.2815277,-0.68290144,0.13555661,0.0,1.0,0.0,0.0,0.0
276654956,276654271,0.28076452,-0.6828414,0.13581084,0.0,1.0,0.0,0.0,0.0
276658964,276658336,0.2819602,-0.6848317,0.13579853,0.0,1.0,0.0,0.0,0.0
276662800,276662265,0.28298137,-0.68829453,0.13874033,0.0,1.0,0.0,0.0,0.0
276666854,276666275,0.28346312,-0.6889458,0.13886985,0.0,1.0,0.0,0.0,0.0
276670778,276670288,0.28128406,-0.6880565,0.13872519,0.0,1.0,0.0,0.0,0.0
276674823,276674271,0.28164417,-0.6874129,0.13888279,0.0,1.0,0.0,0.0,0.0
276678971,276678296,0.2818919,-0.68781155,0.13914523,0.0,1.0,0.0,0.0,0.0
276682786,276682265,0.2830862,-0.6880572,0.13907886,0.0,1.0,0.0,0.0,0.0
276686797,276686265,0.28380874,-0.68440324,0.13856412,0.0,1.0,0.0,0.0,0.0
276690845,276690317,0.28335947,-0.6848573,0.1382389,0.0,1.0,0.0,0.0,0.0
276694837,276694272,0.28274077,-0.68497586,0.1379963,0.0,1.0,0.0,0.0,0.0
276698844,276698318,0.28202537,-0.68451977,0.1382741,0.0,1.0,0.0,0.0,0.0
276702944,276702265,0.283466,-0.68586975,0.13833539,0.0,1.0,0.0,0.0,0.0
276706793,276706265,0.28464544,-0.6852263,0.1384927,0.0,1.0,0.0,0.0,0.0
276710791,276710312,0.2854591,-0.68398446,0.13757221,0.0,1.0,0.0,0.0,0.0
276714969,276714271,0.28301176,-0.68315965,0.13720535,0.0,1.0,0.0,0.0,0.0
276718869,276718325,0.28253368,-0.68292266,0.13742863,0.0,1.0,0.0,0.0,0.0
276722807,276722265,0.2820623,-0.68304014,0.13738643,0.0,1.0,0.0,0.0,0.0
