timestamp,roll,pitch,yaw,thrust_body[0],thrust_body[1],thrust_body[2]
273395571,0.094137296,-0.30463248,-0.011476336,0.0,0.0,0.0
273399561,0.09399216,-0.3046304,-0.011458548,0.0,0.0,0.0
273403602,0.09400488,-0.30462494,-0.0114598945,0.0,0.0,0.0
273407510,0.09407346,-0.3045886,-0.011466893,0.0,0.0,0.0
273411535,0.094083875,-0.3046017,-0.011468658,0.0,0.0,0.0
273415753,0.094047874,-0.30462754,-0.011465238,0.0,0.0,0.0
273419532,0.09396292,-0.3046307,-0.011454991,0.0,0.0,0.0
273423509,0.09393889,-0.30469754,-0.011454571,0.0,0.0,0.0
273427668,0.09400101,-0.30470183,-0.011462314,0.0,0.0,0.0
273431507,0.09414502,-0.30475003,-0.011481708,0.0,0.0,0.0
273435553,0.09408704,-0.30476198,-0.011475079,0.0,0.0,0.0
273439611,0.09399123,-0.30477762,-0.011463972,0.0,0.0,0.0
273443591,0.09381865,-0.3047661,-0.011442469,0.0,0.0,0.0
273447582,0.093865655,-0.30479836,-0.01144942,0.0,0.0,0.0
273451577,0.09395476,-0.3047895,-0.011459965,0.0,0.0,0.0
273455590,0.09405007,-0.30480808,-0.0114723025,0.0,0.0,0.0
273459559,0.094070956,-0.3047905,-0.01147419,0.0,0.0,0.0
273463796,0.09404395,-0.30475527,-0.011469566,0.0,0.0,0.0
273467546,0.094058156,-0.30479556,-0.011472818,0.0,0.0,0.0
273471529,0.094197296,-0.30480653,-0.011490218,0.0,0.0,0.0
273475610,0.09442173,-0.3048305,-0.011518527,0.0,0.0,0.0
273479609,0.0944597,-0.30483183,-0.011523213,0.0,0.0,0.0
273483556,0.094414145,-0.30486593,-0.0115189385,0.0,0.0,0.0
273487612,0.0942992,-0.30485675,-0.011504554,0.0,0.0,0.0
273491507,0.09431364,-0.30489725,-0.011507847,0.0,0.0,0.0
273495550,0.094383255,-0.304872,-0.011515398,0.0,0.0,0.0
273499640,0.09452588,-0.304875,-0.011532927,0.0,0.0,0.0
273503610,0.0944964,-0.30483872,-0.011527956,0.0,0.0,0.0
273507498,0.09437112,-0.30481344,-0.011511703,0.0,0.0,0.0
273511599,0.09422361,-0.30482805,-0.011494243,0.0,0.0,0.0
273515507,0.09423972,-0.3048301,-0.011496289,0.0,0.0,0.0
273519600,0.09434574,-0.3048451,-0.011509799,0.0,0.0,0.0
273523658,0.09431396,-0.3048225,-0.0115050655,0.0,0.0,0.0
273527626,0.094205715,-0.3048115,-0.011491435,0.0,0.0,0.0
273531504,0.09403694,-0.30477422,-0.011469424,0.0,0.0,0.0
273535647,0.09400536,-0.30481118,-0.0114669595,0.0,0.0,0.0
273539563,0.09406195,-0.3047623,-0.011472029,0.0,0.0,0.0
273543586,0.09426094,-0.30478734,-0.011497265,0.0,0.0,0.0
273547624,0.094301045,-0.30477902,-0.011501849,0.0,0.0,0.0
273551643,0.094225526,-0.30476353,-0.011492045,0.0,0.0,0.0
273554697,0.09411592,-0.3047727,-0.011479009,0.0,0.0,0.0
273558929,0.09418951,-0.30482405,-0.01148993,0.0,0.0,0.0
273562703,0.09430153,-0.3047955,-0.0115025295,0.0,0.0,0.0
273566752,0.09441477,-0.30481958,-0.011517264,0.0,0.0,0.0
273570799,0.09437432,-0.3048075,-0.01151187,0.0,0.0,0.0
273574708,0.09424157,-0.30478838,-0.01149494,0.0,0.0,0.0
273578731,0.094132766,-0.3048224,-0.011482937,0.0,0.0,0.0
273582840,0.09420065,-0.3048141,-0.011490914,0.0,0.0,0.0
273586776,0.09437127,-0.3048077,-0.011511504,0.0,0.0,0.0
273590740,0.094425805,-0.30479154,-0.011517552,0.0,0.0,0.0
273594832,0.09434433,-0.30475938,-0.011506392,0.0,0.0,0.0
273598712,0.09418468,-0.30472338,-0.011485545,0.0,0.0,0.0
273602658,0.094181016,-0.3047642,-0.0114866365,0.0,0.0,0.0
273606817,0.09425163,-0.3047399,-0.011494339,0.0,0.0,0.0
273610752,0.094380334,-0.30477646,-0.011511431,0.0,0.0,0.0
273614766,0.094388865,-0.3047708,-0.011512258,0.0,0.0,0.0
273618819,0.094316415,-0.3047977,-0.01150443,0.0,0.0,0.0
273622698,0.09424155,-0.30483058,-0.01149653,0.0,0.0,0.0
273626755,0.094354,-0.30482352,-0.011509993,0.0,0.0,0.0
273630815,0.09455777,-0.30483598,-0.011535345,0.0,0.0,0.0
273634743,0.09467046,-0.3048296,-0.011548864,0.0,0.0,0.0
273638736,0.09465423,-0.3048364,-0.011547141,0.0,0.0,0.0
273642810,0.094539985,-0.30482244,-0.011532662,0.0,0.0,0.0
273646727,0.094528176,-0.30487913,-0.011533365,0.0,0.0,0.0
273650697,0.09459989,-0.30486932,-0.011541751,0.0,0.0,0.0
273654818,0.09476445,-0.30491605,-0.011563619,0.0,0.0,0.0
273658755,0.09482083,-0.3049239,-0.011570804,0.0,0.0,0.0
273662702,0.09476456,-0.30494416,-0.011564699,0.0,0.0,0.0
273666780,0.094656736,-0.3049926,-0.011553363,0.0,0.0,0.0
273670716,0.094716325,-0.30502722,-0.011561955,0.0,0.0,0.0
273674744,0.0948972,-0.30500507,-0.011583215,0.0,0.0,0.0
273678861,0.095015794,-0.30497414,-0.011596528,0.0,0.0,0.0
273682709,0.09500951,-0.30496716,-0.011595496,0.0,0.0,0.0
273686712,0.09488716,-0.30493087,-0.01157917,0.0,0.0,0.0
273690807,0.094795085,-0.30492952,-0.011567873,0.0,0.0,0.0
273694742,0.094833516,-0.30489996,-0.011571445,0.0,0.0,0.0
273698798,0.095003486,-0.30491537,-0.0115927905,0.0,0.0,0.0
273702785,0.09508394,-0.30489743,-0.011601934,0.0,0.0,0.0
273706714,0.09503867,-0.3048931,-0.01159624,0.0,0.0,0.0
273710720,0.094884664,-0.30488908,-0.011577278,0.0,0.0,0.0
273714836,0.09490681,-0.30491984,-0.011581151,0.0,0.0,0.0
273718783,0.095030285,-0.30489123,-0.011595145,0.0,0.0,0.0
273722806,0.09513884,-0.30488244,-0.011608068,0.0,0.0,0.0
273726799,0.09507933,-0.30484587,-0.01159941,0.0,0.0,0.0
273730751,0.09490452,-0.30481106,-0.011576741,0.0,0.0,0.0
273734815,0.094755456,-0.30484062,-0.011559661,0.0,0.0,0.0
273738788,0.09474679,-0.30483738,-0.01155848,0.0,0.0,0.0
273742693,0.09490087,-0.30486745,-0.011578436,0.0,0.0,0.0
273746784,0.09498865,-0.3048548,-0.011588676,0.0,0.0,0.0
273750732,0.09493078,-0.30484596,-0.011581274,0.0,0.0,0.0
273754779,0.094796054,-0.30483973,-0.011564584,0.0,0.0,0.0
273758842,0.09484397,-0.30487728,-0.011571861,0.0,0.0,0.0
273762713,0.094988875,-0.30487657,-0.011589531,0.0,0.0,0.0
273766740,0.09514482,-0.30490643,-0.011609714,0.0,0.0,0.0
273770793,0.09514773,-0.30489215,-0.011609525,0.0,0.0,0.0
273774774,0.095041335,-0.3048974,-0.011596729,0.0,0.0,0.0
273778781,0.09491224,-0.30492738,-0.011582101,0.0,0.0,0.0
273782806,0.09492051,-0.30491486,-0.011582635,0.0,0.0,0.0
273786717,0.09505722,-0.30490163,-0.011598831,0.0,0.0,0.0
273790694,0.09513814,-0.30490077,-0.011608683,0.0,0.0,0.0
273794815,0.0950654,-0.30486733,-0.011598525,0.0,0.0,0.0
273798843,0.09491156,-0.30486035,-0.011579472,0.0,0.0,0.0
273802785,0.09488726,-0.30488563,-0.011577465,0.0,0.0,0.0
273806756,0.09498027,-0.304866,-0.011588078,0.0,0.0,0.0
273810693,0.095105074,-0.3048937,-0.011604374,0.0,0.0,0.0
273814845,0.095147155,-0.3048837,-0.0116091315,0.0,0.0,0.0
273818842,0.09503749,-0.30486965,-0.0115952045,0.0,0.0,0.0
273822760,0.0948887,-0.30491412,-0.011578723,0.0,0.0,0.0
273826786,0.09489548,-0.304942,-0.01158061,0.0,0.0,0.0
273830663,0.09504865,-0.30493292,-0.011598974,0.0,0.0,0.0
273834729,0.095158,-0.3049397,-0.01161259,0.0,0.0,0.0
273838955,0.09508134,-0.30491465,-0.011602272,0.0,0.0,0.0
273842735,0.09493157,-0.3049053,-0.0115836235,0.0,0.0,0.0
273846807,0.09483076,-0.30491453,-0.011571661,0.0,0.0,0.0
273850737,0.09491027,-0.30487913,-0.011580029,0.0,0.0,0.0
273854738,0.09507794,-0.30488205,-0.011600616,0.0,0.0,0.0
273858860,0.09516109,-0.30487788,-0.011610613,0.0,0.0,0.0
273862813,0.09506058,-0.3048718,-0.0115981065,0.0,0.0,0.0
273866780,0.09488099,-0.30487737,-0.011576385,0.0,0.0,0.0
273870743,0.094855234,-0.30490032,-0.011574111,0.0,0.0,0.0
273874756,0.09496358,-0.30487484,-0.0115863765,0.0,0.0,0.0
273877887,0.09501431,-0.30487394,-0.011592536,0.0,0.0,0.0
273882749,0.09495936,-0.30486315,-0.011585416,0.0,0.0,0.0
273886832,0.09478935,-0.30484736,-0.011564055,0.0,0.0,0.0
273890686,0.09466391,-0.3048521,-0.011548917,0.0,0.0,0.0
273894740,0.09471042,-0.3048369,-0.011554021,0.0,0.0,0.0
273897949,0.09483247,-0.30482623,-0.011568518,0.0,0.0,0.0
273901931,0.09497084,-0.30483878,-0.011585892,0.0,0.0,0.0
273905924,0.09488034,-0.30480838,-0.011573686,0.0,0.0,0.0
273910031,0.0947077,-0.30483204,-0.0115535045,0.0,0.0,0.0
273913901,0.094627604,-0.30486143,-0.011544837,0.0,0.0,0.0
273917926,0.094693154,-0.30486938,-0.011553143,0.0,0.0,0.0
273921982,0.09478625,-0.30490693,-0.011565937,0.0,0.0,0.0
273925908,0.09477455,-0.30491,-0.0115646245,0.0,0.0,0.0
273929978,0.094621934,-0.30493176,-0.011546807,0.0,0.0,0.0
273934027,0.09444925,-0.30498973,-0.011527906,0.0,0.0,0.0
273937903,0.094440855,-0.30502954,-0.011528386,0.0,0.0,0.0
273941919,0.09459184,-0.3050208,-0.011546504,0.0,0.0,0.0
273945942,0.094738014,-0.305053,-0.011565583,0.0,0.0,0.0
273949935,0.094691746,-0.3050257,-0.011558894,0.0,0.0,0.0
273953942,0.09453224,-0.30503082,-0.011539599,0.0,0.0,0.0
273957963,0.09441518,-0.30505204,-0.011526098,0.0,0.0,0.0
273961926,0.094506584,-0.30506006,-0.01153757,0.0,0.0,0.0
273965957,0.09464805,-0.30504805,-0.011554401,0.0,0.0,0.0
273969980,0.09471409,-0.30506438,-0.011563091,0.0,0.0,0.0
273973938,0.094601676,-0.30505544,-0.0115490155,0.0,0.0,0.0
273977952,0.094455965,-0.30506444,-0.0115315495,0.0,0.0,0.0
273981930,0.094416656,-0.3050875,-0.011527617,0.0,0.0,0.0
273985881,0.09454911,-0.3050651,-0.011542958,0.0,0.0,0.0
273990014,0.09474057,-0.30504486,-0.011565586,0.0,0.0,0.0
273993908,0.09471681,-0.3049778,-0.011560141,0.0,0.0,0.0
273997899,0.09457072,-0.30494112,-0.011540906,0.0,0.0,0.0
274002017,0.09442649,-0.3049118,-0.011522179,0.0,0.0,0.0
274005884,0.09446902,-0.3048979,-0.01152685,0.0,0.0,0.0
274009951,0.09460208,-0.30488956,-0.011542785,0.0,0.0,0.0
274014033,0.09469969,-0.30489698,-0.011554986,0.0,0.0,0.0
274017886,0.0945788,-0.30488548,-0.011539789,0.0,0.0,0.0
274021909,0.09440651,-0.30490762,-0.011519582,0.0,0.0,0.0
274025980,0.094368316,-0.3049172,-0.011515278,0.0,0.0,0.0
274029943,0.09452737,-0.3049275,-0.011535095,0.0,0.0,0.0
274033921,0.094706394,-0.3049557,-0.011558032,0.0,0.0,0.0
274038028,0.09471839,-0.30492803,-0.011558449,0.0,0.0,0.0
274041916,0.09458025,-0.30492717,-0.011541543,0.0,0.0,0.0
274045883,0.094464734,-0.3049272,-0.011527435,0.0,0.0,0.0
274050018,0.09451631,-0.30496407,-0.011535129,0.0,0.0,0.0
274053934,0.09465927,-0.3049833,-0.011553321,0.0,0.0,0.0
274057987,0.09480141,-0.3050218,-0.011572146,0.0,0.0,0.0
274061983,0.094690315,-0.30504906,-0.011559606,0.0,0.0,0.0
274065903,0.094498,-0.30510163,-0.011538094,0.0,0.0,0.0
274070005,0.09441298,-0.30511618,-0.011528252,0.0,0.0,0.0
274073981,0.09456204,-0.30512807,-0.01154692,0.0,0.0,0.0
274077943,0.0947364,-0.30515385,-0.011569208,0.0,0.0,0.0
274081991,0.09474257,-0.3051614,-0.011570249,0.0,0.0,0.0
274085930,0.094610564,-0.30516112,-0.011554102,0.0,0.0,0.0
274089879,0.09447457,-0.30516025,-0.011537447,0.0,0.0,0.0
274093975,0.09449716,-0.30515984,-0.011540191,0.0,0.0,0.0
274097993,0.094639964,-0.30512947,-0.011556499,0.0,0.0,0.0
274101971,0.094786674,-0.30514383,-0.011574975,0.0,0.0,0.0
274105941,0.09469167,-0.30512992,-0.011562835,0.0,0.0,0.0
274109948,0.09453764,-0.30514255,-0.0115444865,0.0,0.0,0.0
274113949,0.09444312,-0.3051437,-0.011532976,0.0,0.0,0.0
274117981,0.09457831,-0.3051502,-0.011549747,0.0,0.0,0.0
274121937,0.094761595,-0.3051603,-0.011572534,0.0,0.0,0.0
274125924,0.09483643,-0.30512545,-0.011580358,0.0,0.0,0.0
274129938,0.09471879,-0.30510646,-0.011565261,0.0,0.0,0.0
274133971,0.09460292,-0.3050943,-0.011550639,0.0,0.0,0.0
274137947,0.094595656,-0.30511594,-0.01155057,0.0,0.0,0.0
274141994,0.094701305,-0.30509079,-0.011562528,0.0,0.0,0.0
274145939,0.09488144,-0.305105,-0.011585083,0.0,0.0,0.0
274149885,0.09486571,-0.30506688,-0.011581714,0.0,0.0,0.0
274154000,0.09474136,-0.30507693,-0.011566899,0.0,0.0,0.0
274157936,0.09462268,-0.3050516,-0.011551436,0.0,0.0,0.0
274161926,0.09472913,-0.30505797,-0.011564686,0.0,0.0,0.0
274166033,0.0948627,-0.3050347,-0.0115801245,0.0,0.0,0.0
274169897,0.09496983,-0.3050519,-0.011593869,0.0,0.0,0.0
274173549,0.09487008,-0.3050092,-0.011580058,0.0,0.0,0.0
274177178,0.0946833,-0.30499205,-0.011556588,0.0,0.0,0.0
274180305,0.094535455,-0.30496874,-0.011537643,0.0,0.0,0.0
274185188,0.09461766,-0.30499583,-0.011548712,0.0,0.0,0.0
274189245,0.094763145,-0.3050012,-0.011566689,0.0,0.0,0.0
274193550,0.09480782,-0.30498347,-0.011571474,0.0,0.0,0.0
274197115,0.09468205,-0.3049552,-0.011555039,0.0,0.0,0.0
274201201,0.09453505,-0.3049454,-0.011536712,0.0,0.0,0.0
274205194,0.094535105,-0.3049838,-0.01153817,0.0,0.0,0.0
274209101,0.0946508,-0.30497956,-0.011552144,0.0,0.0,0.0
274213602,0.09484545,-0.304985,-0.01157613,0.0,0.0,0.0
274217157,0.0948036,-0.30495083,-0.011569721,0.0,0.0,0.0
274221138,0.094660535,-0.30499205,-0.011553805,0.0,0.0,0.0
274225344,0.0945324,-0.3049649,-0.011537124,0.0,0.0,0.0
274229131,0.094677284,-0.3049885,-0.011555718,0.0,0.0,0.0
274233547,0.09488635,-0.30499095,-0.011581353,0.0,0.0,0.0
274237195,0.095016964,-0.304997,-0.01159754,0.0,0.0,0.0
274241152,0.09490679,-0.3049983,-0.011584129,0.0,0.0,0.0
274245199,0.09479154,-0.30501017,-0.011570499,0.0,0.0,0.0
274249148,0.094773516,-0.305036,-0.011569277,0.0,0.0,0.0
274253605,0.094912715,-0.30503944,-0.011586416,0.0,0.0,0.0
274257102,0.09511758,-0.30507162,-0.011612673,0.0,0.0,0.0
274261173,0.09505407,-0.30505875,-0.011604422,0.0,0.0,0.0
274265214,0.09483508,-0.30509812,-0.011579156,0.0,0.0,0.0
274269146,0.09460946,-0.30509987,-0.011551649,0.0,0.0,0.0
274273616,0.09466366,-0.30512068,-0.011559061,0.0,0.0,0.0
274277148,0.0947709,-0.30509192,-0.011571078,0.0,0.0,0.0
274281079,0.09482176,-0.30508327,-0.011576965,0.0,0.0,0.0
274285213,0.09464745,-0.30507174,-0.011555226,0.0,0.0,0.0
274289139,0.09447031,-0.3050689,-0.011533472,0.0,0.0,0.0
274293506,0.0944022,-0.3050524,-0.011524525,0.0,0.0,0.0
274297186,0.09453144,-0.3050615,-0.011540661,0.0,0.0,0.0
274301153,0.09475131,-0.30506784,-0.01156777,0.0,0.0,0.0
274305127,0.094749995,-0.30504742,-0.011566836,0.0,0.0,0.0
274309170,0.0945886,-0.30507103,-0.011548008,0.0,0.0,0.0
274313529,0.09442469,-0.3050475,-0.0115270885,0.0,0.0,0.0
274317087,0.094482034,-0.3050759,-0.01153517,0.0,0.0,0.0
274321162,0.09462136,-0.3050561,-0.011551444,0.0,0.0,0.0
274325164,0.09476089,-0.3050457,-0.011568101,0.0,0.0,0.0
274329144,0.09464607,-0.3050053,-0.0115525415,0.0,0.0,0.0
274333617,0.09452551,-0.30501008,-0.011537992,0.0,0.0,0.0
274337091,0.09442634,-0.30499944,-0.011525473,0.0,0.0,0.0
274341106,0.0944969,-0.3050065,-0.011534361,0.0,0.0,0.0
274345183,0.09464447,-0.3050305,-0.011553301,0.0,0.0,0.0
274349137,0.09463058,-0.30501422,-0.011550987,0.0,0.0,0.0
274353516,0.094457716,-0.30502138,-0.011530137,0.0,0.0,0.0
274357227,0.094284676,-0.30502024,-0.011508951,0.0,0.0,0.0
274361142,0.094276264,-0.3050548,-0.0115092285,0.0,0.0,0.0
274365125,0.09436033,-0.30503464,-0.011518737,0.0,0.0,0.0
274369171,0.09448927,-0.30503646,-0.011534562,0.0,0.0,0.0
274373541,0.09438671,-0.3050293,-0.011521759,0.0,0.0,0.0
274377095,0.09423634,-0.30505058,-0.011504189,0.0,0.0,0.0
274381253,0.09408123,-0.3050457,-0.011485051,0.0,0.0,0.0
274385160,0.09417643,-0.30506167,-0.011497287,0.0,0.0,0.0
274389120,0.09436537,-0.30504552,-0.0115197655,0.0,0.0,0.0
274401103,0.09422341,-0.30503625,-0.011502069,0.0,0.0,0.0
274405196,0.094237514,-0.30505055,-0.011504332,0.0,0.0,0.0
274409150,0.09437359,-0.30501598,-0.011519654,0.0,0.0,0.0
274413567,0.094547465,-0.30500454,-0.011540466,0.0,0.0,0.0
274417163,0.0944895,-0.3049753,-0.011532279,0.0,0.0,0.0
274421123,0.094323285,-0.30500713,-0.011513174,0.0,0.0,0.0
274425127,0.09414853,-0.30498284,-0.011490908,0.0,0.0,0.0
274429192,0.094237305,-0.30500782,-0.011502694,0.0,0.0,0.0
274433397,0.09443891,-0.3049736,-0.011526033,0.0,0.0,0.0
274437114,0.09453332,-0.3049483,-0.011536609,0.0,0.0,0.0
274441235,0.09438988,-0.30493128,-0.011518444,0.0,0.0,0.0
274445141,0.09422691,-0.30490425,-0.01149752,0.0,0.0,0.0
274449107,0.09411671,-0.30487713,-0.011483039,0.0,0.0,0.0
274453492,0.09416969,-0.30486012,-0.011488867,0.0,0.0,0.0
274456340,0.09430292,-0.3048463,-0.011504616,0.0,0.0,0.0
274460347,0.09431936,-0.3048413,-0.0115064345,0.0,0.0,0.0
274463572,0.09412606,-0.3048464,-0.011483022,0.0,0.0,0.0
274468459,0.09387198,-0.30485183,-0.011452201,0.0,0.0,0.0
274472328,0.09387046,-0.30487522,-0.011452894,0.0,0.0,0.0
274475592,0.09396815,-0.30484542,-0.011463704,0.0,0.0,0.0
274480387,0.09418775,-0.30480874,-0.011489137,0.0,0.0,0.0
274483564,0.094141185,-0.30476308,-0.011481731,0.0,0.0,0.0
274488461,0.09399577,-0.30476892,-0.011464197,0.0,0.0,0.0
274492334,0.093866475,-0.3047456,-0.011447539,0.0,0.0,0.0
274496326,0.09395902,-0.30478597,-0.011460353,0.0,0.0,0.0
274500419,0.09417178,-0.30478394,-0.011486252,0.0,0.0,0.0
274503576,0.094249316,-0.30479693,-0.011496208,0.0,0.0,0.0
274508403,0.0940973,-0.30482674,-0.011478771,0.0,0.0,0.0
274512412,0.0939526,-0.30484357,-0.011461736,0.0,0.0,0.0
274516332,0.09397713,-0.30487952,-0.011466083,0.0,0.0,0.0
274520310,0.094148524,-0.30487004,-0.011486658,0.0,0.0,0.0
274523627,0.09431709,-0.30486307,-0.011506979,0.0,0.0,0.0
274528462,0.094348125,-0.3048447,-0.011510076,0.0,0.0,0.0
274532273,0.094268896,-0.30487657,-0.011501603,0.0,0.0,0.0
274536383,0.09416578,-0.3048831,-0.011489255,0.0,0.0,0.0
274540340,0.094275475,-0.30494893,-0.011505136,0.0,0.0,0.0
274544372,0.09447211,-0.3049693,-0.011529926,0.0,0.0,0.0
274548560,0.094562896,-0.3049854,-0.011541626,0.0,0.0,0.0
274552285,0.094380654,-0.3050153,-0.011520492,0.0,0.0,0.0
274556340,0.094207,-0.3050211,-0.011499493,0.0,0.0,0.0
274560370,0.09416639,-0.3050252,-0.011494685,0.0,0.0,0.0
274564404,0.09432487,-0.30501485,-0.011513658,0.0,0.0,0.0
274568396,0.09452648,-0.30501407,-0.011538262,0.0,0.0,0.0
274572361,0.09456717,-0.30499843,-0.011542642,0.0,0.0,0.0
274576331,0.09448382,-0.30498457,-0.011531934,0.0,0.0,0.0
274580293,0.094392985,-0.30495837,-0.011519847,0.0,0.0,0.0
274584404,0.09449065,-0.30500183,-0.0115334205,0.0,0.0,0.0
274588400,0.094681896,-0.30498537,-0.011556163,0.0,0.0,0.0
274592320,0.09478734,-0.305016,-0.011570208,0.0,0.0,0.0
274596392,0.09464496,-0.30502152,-0.01155302,0.0,0.0,0.0
274600313,0.094493955,-0.30502424,-0.011534671,0.0,0.0,0.0
274604368,0.0944115,-0.30501145,-0.011524115,0.0,0.0,0.0
274608555,0.094517656,-0.30497378,-0.011535659,0.0,0.0,0.0
274612382,0.09472836,-0.30494422,-0.011560279,0.0,0.0,0.0
274616359,0.09478023,-0.30490434,-0.011565103,0.0,0.0,0.0
274620387,0.09468227,-0.3049076,-0.011553261,0.0,0.0,0.0
274624383,0.09454374,-0.3048986,-0.011536,0.0,0.0,0.0
274628413,0.094576046,-0.3049525,-0.011541989,0.0,0.0,0.0
274632395,0.09471243,-0.30495209,-0.0115586305,0.0,0.0,0.0
274636392,0.094817325,-0.30497658,-0.011572374,0.0,0.0,0.0
274640308,0.09467655,-0.30497247,-0.01155502,0.0,0.0,0.0
274644400,0.09450452,-0.30497277,-0.011534017,0.0,0.0,0.0
274648427,0.094355114,-0.30495876,-0.0115152355,0.0,0.0,0.0
274652361,0.09442449,-0.30496544,-0.011523964,0.0,0.0,0.0
274656452,0.094625235,-0.3049371,-0.011547413,0.0,0.0,0.0
274660329,0.09472758,-0.30494896,-0.011560364,0.0,0.0,0.0
274664345,0.09462867,-0.30500624,-0.011550451,0.0,0.0,0.0
274668564,0.09449337,-0.3050339,-0.011534966,0.0,0.0,0.0
274672346,0.09451981,-0.3051079,-0.011540996,0.0,0.0,0.0
274676376,0.0946952,-0.3051109,-0.011562547,0.0,0.0,0.0
274680355,0.09486423,-0.30514053,-0.011584329,0.0,0.0,0.0
274684318,0.09479411,-0.30513197,-0.0115754325,0.0,0.0,0.0
274688402,0.09466161,-0.30512196,-0.011558859,0.0,0.0,0.0
274692420,0.09451364,-0.3050647,-0.011538608,0.0,0.0,0.0
274696397,0.09458411,-0.30505624,-0.011546898,0.0,0.0,0.0
274700271,0.09480468,-0.30498967,-0.011571326,0.0,0.0,0.0
274704375,0.09495333,-0.30496553,-0.01158857,0.0,0.0,0.0
274708422,0.094890624,-0.3049627,-0.0115808025,0.0,0.0,0.0
274712317,0.09478379,-0.3049561,-0.011567501,0.0,0.0,0.0
274716413,0.09479462,-0.30498672,-0.011569985,0.0,0.0,0.0
274720275,0.094976954,-0.30500144,-0.011592821,0.0,0.0,0.0
274724336,0.09516749,-0.3050131,-0.011616543,0.0,0.0,0.0
274728518,0.09516678,-0.30501267,-0.0116164405,0.0,0.0,0.0
274732324,0.09506245,-0.3050063,-0.011603451,0.0,0.0,0.0
274736352,0.094964765,-0.30498776,-0.011590812,0.0,0.0,0.0
274740374,0.095077336,-0.30500528,-0.01160523,0.0,0.0,0.0
274744325,0.09530005,-0.30499122,-0.011631906,0.0,0.0,0.0
274748381,0.09545547,-0.30500254,-0.011651328,0.0,0.0,0.0
274752422,0.09536409,-0.304986,-0.011639531,0.0,0.0,0.0
274756386,0.09524306,-0.30498236,-0.011624606,0.0,0.0,0.0
274760318,0.09521363,-0.30501983,-0.011622438,0.0,0.0,0.0
274763625,0.095304154,-0.30507076,-0.011635441,0.0,0.0,0.0
274768432,0.095514655,-0.3050985,-0.011662226,0.0,0.0,0.0
274772330,0.09552509,-0.30512345,-0.011664456,0.0,0.0,0.0
274776414,0.095340565,-0.3051557,-0.011643132,0.0,0.0,0.0
274780357,0.09515245,-0.3051389,-0.011619497,0.0,0.0,0.0
274783603,0.09513339,-0.3051388,-0.011617164,0.0,0.0,0.0
274787542,0.09526346,-0.30512798,-0.01163265,0.0,0.0,0.0
274791569,0.09540296,-0.3051438,-0.011650305,0.0,0.0,0.0
274795523,0.095350735,-0.3051503,-0.011644169,0.0,0.0,0.0
274798831,0.09522677,-0.30515137,-0.011629058,0.0,0.0,0.0
274803561,0.0950665,-0.30511644,-0.011608138,0.0,0.0,0.0
274807497,0.095133774,-0.3051769,-0.011618662,0.0,0.0,0.0
274811590,0.09530645,-0.30518356,-0.011640023,0.0,0.0,0.0
274815606,0.095403746,-0.30523178,-0.0116537595,0.0,0.0,0.0
274818747,0.095282845,-0.30524126,-0.011639339,0.0,0.0,0.0
274823786,0.09510686,-0.30524078,-0.011617803,0.0,0.0,0.0
274827546,0.09507412,-0.30523705,-0.011613657,0.0,0.0,0.0
274831513,0.095223375,-0.30520624,-0.0116307335,0.0,0.0,0.0
274835575,0.0953684,-0.3051665,-0.011646948,0.0,0.0,0.0
274839546,0.0953555,-0.30513027,-0.011643988,0.0,0.0,0.0
274843618,0.09522483,-0.3051097,-0.011627232,0.0,0.0,0.0
274847586,0.09508893,-0.30509213,-0.011609952,0.0,0.0,0.0
274851513,0.095125616,-0.30513036,-0.011615891,0.0,0.0,0.0
274855538,0.09529733,-0.30511487,-0.01163629,0.0,0.0,0.0
274859636,0.095429525,-0.3051318,-0.011653093,0.0,0.0,0.0
274863747,0.09531065,-0.30514902,-0.011639221,0.0,0.0,0.0
274867521,0.09515759,-0.3051401,-0.011620172,0.0,0.0,0.0
274871609,0.09508833,-0.30512053,-0.01161096,0.0,0.0,0.0
274875470,0.095195316,-0.30511892,-0.011623975,0.0,0.0,0.0
274879521,0.09534669,-0.3050864,-0.011641237,0.0,0.0,0.0
274883756,0.09538311,-0.30506775,-0.011644974,0.0,0.0,0.0
274887602,0.09525523,-0.30507025,-0.011629444,0.0,0.0,0.0
274891555,0.095086925,-0.305075,-0.011609057,0.0,0.0,0.0
274895642,0.09507631,-0.30511203,-0.011609168,0.0,0.0,0.0
274899526,0.09524722,-0.3050881,-0.011629144,0.0,0.0,0.0
274903572,0.09537909,-0.3051026,-0.011645814,0.0,0.0,0.0
274907622,0.09527039,-0.30510607,-0.01163266,0.0,0.0,0.0
274911744,0.09512284,-0.30509514,-0.011614212,0.0,0.0,0.0
274915478,0.09500824,-0.30509108,-0.011600052,0.0,0.0,0.0
274919630,0.09510194,-0.30509496,-0.011611651,0.0,0.0,0.0
274923586,0.0952352,-0.3050614,-0.011626659,0.0,0.0,0.0
274927530,0.095280565,-0.30508336,-0.0116330385,0.0,0.0,0.0
274931576,0.09510768,-0.30508852,-0.011612107,0.0,0.0,0.0
274935611,0.09493151,-0.3050735,-0.011590007,0.0,0.0,0.0
274939582,0.09488326,-0.30509484,-0.011584921,0.0,0.0,0.0
274943563,0.09503701,-0.30510667,-0.011604161,0.0,0.0,0.0
274947616,0.09514661,-0.30510792,-0.011617605,0.0,0.0,0.0
274951609,0.09505813,-0.30511472,-0.011607049,0.0,0.0,0.0
274955510,0.09489048,-0.30511567,-0.011586594,0.0,0.0,0.0
274959607,0.09477779,-0.30509982,-0.0115722185,0.0,0.0,0.0
274963573,0.09485056,-0.3051245,-0.0115820505,0.0,0.0,0.0
274967586,0.094999,-0.30511197,-0.011599717,0.0,0.0,0.0
274971605,0.09506941,-0.30511025,-0.011608257,0.0,0.0,0.0
274975477,0.094955154,-0.3051094,-0.01159426,0.0,0.0,0.0
274979521,0.09483155,-0.3050907,-0.011578443,0.0,0.0,0.0
274983643,0.09477727,-0.30509317,-0.011571903,0.0,0.0,0.0
274987599,0.094923705,-0.30510315,-0.011590178,0.0,0.0,0.0
274991531,0.095051356,-0.30508986,-0.011605275,0.0,0.0,0.0
274995917,0.09500305,-0.30509648,-0.011599623,0.0,0.0,0.0
274999504,0.094842255,-0.30509713,-0.011579997,0.0,0.0,0.0
275003589,0.09471492,-0.30506793,-0.011563326,0.0,0.0,0.0
275007621,0.09471606,-0.30508453,-0.011564094,0.0,0.0,0.0
275011618,0.09482018,-0.30505386,-0.011575656,0.0,0.0,0.0
275015516,0.094897464,-0.30506232,-0.011585422,0.0,0.0,0.0
275019587,0.09476878,-0.30504736,-0.011569128,0.0,0.0,0.0
275023474,0.094601974,-0.3050364,-0.011548331,0.0,0.0,0.0
275027553,0.09450944,-0.30502242,-0.011536496,0.0,0.0,0.0
275031773,0.09462759,-0.3050291,-0.011551184,0.0,0.0,0.0
275035529,0.09475082,-0.3050052,-0.011565336,0.0,0.0,0.0
275039546,0.09474964,-0.30501783,-0.01156567,0.0,0.0,0.0
275043606,0.09461098,-0.30501297,-0.011548544,0.0,0.0,0.0
275047578,0.094498135,-0.30497992,-0.011533507,0.0,0.0,0.0
275051543,0.09448083,-0.30501243,-0.011532622,0.0,0.0,0.0
275055627,0.094659,-0.3049831,-0.011553281,0.0,0.0,0.0
275059579,0.09481483,-0.30496997,-0.01157182,0.0,0.0,0.0
275063492,0.09476278,-0.30493367,-0.011564084,0.0,0.0,0.0
275067626,0.09462682,-0.30489793,-0.011546124,0.0,0.0,0.0
275074690,0.09461325,-0.30491385,-0.011545068,0.0,0.0,0.0
275078034,0.09472306,-0.30489954,-0.0115579385,0.0,0.0,0.0
275082720,0.09486021,-0.30495304,-0.011576721,0.0,0.0,0.0
275086721,0.09474847,-0.3049803,-0.011564104,0.0,0.0,0.0
275090773,0.09461453,-0.30498534,-0.0115479315,0.0,0.0,0.0
275094753,0.094562575,-0.3049959,-0.011541983,0.0,0.0,0.0
275098797,0.09474821,-0.304996,-0.011564667,0.0,0.0,0.0
275102829,0.09492736,-0.3049762,-0.011585803,0.0,0.0,0.0
275106722,0.094945684,-0.30498025,-0.011588195,0.0,0.0,0.0
275110807,0.094810516,-0.30495194,-0.011570608,0.0,0.0,0.0
275114750,0.094695866,-0.3049448,-0.011556333,0.0,0.0,0.0
275118769,0.09470903,-0.30495062,-0.011558162,0.0,0.0,0.0
275122796,0.094829135,-0.30493414,-0.011572206,0.0,0.0,0.0
275126802,0.09494584,-0.3049581,-0.011587372,0.0,0.0,0.0
275130674,0.09486099,-0.30499437,-0.011578386,0.0,0.0,0.0
275134769,0.09472694,-0.30498984,-0.011561836,0.0,0.0,0.0
275138801,0.094661795,-0.30499393,-0.011554032,0.0,0.0,0.0
275142726,0.09483821,-0.30500665,-0.011576067,0.0,0.0,0.0
275146811,0.09500708,-0.304975,-0.011595496,0.0,0.0,0.0
275150676,0.095052615,-0.30499974,-0.011602,0.0,0.0,0.0
275154734,0.094926186,-0.30499306,-0.011586301,0.0,0.0,0.0
275158990,0.094787754,-0.30500022,-0.01156966,0.0,0.0,0.0
275162767,0.09475053,-0.30502328,-0.011565986,0.0,0.0,0.0
275166754,0.09487034,-0.30503556,-0.01158109,0.0,0.0,0.0
275170778,0.094969474,-0.30507597,-0.011594742,0.0,0.0,0.0
275174706,0.09487476,-0.3051142,-0.011584617,0.0,0.0,0.0
275178793,0.09471936,-0.30510426,-0.011565247,0.0,0.0,0.0
275182792,0.0946428,-0.30506304,-0.01155433,0.0,0.0,0.0
275186742,0.094757035,-0.30507717,-0.011568824,0.0,0.0,0.0
275190682,0.0948817,-0.30504328,-0.011582771,0.0,0.0,0.0
275194777,0.094950676,-0.3050663,-0.011592073,0.0,0.0,0.0
275198782,0.094848156,-0.30508175,-0.011580134,0.0,0.0,0.0
275202742,0.09477421,-0.30508137,-0.011571081,0.0,0.0,0.0
275206817,0.094762795,-0.30509526,-0.011570214,0.0,0.0,0.0
275210692,0.09495821,-0.3050864,-0.011593759,0.0,0.0,0.0
275214732,0.09511016,-0.30507493,-0.011611894,0.0,0.0,0.0
275218842,0.09511722,-0.30508032,-0.011612961,0.0,0.0,0.0
275222750,0.09503068,-0.30506742,-0.011601895,0.0,0.0,0.0
275226772,0.0949724,-0.30505508,-0.011594304,0.0,0.0,0.0
275230782,0.095099784,-0.3050832,-0.01161094,0.0,0.0,0.0
275234714,0.09527439,-0.30502507,-0.011630062,0.0,0.0,0.0
275238704,0.09539594,-0.3050486,-0.011645813,0.0,0.0,0.0
275242808,0.095320724,-0.3050331,-0.01163603,0.0,0.0,0.0
275246761,0.095222555,-0.30502316,-0.0116236545,0.0,0.0,0.0
275250720,0.09513283,-0.30501655,-0.011612441,0.0,0.0,0.0
275254765,0.09525836,-0.3050202,-0.011627918,0.0,0.0,0.0
275258722,0.095392734,-0.30500254,-0.011643663,0.0,0.0,0.0
275262846,0.09541393,-0.30501214,-0.011646618,0.0,0.0,0.0
275266786,0.09528305,-0.30499583,-0.011630005,0.0,0.0,0.0
275270765,0.09519357,-0.304988,-0.011618774,0.0,0.0,0.0
275274823,0.0952505,-0.30499214,-0.011625889,0.0,0.0,0.0
275278767,0.09540498,-0.30493414,-0.011642547,0.0,0.0,0.0
275282725,0.09552333,-0.3049395,-0.011657206,0.0,0.0,0.0
275286736,0.095447,-0.30492067,-0.011647164,0.0,0.0,0.0
275290803,0.09536159,-0.30492458,-0.011636881,0.0,0.0,0.0
275294759,0.09530735,-0.30491006,-0.0116297025,0.0,0.0,0.0
275298763,0.09548883,-0.3049219,-0.011652321,0.0,0.0,0.0
275302775,0.09565437,-0.30491623,-0.011672325,0.0,0.0,0.0
275306749,0.09570376,-0.30495945,-0.011680013,0.0,0.0,0.0
275310744,0.095561594,-0.30493894,-0.011661861,0.0,0.0,0.0
275314815,0.095470846,-0.30493125,-0.011650482,0.0,0.0,0.0
275318717,0.09549443,-0.3049414,-0.011653749,0.0,0.0,0.0
275322728,0.095601164,-0.30492714,-0.011666242,0.0,0.0,0.0
275326782,0.095682584,-0.30494532,-0.011676884,0.0,0.0,0.0
275330766,0.09557873,-0.30494478,-0.011664178,0.0,0.0,0.0
275334762,0.09542375,-0.30495846,-0.011645768,0.0,0.0,0.0
275338790,0.09531559,-0.30496627,-0.011632854,0.0,0.0,0.0
275342743,0.09545,-0.30498636,-0.011650042,0.0,0.0,0.0
275346682,0.09558038,-0.30493692,-0.011664079,0.0,0.0,0.0
275350813,0.09559524,-0.30498,-0.011667542,0.0,0.0,0.0
275354766,0.09541425,-0.30494654,-0.011644153,0.0,0.0,0.0
275358971,0.0952924,-0.3049395,-0.011628998,0.0,0.0,0.0
275362747,0.09521984,-0.30495957,-0.0116209015,0.0,0.0,0.0
275366749,0.09532973,-0.3049476,-0.01163387,0.0,0.0,0.0
275370790,0.09547181,-0.3049525,-0.011651411,0.0,0.0,0.0
275374781,0.0954701,-0.30493456,-0.011650518,0.0,0.0,0.0
275378772,0.09536736,-0.30488873,-0.011636218,0.0,0.0,0.0
275382756,0.095311075,-0.30487165,-0.011628693,0.0,0.0,0.0
275386700,0.095446974,-0.304893,-0.011646104,0.0,0.0,0.0
275390746,0.09557687,-0.304846,-0.011660171,0.0,0.0,0.0
275394026,0.09565247,-0.30487704,-0.011670593,0.0,0.0,0.0
275397960,0.095593184,-0.3048873,-0.011663743,0.0,0.0,0.0
275401962,0.09547455,-0.30491155,-0.011650181,0.0,0.0,0.0
275405937,0.09533425,-0.30490968,-0.011632972,0.0,0.0,0.0
275409928,0.095432594,-0.30495247,-0.011646621,0.0,0.0,0.0
275413964,0.095564194,-0.30493626,-0.011662075,0.0,0.0,0.0
275418012,0.09563086,-0.3049671,-0.011671401,0.0,0.0,0.0
275421968,0.0955061,-0.3049529,-0.011655616,0.0,0.0,0.0
275425904,0.095435694,-0.30493933,-0.011646497,0.0,0.0,0.0
275429952,0.09543321,-0.30494025,-0.011646228,0.0,0.0,0.0
275434006,0.095562086,-0.3049248,-0.011661379,0.0,0.0,0.0
275437955,0.0956781,-0.3049573,-0.011676795,0.0,0.0,0.0
275441975,0.09565802,-0.30497292,-0.0116749415,0.0,0.0,0.0
275445950,0.095525116,-0.30498263,-0.011659075,0.0,0.0,0.0
275449895,0.095412284,-0.30497605,-0.011645039,0.0,0.0,0.0
275453935,0.095531754,-0.30500618,-0.011660787,0.0,0.0,0.0
275457974,0.095684044,-0.30496004,-0.011677627,0.0,0.0,0.0
275461957,0.095795654,-0.30497923,-0.011691997,0.0,0.0,0.0
275466025,0.09573552,-0.30494162,-0.01168321,0.0,0.0,0.0
275469903,0.09569408,-0.3049284,-0.0116776405,0.0,0.0,0.0
275473914,0.09566106,-0.30494314,-0.011674172,0.0,0.0,0.0
275478031,0.09579248,-0.30494896,-0.011690448,0.0,0.0,0.0
275481925,0.09591178,-0.30498254,-0.011706312,0.0,0.0,0.0
275485935,0.09590644,-0.3050214,-0.011707149,0.0,0.0,0.0
275489951,0.09576449,-0.30502766,-0.011690046,0.0,0.0,0.0
275493903,0.09564153,-0.30500552,-0.011674173,0.0,0.0,0.0
275497948,0.095695555,-0.30503404,-0.011681867,0.0,0.0,0.0
275502047,0.09582244,-0.30500937,-0.011696424,0.0,0.0,0.0
275505938,0.09590521,-0.30503842,-0.011707652,0.0,0.0,0.0
275509914,0.09581153,-0.30501264,-0.011695217,0.0,0.0,0.0
275513938,0.09572805,-0.3050164,-0.011685161,0.0,0.0,0.0
275517913,0.09565126,-0.3050125,-0.011675629,0.0,0.0,0.0
275521958,0.09574433,-0.30501914,-0.011687255,0.0,0.0,0.0
275526063,0.095859945,-0.3050022,-0.011700733,0.0,0.0,0.0
275529884,0.09585257,-0.3050141,-0.011700288,0.0,0.0,0.0
275533901,0.09569829,-0.30500346,-0.01168103,0.0,0.0,0.0
275537950,0.09559292,-0.30502185,-0.011668859,0.0,0.0,0.0
275541937,0.095649175,-0.3050176,-0.01167557,0.0,0.0,0.0
275545964,0.09580964,-0.30499288,-0.011694229,0.0,0.0,0.0
275550029,0.09594457,-0.30505967,-0.011713279,0.0,0.0,0.0
275553897,0.09591313,-0.30506915,-0.011709801,0.0,0.0,0.0
275557940,0.09583573,-0.30508485,-0.011700944,0.0,0.0,0.0
275562028,0.09573995,-0.3050871,-0.011689323,0.0,0.0,0.0
275565938,0.09584285,-0.30511984,-0.011703157,0.0,0.0,0.0
275569982,0.09593464,-0.30508542,-0.011713053,0.0,0.0,0.0
275573982,0.09596012,-0.3050845,-0.011716132,0.0,0.0,0.0
275577906,0.095809855,-0.30506638,-0.0116970735,0.0,0.0,0.0
275581913,0.09569223,-0.30505395,-0.011682223,0.0,0.0,0.0
275586015,0.09569391,-0.30503875,-0.011681845,0.0,0.0,0.0
275589915,0.09580394,-0.3049999,-0.011693801,0.0,0.0,0.0
275593911,0.09592423,-0.30502367,-0.011709411,0.0,0.0,0.0
275597982,0.0959138,-0.304994,-0.011706998,0.0,0.0,0.0
275601896,0.09579604,-0.30499822,-0.011692773,0.0,0.0,0.0
275605947,0.095681526,-0.3050069,-0.011679113,0.0,0.0,0.0
275610031,0.095794536,-0.30501476,-0.011693222,0.0,0.0,0.0
275613863,0.095899485,-0.3049679,-0.011704247,0.0,0.0,0.0
275617949,0.095950484,-0.30501357,-0.011712231,0.0,0.0,0.0
275622156,0.09581409,-0.30499375,-0.011694806,0.0,0.0,0.0
275625922,0.09574135,-0.30499172,-0.011685841,0.0,0.0,0.0
275629963,0.09574425,-0.30498558,-0.01168596,0.0,0.0,0.0
275633995,0.09587645,-0.30497193,-0.011701588,0.0,0.0,0.0
275637912,0.096022576,-0.30499157,-0.011720195,0.0,0.0,0.0
275641920,0.09604797,-0.3049941,-0.011723394,0.0,0.0,0.0
275645999,0.09595439,-0.3050021,-0.011712268,0.0,0.0,0.0
275649090,0.095824644,-0.3049864,-0.011695813,0.0,0.0,0.0
275653963,0.09587557,-0.30500987,-0.011702937,0.0,0.0,0.0
275657958,0.09595736,-0.30499178,-0.0117122345,0.0,0.0,0.0
275661095,0.09597239,-0.30503288,-0.01171565,0.0,0.0,0.0
275665160,0.095909655,-0.30501327,-0.011707231,0.0,0.0,0.0
275669157,0.095806435,-0.3050344,-0.011695429,0.0,0.0,0.0
275673201,0.095664814,-0.30503216,-0.011678038,0.0,0.0,0.0
275677162,0.09572645,-0.30506027,-0.011686648,0.0,0.0,0.0
275681168,0.095814615,-0.30503002,-0.01169626,0.0,0.0,0.0
275685106,0.09583629,-0.30507112,-0.011700485,0.0,0.0,0.0
275689100,0.09570136,-0.30505273,-0.011683291,0.0,0.0,0.0
275693533,0.09559376,-0.30505762,-0.011670331,0.0,0.0,0.0
275696295,0.09555518,-0.30506298,-0.011665821,0.0,0.0,0.0
275701212,0.09568327,-0.3050724,-0.011681834,0.0,0.0,0.0
275705188,0.09578158,-0.3050773,-0.011694037,0.0,0.0,0.0
275709069,0.09577093,-0.30505922,-0.011692042,0.0,0.0,0.0
275713201,0.09567957,-0.30503455,-0.011679933,0.0,0.0,0.0
275717188,0.0955672,-0.30500647,-0.011665128,0.0,0.0,0.0
275721196,0.09563928,-0.30501857,-0.011674399,0.0,0.0,0.0
275725149,0.09571765,-0.30498034,-0.011682509,0.0,0.0,0.0
275729158,0.09574313,-0.30501655,-0.01168701,0.0,0.0,0.0
275733192,0.09554652,-0.3049973,-0.011662252,0.0,0.0,0.0
275737154,0.095365696,-0.30500183,-0.011640333,0.0,0.0,0.0
275741217,0.09524389,-0.30502895,-0.011626483,0.0,0.0,0.0
275745108,0.09527394,-0.30502772,-0.011630109,0.0,0.0,0.0
275749073,0.09531803,-0.30503514,-0.0116357785,0.0,0.0,0.0
275753220,0.095291406,-0.30504596,-0.011632938,0.0,0.0,0.0
275757169,0.09515744,-0.3050374,-0.011616242,0.0,0.0,0.0
275761150,0.09503239,-0.30503005,-0.011600682,0.0,0.0,0.0
275765238,0.09508454,-0.3050517,-0.011607879,0.0,0.0,0.0
275769064,0.09522499,-0.30501062,-0.011623476,0.0,0.0,0.0
275773192,0.095322214,-0.30505982,-0.01163723,0.0,0.0,0.0
275777221,0.09523984,-0.30505943,-0.01162715,0.0,0.0,0.0
275781144,0.0951751,-0.3051037,-0.011620925,0.0,0.0,0.0
275785206,0.09512574,-0.305118,-0.0116154365,0.0,0.0,0.0
275789139,0.095222786,-0.30515015,-0.0116285235,0.0,0.0,0.0
275793150,0.09535387,-0.3052014,-0.011646504,0.0,0.0,0.0
275797187,0.0954087,-0.30524108,-0.01165472,0.0,0.0,0.0
275801216,0.09531121,-0.30523214,-0.011642459,0.0,0.0,0.0
275805166,0.095212616,-0.30519855,-0.011629124,0.0,0.0,0.0
275809140,0.095245294,-0.305202,-0.011633251,0.0,0.0,0.0
275813332,0.0953409,-0.30518046,-0.0116441175,0.0,0.0,0.0
275817065,0.09542427,-0.3052248,-0.011656002,0.0,0.0,0.0
275821151,0.09537229,-0.3052151,-0.011649277,0.0,0.0,0.0
275825240,0.09528712,-0.3052232,-0.011639173,0.0,0.0,0.0
275829093,0.09519079,-0.30521858,-0.011627219,0.0,0.0,0.0
275833215,0.09523659,-0.3052172,-0.011632767,0.0,0.0,0.0
275837326,0.09528421,-0.3051707,-0.011636815,0.0,0.0,0.0
275841157,0.095301606,-0.30517697,-0.0116391815,0.0,0.0,0.0
275845193,0.09516857,-0.30512324,-0.011620871,0.0,0.0,0.0
275849224,0.09505819,-0.30508757,-0.011606023,0.0,0.0,0.0
275853150,0.095038116,-0.305064,-0.011602673,0.0,0.0,0.0
275857152,0.095105246,-0.305021,-0.0116092395,0.0,0.0,0.0
275861247,0.095167615,-0.30502912,-0.01161717,0.0,0.0,0.0
275865209,0.09512824,-0.3050048,-0.011611432,0.0,0.0,0.0
275869201,0.09506287,-0.3049938,-0.011603027,0.0,0.0,0.0
275873202,0.09495034,-0.30496216,-0.011588077,0.0,0.0,0.0
275877109,0.09501457,-0.3049644,-0.011596008,0.0,0.0,0.0
275881135,0.09507756,-0.30491593,-0.011601858,0.0,0.0,0.0
275885233,0.09517438,-0.30489647,-0.011612943,0.0,0.0,0.0
275889125,0.09505906,-0.3048572,-0.011597365,0.0,0.0,0.0
275893143,0.0949568,-0.30486473,-0.011585165,0.0,0.0,0.0
275897169,0.09491706,-0.30486143,-0.011580185,0.0,0.0,0.0
275901102,0.094991244,-0.3048605,-0.011589209,0.0,0.0,0.0
275905224,0.09507037,-0.30490765,-0.011600666,0.0,0.0,0.0
275909193,0.09507224,-0.3049337,-0.011601886,0.0,0.0,0.0
275913135,0.095006876,-0.40974814,-0.015579058,0.0,0.0,0.0
275917156,0.09492462,-0.4097565,-0.015565874,0.0,0.0,0.0
275921173,0.09497863,-0.40978277,-0.015575738,0.0,0.0,0.0
275925129,0.095068626,-0.40977225,-0.015590109,0.0,0.0,0.0
275929149,0.09515755,-0.40980157,-0.015605822,0.0,0.0,0.0
275933185,0.09507106,-0.679835,-0.025865527,0.0,0.0,0.0
275937231,0.09496376,-0.67984885,-0.025836827,0.0,0.0,0.0
275941139,0.0949073,-0.67988384,-0.025822781,0.0,0.0,0.0
275945146,0.09495295,-0.67990744,-0.025836112,0.0,0.0,0.0
275949232,0.09503112,-0.6799346,-0.025858438,0.0,0.0,0.0
275953213,0.095063746,-0.67996395,-0.025868438,0.0,0.0,0.0
275957109,0.09498095,-0.9075135,-0.034495197,0.0,0.0,0.0
275961169,0.09488882,-0.9075145,-0.034461744,0.0,0.0,0.0
275965159,0.09491383,-0.9075251,-0.03447124,0.0,0.0,0.0
275969166,0.095066614,-0.9075139,-0.034526356,0.0,0.0,0.0
275973236,0.0952164,-0.9075364,-0.03458166,0.0,0.0,0.0
275977156,0.095220484,-0.90749747,-0.034581665,0.0,0.0,0.0
275981133,0.09515516,-1.0167793,-0.038719416,0.0,0.0,0.0
275985247,0.095124744,-1.0167476,-0.038705826,0.0,0.0,0.0
275989163,0.09516228,-1.0167291,-0.03872041,0.0,0.0,0.0
275993156,0.09524189,-1.0166978,-0.038751636,0.0,0.0,0.0
275997233,0.09534322,-1.0167025,-0.038793087,0.0,0.0,0.0
276001107,0.095267445,-1.0166521,-0.0387603,0.0,0.0,0.0
276004307,0.09517043,-1.0471976,-0.043531742,0.0,0.0,0.0
276008463,0.09517356,-1.0471976,-0.04353076,0.0,0.0,0.0
276012342,0.09527102,-1.0471976,-0.043573655,0.0,0.0,0.0
276016370,0.09538344,-1.0471976,-0.04362393,0.0,0.0,0.0
276020392,0.09545215,-1.0471976,-0.043655347,0.0,0.0,0.0
276024309,0.09538576,-1.0471976,-0.043624077,0.0,0.0,0.0
276028383,0.09527326,-1.0471976,-0.04849468,0.0,0.0,0.0
276032410,0.095253505,-1.0471976,-0.048485544,0.0,0.0,0.0
276036378,0.095309176,-1.0471976,-0.048514985,0.0,0.0,0.0
276040366,0.095394626,-1.0471976,-0.048561286,0.0,0.0,0.0
276044387,0.095359586,-1.0471976,-0.0485439,0.0,0.0,0.0
276048380,0.09527475,-1.0471976,-0.04850186,0.0,0.0,0.0
276052312,0.095224984,-1.0471976,-0.050896656,0.0,0.0,0.0
276056444,0.09531263,-1.0471976,-0.05094447,0.0,0.0,0.0
276060380,0.09543352,-1.0471976,-0.051009547,0.0,0.0,0.0
276064327,0.0955395,-1.0471976,-0.051067412,0.0,0.0,0.0
276068453,0.09550412,-1.0471976,-0.051049214,0.0,0.0,0.0
276072350,0.09542882,-1.0471976,-0.05101052,0.0,0.0,0.0
276076358,0.095418654,-1.0471976,-0.051428087,0.0,0.0,0.0
276080420,0.09551025,-1.0471976,-0.051478893,0.0,0.0,0.0
276084352,0.09563319,-1.0471976,-0.05154721,0.0,0.0,0.0
276088384,0.09566493,-1.0471976,-0.051564608,0.0,0.0,0.0
276092356,0.09564896,-1.0471976,-0.051556524,0.0,0.0,0.0
276096348,0.09566139,-1.0471976,-0.051562473,0.0,0.0,0.0
276100380,0.09576358,-1.0471976,-0.04989584,0.0,0.0,0.0
276104408,0.095892966,-1.0471976,-0.049963627,0.0,0.0,0.0
276108414,0.09602865,-1.0471976,-0.050035007,0.0,0.0,0.0
276112323,0.09599221,-1.0471976,-0.050015192,0.0,0.0,0.0
276116393,0.09585212,-1.0471976,-0.0499417,0.0,0.0,0.0
276120400,0.09574955,-1.0471976,-0.04988713,0.0,0.0,0.0
276124366,0.09575372,-1.0471976,-0.044851948,0.0,0.0,0.0
276128400,0.09580553,-1.0471976,-0.04487642,0.0,0.0,0.0
276132331,0.095780894,-1.0471976,-0.044864014,0.0,0.0,0.0
276136340,0.09567347,-1.0471976,-0.04481318,0.0,0.0,0.0
276140387,0.09558633,-1.0471976,-0.044772018,0.0,0.0,0.0
276144421,0.095605224,-1.0471976,-0.04477978,0.0,0.0,0.0
276148401,0.09570554,-0.9546118,-0.036562517,0.0,0.0,0.0
276152354,0.0958363,-0.954601,-0.036612105,0.0,0.0,0.0
276156386,0.09583361,-0.9545468,-0.036608998,0.0,0.0,0.0
276160295,0.09573345,-0.9545217,-0.036569737,0.0,0.0,0.0
276164395,0.095685214,-0.9545047,-0.03655065,0.0,0.0,0.0
276168539,0.09578917,-0.9545156,-0.036590815,0.0,0.0,0.0
276172306,0.100079015,-0.65830094,-0.02680206,0.0,0.0,0.0
276176394,0.100183725,-0.65831214,-0.0268301,0.0,0.0,0.0
276180360,0.10019677,-0.6583136,-0.026833596,0.0,0.0,0.0
276184344,0.10020921,-0.6583028,-0.026836464,0.0,0.0,0.0
276188462,0.10025202,-0.65825945,-0.0268461,0.0,0.0,0.0
276192322,0.10036223,-0.6582566,-0.026875058,0.0,0.0,0.0
276196319,0.10614427,-0.37943125,-0.018242309,0.0,0.0,0.0
276200387,0.106097065,-0.3793991,-0.018233912,0.0,0.0,0.0
276204375,0.10591951,-0.37942028,-0.01820772,0.0,0.0,0.0
276208430,0.1057977,-0.3794406,-0.018189969,0.0,0.0,0.0
276212396,0.10574656,-0.3795095,-0.0181848,0.0,0.0,0.0
276216306,0.10573086,-0.37957612,-0.01818493,0.0,0.0,0.0
276220284,0.10286929,-0.26346976,-0.012674073,0.0,0.0,0.0
276224393,0.102759354,-0.26350248,-0.012663709,0.0,0.0,0.0
276228421,0.102657676,-0.26349998,-0.012652877,0.0,0.0,0.0
276232276,0.10259731,-0.26346025,-0.012644998,0.0,0.0,0.0
276236389,0.10265204,-0.26345223,-0.012650472,0.0,0.0,0.0
276240334,0.102761336,-0.26343685,-0.012661425,0.0,0.0,0.0
276244396,0.096480474,-0.27516395,-0.010791886,0.0,0.0,0.0
276248581,0.09635747,-0.27518132,-0.010778992,0.0,0.0,0.0
276252351,0.0962926,-0.27518916,-0.01077214,0.0,0.0,0.0
276256322,0.09631701,-0.27521694,-0.010775892,0.0,0.0,0.0
276260346,0.09642519,-0.27524617,-0.01078894,0.0,0.0,0.0
276264384,0.096582055,-0.2752844,-0.010807702,0.0,0.0,0.0
276267527,0.094927646,-0.3112177,-0.012362396,0.0,0.0,0.0
276271740,0.09489077,-0.3111829,-0.012356465,0.0,0.0,0.0
276278786,0.09492003,-0.3110875,-0.012356456,0.0,0.0,0.0
276283610,0.0950339,-0.311029,-0.012368401,0.0,0.0,0.0
276286760,0.095053606,-0.31101605,-0.01237036,0.0,0.0,0.0
276291560,0.095436536,-0.38328975,-0.014913661,0.0,0.0,0.0
276295813,0.095291026,-0.38328493,-0.014891134,0.0,0.0,0.0
276299615,0.095136434,-0.38326773,-0.014866739,0.0,0.0,0.0
276303574,0.09511134,-0.38325316,-0.014862329,0.0,0.0,0.0
276307581,0.095145814,-0.38323033,-0.014866751,0.0,0.0,0.0
276311636,0.09511685,-0.3831781,-0.014860307,0.0,0.0,0.0
276315657,0.09546734,-0.5699224,-0.021776918,0.0,0.0,0.0
276319604,0.09537372,-0.569899,-0.021754656,0.0,0.0,0.0
276323641,0.09536995,-0.5698962,-0.021753686,0.0,0.0,0.0
276327513,0.09538005,-0.56989735,-0.021756036,0.0,0.0,0.0
276331601,0.09541912,-0.5699199,-0.021765813,0.0,0.0,0.0
276335657,0.09534286,-0.569909,-0.021747986,0.0,0.0,0.0
276339563,0.0953721,-0.85607743,-0.032677185,0.0,0.0,0.0
276343627,0.09531407,-0.8560544,-0.032656405,0.0,0.0,0.0
276347621,0.09542275,-0.8560785,-0.032694593,0.0,0.0,0.0
276351522,0.09558723,-0.856113,-0.032752316,0.0,0.0,0.0
276355756,0.095699266,-0.8561434,-0.032791905,0.0,0.0,0.0
276359575,0.095671624,-0.8561592,-0.032783028,0.0,0.0,0.0
276363562,0.09558077,-1.0471976,-0.04246437,0.0,0.0,0.0
276367575,0.095628984,-1.0471976,-0.04248771,0.0,0.0,0.0
276371519,0.095705576,-1.0471976,-0.042523723,0.0,0.0,0.0
276375720,0.095803216,-1.0471976,-0.042568166,0.0,0.0,0.0
276379634,0.09577104,-1.0471976,-0.042552944,0.0,0.0,0.0
276383651,0.09565577,-1.0471976,-0.04250143,0.0,0.0,0.0
276387544,0.09548734,-1.0471976,-0.04731948,0.0,0.0,0.0
276391584,0.09546201,-1.0471976,-0.04730889,0.0,0.0,0.0
276395952,0.095513225,-1.0471976,-0.047334176,0.0,0.0,0.0
276399555,0.09551778,-1.0471976,-0.047336917,0.0,0.0,0.0
276403646,0.0953812,-1.0471976,-0.047269326,0.0,0.0,0.0
276407529,0.09526681,-1.0471976,-0.047211867,0.0,0.0,0.0
276411542,0.0951777,-1.0471976,-0.04793985,0.0,0.0,0.0
276415948,0.09520059,-1.0471976,-0.047949936,0.0,0.0,0.0
276419581,0.09528385,-1.0471976,-0.04799074,0.0,0.0,0.0
276423603,0.09532429,-1.0471976,-0.048009414,0.0,0.0,0.0
276427792,0.095264256,-1.0471976,-0.047978465,0.0,0.0,0.0
276431504,0.09520465,-1.0471976,-0.04794727,0.0,0.0,0.0
276435908,0.09530804,-1.0471976,-0.047588166,0.0,0.0,0.0
276439642,0.09548039,-1.0471976,-0.047673643,0.0,0.0,0.0
276443547,0.09563046,-1.0471976,-0.047747876,0.0,0.0,0.0
276447601,0.095602825,-1.0471976,-0.047733445,0.0,0.0,0.0
276451551,0.09558531,-1.0471976,-0.04772352,0.0,0.0,0.0
276455801,0.0955158,-1.0471976,-0.047687132,0.0,0.0,0.0
276459614,0.09555639,-1.0471976,-0.047781803,0.0,0.0,0.0
276463742,0.09563955,-1.0471976,-0.04782223,0.0,0.0,0.0
276467752,0.09565224,-1.0471976,-0.047828164,0.0,0.0,0.0
276471520,0.09550622,-1.0471976,-0.047755912,0.0,0.0,0.0
276475917,0.0953615,-1.0471976,-0.04768436,0.0,0.0,0.0
276479644,0.095296375,-1.0471976,-0.047653336,0.0,0.0,0.0
276483514,0.09529863,-1.0471976,-0.04648143,0.0,0.0,0.0
276487785,0.095332265,-1.0471976,-0.04649901,0.0,0.0,0.0
276491517,0.09522271,-1.0471976,-0.046445955,0.0,0.0,0.0
276495814,0.0950762,-1.0471976,-0.046375245,0.0,0.0,0.0
276499610,0.09494634,-1.0471976,-0.04631075,0.0,0.0,0.0
276503617,0.094938554,-1.0471976,-0.04630835,0.0,0.0,0.0
276507551,0.095028445,-1.0471976,-0.041994415,0.0,0.0,0.0
276511604,0.095115475,-1.0471976,-0.042033456,0.0,0.0,0.0
276515812,0.09507136,-1.0471976,-0.042014092,0.0,0.0,0.0
276519520,0.095061906,-1.0471976,-0.042009484,0.0,0.0,0.0
276523663,0.095148474,-1.0471976,-0.042049453,0.0,0.0,0.0
276527548,0.09534462,-1.0471976,-0.042136308,0.0,0.0,0.0
276531535,0.09556621,-0.89203894,-0.034116227,0.0,0.0,0.0
276535980,0.09563981,-0.8920302,-0.034142192,0.0,0.0,0.0
276539553,0.09564993,-0.89202535,-0.034145623,0.0,0.0,0.0
276543589,0.095592886,-0.8919757,-0.03412334,0.0,0.0,0.0
276547637,0.09565115,-0.8920271,-0.034146123,0.0,0.0,0.0
276551597,0.09572589,-0.8919969,-0.034171678,0.0,0.0,0.0
276558805,0.095666625,-0.59370357,-0.022730183,0.0,0.0,0.0
276562748,0.09558584,-0.5936899,-0.022710448,0.0,0.0,0.0
276566731,0.09547126,-0.59366685,-0.02268232,0.0,0.0,0.0
276569976,0.09547628,-0.5937111,-0.022685198,0.0,0.0,0.0
276574807,0.095571846,-0.5937369,-0.022708917,0.0,0.0,0.0
276578740,0.0956263,-0.34521464,-0.013211084,0.0,0.0,0.0
276582795,0.09553016,-0.34521544,-0.01319782,0.0,0.0,0.0
276586736,0.09545472,-0.3452008,-0.013186828,0.0,0.0,0.0
276590739,0.09545627,-0.3452108,-0.013187424,0.0,0.0,0.0
276594791,0.09553469,-0.26330146,-0.010066675,0.0,0.0,0.0
276598738,0.095657155,-0.26328662,-0.010079023,0.0,0.0,0.0
276602717,0.095660344,-0.26325908,-0.010078305,0.0,0.0,0.0
276606789,0.09566706,-0.26323843,-0.0100782225,0.0,0.0,0.0
276610762,0.09563782,-0.26321018,-0.010074059,0.0,0.0,0.0
276614768,0.095746785,-0.26327723,-0.010088117,0.0,0.0,0.0
276618964,0.095953904,-0.28171328,-0.01081791,0.0,0.0,0.0
276622749,0.09616669,-0.28176975,-0.010844096,0.0,0.0,0.0
276626742,0.096147425,-0.28179342,-0.010842831,0.0,0.0,0.0
276630809,0.0961074,-0.28179115,-0.010838226,0.0,0.0,0.0
276634784,0.09605951,-0.28177655,-0.0108322585,0.0,0.0,0.0
276638802,0.096096575,-0.30462226,-0.011715033,0.0,0.0,0.0
276642781,0.096147664,-0.30459625,-0.011720266,0.0,0.0,0.0
276646735,0.0960904,-0.30457586,-0.011712495,0.0,0.0,0.0
276650750,0.095973626,-0.30455863,-0.011697587,0.0,0.0,0.0
276654817,0.09580518,-0.3045385,-0.011676262,0.0,0.0,0.0
276658819,0.09574708,-0.3046254,-0.011672505,0.0,0.0,0.0
276662723,0.09577815,-0.30948487,-0.01186256,0.0,0.0,0.0
276666786,0.09584993,-0.30954316,-0.011873695,0.0,0.0,0.0
276670712,0.09573434,-0.30955288,-0.0118597355,0.0,0.0,0.0
276674758,0.09565842,-0.30952764,-0.011849355,0.0,0.0,0.0
276678826,0.095610924,-0.30952352,-0.011843308,0.0,0.0,0.0
276682721,0.09566416,-0.30953217,-0.011850239,0.0,0.0,0.0
276686729,0.09577926,-0.3067921,-0.011759482,0.0,0.0,0.0
276690777,0.09584721,-0.3067651,-0.011766799,0.0,0.0,0.0
276694774,0.095854916,-0.30674696,-0.011767048,0.0,0.0,0.0
276698738,0.09580615,-0.30670473,-0.011759438,0.0,0.0,0.0
276702806,0.09587943,-0.30673474,-0.011769591,0.0,0.0,0.0
276706728,0.09604791,-0.306729,-0.011790073,0.0,0.0,0.0
276710723,0.09627489,-0.304814,-0.011744181,0.0,0.0,0.0
276714828,0.096276306,-0.3047954,-0.011743637,0.0,0.0,0.0
276718766,0.0962409,-0.3047643,-0.011738116,0.0,0.0,0.0
276722741,0.096168846,-0.3047417,-0.011728451,0.0,0.0,0.0
276726777,0.09619647,-0.30476576,-0.011732748,0.0,0.0,0.0
276730714,0.09625282,-0.30471674,-0.011737739,0.0,0.0,0.0
276734735,0.09628094,-0.30452275,-0.011733696,0.0,0.0,0.0
276738797,0.09614871,-0.3045035,-0.011716825,0.0,0.0,0.0
276742791,0.09595904,-0.304473,-0.0116925165,0.0,0.0,0.0
276746730,0.09583679,-0.3045345,-0.011679966,0.0,0.0,0.0
276750760,0.095847435,-0.30454433,-0.011681641,0.0,0.0,0.0
276754795,0.09588919,-0.30455852,-0.011687279,0.0,0.0,0.0
276758746,0.09577729,-0.30484936,-0.011684775,0.0,0.0,0.0
276763107,0.09567697,-0.30483714,-0.011672056,0.0,0.0,0.0
276766720,0.095536225,-0.30480343,-0.011653581,0.0,0.0,0.0
276770694,0.09551165,-0.30483764,-0.011651888,0.0,0.0,0.0
276774851,0.095592365,-0.3048207,-0.0116610965,0.0,0.0,0.0
276778803,0.09569751,-0.30486393,-0.011675591,0.0,0.0,0.0
276782745,0.095639184,-0.3050247,-0.011674621,0.0,0.0,0.0
276786747,0.09556938,-0.3050184,-0.011665851,0.0,0.0,0.0
276790718,0.095551655,-0.30502573,-0.011663965,0.0,0.0,0.0
276794699,0.0956548,-0.30502263,-0.011676449,0.0,0.0,0.0
276798790,0.095827445,-0.30502462,-0.011697623,0.0,0.0,0.0
276802748,0.09586049,-0.30502543,-0.011701691,0.0,0.0,0.0
276806700,0.09585209,-0.3050483,-0.011701541,0.0,0.0,0.0
276810729,0.09573295,-0.30504304,-0.0116867805,0.0,0.0,0.0
276814745,0.095730245,-0.3050904,-0.011688265,0.0,0.0,0.0
276818742,0.09580014,-0.305055,-0.01169545,0.0,0.0,0.0
276822791,0.09589307,-0.305067,-0.011707267,0.0,0.0,0.0
276826721,0.09575811,-0.3050595,-0.011690487,0.0,0.0,0.0
276830704,0.0956067,-0.3050189,-0.01167043,0.0,0.0,0.0
276834765,0.09543874,-0.30502886,-0.0116502885,0.0,0.0,0.0
276838799,0.09544097,-0.30507773,-0.011652427,0.0,0.0,0.0
276842740,0.09549913,-0.30511037,-0.011660782,0.0,0.0,0.0
276846761,0.09547681,-0.30513734,-0.011659086,0.0,0.0,0.0
276850778,0.095411815,-0.30515662,-0.011651877,0.0,0.0,0.0
276854753,0.09527482,-0.30512238,-0.011633825,0.0,0.0,0.0
276858790,0.09524142,-0.3051649,-0.011631363,0.0,0.0,0.0
276862821,0.09533491,-0.30508775,-0.011639847,0.0,0.0,0.0
276866698,0.095511556,-0.30508935,-0.011661497,0.0,0.0,0.0
276870802,0.09550375,-0.30502743,-0.011658177,0.0,0.0,0.0
276877168,0.09547391,-0.30499557,-0.0116533125,0.0,0.0,0.0
276881932,0.09557459,-0.30504718,-0.011667588,0.0,0.0,0.0
276885988,0.09573122,-0.30502477,-0.011685871,0.0,0.0,0.0
276889947,0.09591221,-0.3050474,-0.011708853,0.0,0.0,0.0
276893952,0.0958948,-0.30504093,-0.011706478,0.0,0.0,0.0
276897936,0.09584182,-0.30503744,-0.011699869,0.0,0.0,0.0
276902015,0.09576954,-0.30504066,-0.0116911605,0.0,0.0,0.0
276905899,0.09581202,-0.30503565,-0.011696162,0.0,0.0,0.0
276909996,0.095900975,-0.30503985,-0.01170719,0.0,0.0,0.0
276913949,0.09587673,-0.30503926,-0.011704206,0.0,0.0,0.0
276917892,0.09579986,-0.30505404,-0.011695379,0.0,0.0,0.0
276922023,0.09562948,-0.305046,-0.011674251,0.0,0.0,0.0
276925964,0.09554074,-0.30511642,-0.0116661,0.0,0.0,0.0
276929943,0.09552421,-0.30510348,-0.011663584,0.0,0.0,0.0
276933950,0.09559336,-0.30516028,-0.011674209,0.0,0.0,0.0
276937935,0.0955012,-0.30515224,-0.011662636,0.0,0.0,0.0
276941900,0.09538565,-0.30515277,-0.01164853,0.0,0.0,0.0
276945995,0.09528336,-0.30516392,-0.011636453,0.0,0.0,0.0
276949965,0.09535467,-0.3051847,-0.0116459625,0.0,0.0,0.0
276953958,0.09547944,-0.3051722,-0.011660738,0.0,0.0,0.0
276957976,0.095560215,-0.30518687,-0.011671175,0.0,0.0,0.0
276961955,0.09559914,-0.30518904,-0.011676016,0.0,0.0,0.0
276965907,0.09556872,-0.30514765,-0.011670713,0.0,0.0,0.0
276969960,0.09560394,-0.3051871,-0.011676528,0.0,0.0,0.0
276973982,0.09574119,-0.30515936,-0.011692244,0.0,0.0,0.0
276977940,0.09596811,-0.3051634,-0.01172014,0.0,0.0,0.0
276981962,0.09599839,-0.30512226,-0.011722261,0.0,0.0,0.0
276985944,0.095961034,-0.30510288,-0.011716951,0.0,0.0,0.0
276989905,0.09588103,-0.30509192,-0.01170675,0.0,0.0,0.0
276994033,0.095941514,-0.30512673,-0.011715481,0.0,0.0,0.0
276997948,0.09603419,-0.30511266,-0.011726268,0.0,0.0,0.0
277001883,0.09613809,-0.30514956,-0.0117403865,0.0,0.0,0.0
277005932,0.096117936,-0.30514,-0.011737555,0.0,0.0,0.0
277009996,0.09599901,-0.305129,-0.0117225945,0.0,0.0,0.0
277013962,0.09589878,-0.30518457,-0.011712477,0.0,0.0,0.0
277018008,0.09593121,-0.30518222,-0.011716351,0.0,0.0,0.0
277022022,0.0960724,-0.30521563,-0.011734896,0.0,0.0,0.0
277025897,0.09604534,-0.30522063,-0.01173178,0.0,0.0,0.0
277029943,0.09597521,-0.305223,-0.011723297,0.0,0.0,0.0
277034022,0.09582095,-0.3052107,-0.011703963,0.0,0.0,0.0
277037942,0.09582531,-0.30527964,-0.01170714,0.0,0.0,0.0
277041985,0.095916614,-0.30522907,-0.011716366,0.0,0.0,0.0
277045992,0.09606804,-0.30524403,-0.011735456,0.0,0.0,0.0
277049897,0.09607225,-0.30522102,-0.011735085,0.0,0.0,0.0
277054021,0.09600564,-0.30521077,-0.011726546,0.0,0.0,0.0
277057989,0.09594803,-0.30524883,-0.011720966,0.0,0.0,0.0
277061901,0.096046776,-0.2805564,-0.010783922,0.0,0.0,0.0
277065973,0.096246146,-0.28058824,-0.010807553,0.0,0.0,0.0
277069929,0.09628824,-0.2805987,-0.01081269,0.0,0.0,0.0
277073956,0.09626472,-0.28060564,-0.010810313,0.0,0.0,0.0
277077954,0.09614103,-0.2806291,-0.0107973125,0.0,0.0,0.0
277081944,0.09611816,-0.28067368,-0.010796456,0.0,0.0,0.0
277085912,0.09616341,-0.22106335,-0.008507478,0.0,0.0,0.0
277089947,0.09627561,-0.2210776,-0.008517964,0.0,0.0,0.0
277093977,0.09624069,-0.22104195,-0.008513498,0.0,0.0,0.0
277097936,0.09610835,-0.22100197,-0.008500241,0.0,0.0,0.0
277101941,0.09591364,-0.22099249,-0.008482641,0.0,0.0,0.0
277105997,0.09592261,-0.2210049,-0.008483911,0.0,0.0,0.0
277109849,0.09603211,-0.14155059,-0.0054400363,0.0,0.0,0.0
277113991,0.09605028,-0.14156409,-0.0054415856,0.0,0.0,0.0
277117976,0.095964976,-0.14157571,-0.005437195,0.0,0.0,0.0
277121925,0.09582125,-0.14155212,-0.0054281387,0.0,0.0,0.0
277126001,0.095752954,-0.1415747,-0.005425131,0.0,0.0,0.0
277129897,0.09582206,-0.14152876,-0.005427289,0.0,0.0,0.0
277133930,0.09600017,-0.032898933,-0.0012639426,0.0,0.0,0.0
277137941,0.09601688,-0.032866538,-0.001262918,0.0,0.0,0.0
277141917,0.09593964,-0.03284149,-0.0012609393,0.0,0.0,0.0
277146016,0.09582947,-0.032840427,-0.001259449,0.0,0.0,0.0
277149880,0.09591722,-0.032871705,-0.0012618043,0.0,0.0,0.0
277153972,0.09608443,0.12122323,0.0046613617,0.0,0.0,0.0
277157944,0.09620394,0.12121797,0.0046669627,0.0,0.0,0.0
277161136,0.09619528,0.12124189,0.004667463,0.0,0.0,0.0
277165187,0.0961002,0.121238545,0.0046627168,0.0,0.0,0.0
277169137,0.09598658,0.12123931,0.004657228,0.0,0.0,0.0
277173151,0.09602815,0.12123137,0.004658941,0.0,0.0,0.0
277177205,0.09615847,0.321,0.012352839,0.0,0.0,0.0
277181165,0.09615553,0.3210029,0.012352575,0.0,0.0,0.0
277185217,0.09603155,0.32099652,0.0123363845,0.0,0.0,0.0
277189137,0.09582765,0.32099393,0.012310067,0.0,0.0,0.0
277193209,0.09572701,0.3209282,0.012294607,0.0,0.0,0.0
277197107,0.09574485,0.32094628,0.012297594,0.0,0.0,0.0
277201135,0.09584294,0.5098776,0.01955685,0.0,0.0,0.0
277205189,0.09582959,0.50990164,0.019555045,0.0,0.0,0.0
277209134,0.09572942,0.5099333,0.019535795,0.0,0.0,0.0
277213361,0.09559452,0.5099275,0.019508017,0.0,0.0,0.0
277217115,0.09564885,0.50989985,0.019518059,0.0,0.0,0.0
277221127,0.09581037,0.62066036,0.023797933,0.0,0.0,0.0
277225191,0.09590701,0.6206375,0.023821082,0.0,0.0,0.0
277229171,0.09589331,0.62063545,0.023817597,0.0,0.0,0.0
277233170,0.09578869,0.6206212,0.023791041,0.0,0.0,0.0
277237153,0.09575202,0.62056583,0.0237798,0.0,0.0,0.0
277241175,0.09583723,0.6205863,0.023801768,0.0,0.0,0.0
277245203,0.09599551,0.65117484,0.025016239,0.0,0.0,0.0
277249218,0.09602131,0.65117234,0.025022874,0.0,0.0,0.0
277253171,0.09592686,0.651186,0.02499876,0.0,0.0,0.0
277257123,0.09577287,0.65119416,0.024958907,0.0,0.0,0.0
277261183,0.095803864,0.65117055,0.024966085,0.0,0.0,0.0
277265104,0.095914535,0.6511945,0.024995875,0.0,0.0,0.0
277269220,0.095960125,0.6457275,0.024797818,0.0,0.0,0.0
277273241,0.095864356,0.64574313,0.024773644,0.0,0.0,0.0
277277071,0.09570323,0.6457563,0.024732467,0.0,0.0,0.0
277281104,0.095562205,0.64574885,0.024695702,0.0,0.0,0.0
277285152,0.0955615,0.6457588,0.024695901,0.0,0.0,0.0
277289168,0.09566767,0.6457552,0.024723228,0.0,0.0,0.0
277293187,0.095658556,0.6357821,0.024339078,0.0,0.0,0.0
277297272,0.09552739,0.6358101,0.02430674,0.0,0.0,0.0
277301098,0.09534304,0.635823,0.024260283,0.0,0.0,0.0
277305066,0.0953228,0.63577634,0.024253346,0.0,0.0,0.0
277309204,0.09539363,0.6357709,0.02427118,0.0,0.0,0.0
277313262,0.09550578,0.63574654,0.02429881,0.0,0.0,0.0
277317108,0.09548926,0.62425566,0.023855489,0.0,0.0,0.0
277321246,0.0953776,0.6242806,0.023828516,0.0,0.0,0.0
277325068,0.095278695,0.62425035,0.02380263,0.0,0.0,0.0
277329184,0.09533909,0.62423575,0.023817174,0.0,0.0,0.0
277333230,0.095537394,0.6242166,0.023866031,0.0,0.0,0.0
277337174,0.09566184,0.6242391,0.023898011,0.0,0.0,0.0
277341137,0.095609605,0.61308384,0.023458121,0.0,0.0,0.0
277345190,0.095460385,0.6130955,0.023421917,0.0,0.0,0.0
277349121,0.09540278,0.6130556,0.023406247,0.0,0.0,0.0
277353196,0.09544968,0.61308396,0.023418847,0.0,0.0,0.0
277357182,0.095510945,0.61309314,0.023434244,0.0,0.0,0.0
277361191,0.0954675,0.61309963,0.023423823,0.0,0.0,0.0
277365097,0.09532407,0.60628766,0.023128731,0.0,0.0,0.0
277369190,0.09513956,0.6062481,0.023082413,0.0,0.0,0.0
277373177,0.095117964,0.60622007,0.023076104,0.0,0.0,0.0
277377147,0.09523749,0.60622895,0.023105467,0.0,0.0,0.0
277381385,0.0953127,0.6062239,0.023123538,0.0,0.0,0.0
277385069,0.09523514,0.60624486,0.023105504,0.0,0.0,0.0
277389119,0.09509162,0.6059304,0.02305868,0.0,0.0,0.0
277393235,0.09501414,0.6059069,0.023038983,0.0,0.0,0.0
277397118,0.09505027,0.60593307,0.023048747,0.0,0.0,0.0
277401156,0.0951944,0.60592043,0.02308325,0.0,0.0,0.0
277405148,0.095222905,0.60594404,0.02309107,0.0,0.0,0.0
277409100,0.09513241,0.60593593,0.023068793,0.0,0.0,0.0
277413232,0.095009774,0.6091109,0.023159744,0.0,0.0,0.0
277417213,0.09506421,0.6090632,0.023171214,0.0,0.0,0.0
277421141,0.09525542,0.60906905,0.023218088,0.0,0.0,0.0
277425095,0.09540569,0.60904574,0.023253862,0.0,0.0,0.0
277429166,0.09539832,0.60907304,0.023253106,0.0,0.0,0.0
277433157,0.09530283,0.6091011,0.023230879,0.0,0.0,0.0
277437200,0.095217966,0.6133057,0.023370389,0.0,0.0,0.0
277441209,0.095243946,0.61333793,0.023378002,0.0,0.0,0.0
277445079,0.09535708,0.6133546,0.023406435,0.0,0.0,0.0
277449155,0.09537115,0.6133684,0.023410417,0.0,0.0,0.0
277453214,0.09521444,0.6133623,0.023371683,0.0,0.0,0.0
277457182,0.095014475,0.6133473,0.023321979,0.0,0.0,0.0
277460337,0.094992146,0.61622924,0.02342605,0.0,0.0,0.0
277463637,0.09503488,0.6162325,0.023436727,0.0,0.0,0.0
277468455,0.09524484,0.6161679,0.023486089,0.0,0.0,0.0
277471595,0.09529659,0.61618054,0.023499345,0.0,0.0,0.0
277476811,0.095194176,0.6162086,0.023475135,0.0,0.0,0.0
277480324,0.095030665,0.61621,0.023434827,0.0,0.0,0.0
277483567,0.09500434,0.61743516,0.023474911,0.0,0.0,0.0
277488575,0.09510789,0.6174619,0.02350154,0.0,0.0,0.0
277492254,0.095178746,0.61747104,0.02351941,0.0,0.0,0.0
277496747,0.0951069,0.617508,0.023503048,0.0,0.0,0.0
277500388,0.094981275,0.61748827,0.023471223,0.0,0.0,0.0
277504351,0.09495377,0.61745447,0.023463136,0.0,0.0,0.0
277508430,0.095087305,0.6213119,0.023642952,0.0,0.0,0.0
277512393,0.09532654,0.62130547,0.023702249,0.0,0.0,0.0
277516701,0.09545328,0.62134916,0.023735462,0.0,0.0,0.0
277520261,0.09543152,0.6213856,0.023731438,0.0,0.0,0.0
277524454,0.0953475,0.62138677,0.023710566,0.0,0.0,0.0
277528405,0.09536371,0.62138116,0.023714388,0.0,0.0,0.0
277532326,0.09550195,0.6275197,0.02398341,0.0,0.0,0.0
277536779,0.09562213,0.6274959,0.02401271,0.0,0.0,0.0
277540295,0.095598616,0.627501,0.024006994,0.0,0.0,0.0
277544348,0.09547669,0.62748,0.02397554,0.0,0.0,0.0
277548540,0.09540949,0.6274268,0.02395662,0.0,0.0,0.0
277552357,0.09548196,0.6273823,0.023973137,0.0,0.0,0.0
277556727,0.0956816,0.6308276,0.024155233,0.0,0.0,0.0
277560303,0.095781945,0.630828,0.024180606,0.0,0.0,0.0
277564345,0.09566769,0.6308499,0.024152571,0.0,0.0,0.0
277568413,0.095470525,0.6308381,0.024102297,0.0,0.0,0.0
277572356,0.09538411,0.6308047,0.024079185,0.0,0.0,0.0
277576724,0.09543102,0.63082033,0.024091637,0.0,0.0,0.0
