timestamp,magnetometer_ga[0],magnetometer_ga[1],magnetometer_ga[2]
273376948,-0.025608763,-0.1023878,0.3808901
273401216,-0.009988094,-0.1023878,0.3927475
273413507,-0.019360496,-0.106803365,0.40164053
273426061,-0.016236361,-0.09650039,0.37792572
273448967,-0.01155016,-0.1023878,0.38681877
273460078,-0.024046697,-0.11416264,0.39867622
273473042,-0.01779843,-0.106803365,0.39422968
273496834,-0.009988094,-0.112690784,0.3912653
273508049,-0.019360496,-0.10091595,0.39867622
273520867,-0.01155016,-0.10827523,0.40015835
273532054,-0.016236361,-0.106803365,0.3912653
273545058,-0.019360496,-0.09650039,0.3912653
273557182,-0.013112227,-0.103859656,0.38830096
273569487,-0.027170831,-0.11121893,0.3927475
273581195,-0.025608763,-0.106803365,0.3912653
273593117,-0.019360496,-0.1023878,0.3927475
273604390,-0.01779843,-0.12152191,0.38830096
273615984,-0.01155016,-0.112690784,0.3912653
273639940,-0.027170831,-0.09797224,0.3927475
273651211,-0.013112227,-0.103859656,0.3927475
273675262,-0.024046697,-0.11121893,0.4105336
273687941,-0.028732898,-0.10827523,0.39571184
273699273,-0.009988094,-0.12299376,0.40608707
273722165,-0.031857032,-0.10827523,0.3927475
273733190,-0.009988094,-0.11563449,0.38385445
273745198,-0.01155016,-0.1023878,0.40015835
273767744,-0.027170831,-0.10091595,0.38830096
273779279,-0.016236361,-0.1023878,0.38385445
273791661,-0.019360496,-0.1023878,0.40015835
273813226,-0.013112227,-0.106803365,0.3927475
273825250,-0.016236361,-0.09650039,0.3912653
273836729,0.00407051,-0.10827523,0.38681877
273859455,-0.0053018914,-0.1023878,0.3912653
273872247,-0.019360496,-0.112690784,0.3912653
273884600,-0.019360496,-0.11121893,0.40164053
273895767,-0.028732898,-0.1023878,0.3912653
273907590,-0.00061569066,-0.11710635,0.40164053
273920150,-0.025608763,-0.112690784,0.3912653
273931623,-0.0068639587,-0.08766925,0.40164053
273942860,-0.009988094,-0.106803365,0.38681877
273954455,-0.013112227,-0.106803365,0.37347922
273965218,-0.01779843,-0.11121893,0.38830096
273977149,-0.020922562,-0.09944409,0.38681877
274000289,-0.01779843,-0.103859656,0.38830096
274011664,-0.009988094,-0.103859656,0.39867622
274034458,-0.013112227,-0.106803365,0.38830096
274046802,-0.0334191,-0.11416264,0.40164053
274057165,-0.019360496,-0.1185782,0.3912653
274069194,-0.009988094,-0.12446563,0.40460488
274081155,-0.0068639587,-0.11121893,0.39422968
274093143,-0.019360496,-0.106803365,0.39422968
274105222,-0.013112227,-0.11710635,0.3927475
274129265,-0.019360496,-0.09797224,0.4105336
274140181,-0.030294966,-0.103859656,0.38830096
274152264,-0.013112227,-0.11121893,0.39867622
274175569,-0.019360496,-0.09944409,0.3927475
274186828,-0.01779843,-0.106803365,0.3853366
274198023,-0.024046697,-0.11416264,0.39867622
274222552,-0.019360496,-0.10827523,0.40015835
274235123,-0.013112227,-0.11710635,0.3927475
274247841,-0.013112227,-0.106803365,0.39422968
274258749,-0.009988094,-0.11710635,0.38830096
274270375,-0.01779843,-0.11416264,0.40460488
274282766,-0.020922562,-0.112690784,0.39571184
274294620,-0.020922562,-0.10827523,0.39571184
274306799,-0.019360496,-0.106803365,0.3927475
274318427,-0.019360496,-0.11121893,0.3927475
274330850,-0.019360496,-0.11563449,0.39571184
274343458,-0.01779843,-0.11121893,0.3853366
274355404,-0.00061569066,-0.106803365,0.39422968
274367483,-0.020922562,-0.112690784,0.3912653
274378854,-0.013112227,-0.11121893,0.39867622
274402805,-0.009988094,-0.10827523,0.38681877
274414638,-0.009988094,-0.103859656,0.38830096
274426768,-0.013112227,-0.103859656,0.3927475
274450789,-0.019360496,-0.09502853,0.40164053
274462357,-0.009988094,-0.11121893,0.38237226
274474720,-0.016236361,-0.11563449,0.40015835
274498543,-0.019360496,-0.106803365,0.39867622
274510031,-0.019360496,-0.106803365,0.38681877
274522565,-0.019360496,-0.112690784,0.3927475
274534305,-0.01779843,-0.11416264,0.38830096
274546565,-0.0068639587,-0.106803365,0.39422968
274558035,-0.019360496,-0.106803365,0.40164053
274570542,-0.01155016,-0.1023878,0.3927475
274581948,-0.009988094,-0.11416264,0.39422968
274593636,-0.024046697,-0.11121893,0.39867622
274604927,-0.027170831,-0.11121893,0.3927475
274617370,-0.01779843,-0.11710635,0.39867622
274630006,-0.019360496,-0.11710635,0.39422968
274642423,-0.019360496,-0.09650039,0.39571184
274654060,-0.019360496,-0.112690784,0.3927475
274678031,-0.020922562,-0.10827523,0.38385445
274690528,-0.013112227,-0.11121893,0.38830096
274701919,-0.0037398248,-0.11416264,0.39867622
274725989,-0.009988094,-0.11416264,0.40460488
274738491,-0.019360496,-0.10827523,0.40015835
274750182,-0.009988094,-0.1185782,0.39571184
274774688,-0.031857032,-0.1023878,0.3927475
274785746,-0.009988094,-0.106803365,0.38830096
274797194,-0.019360496,-0.10827523,0.3927475
274808651,-0.020922562,-0.11563449,0.3912653
274819345,-0.027170831,-0.103859656,0.40164053
274832435,-0.01155016,-0.12299376,0.3927475
274844216,-0.016236361,-0.10827523,0.40015835
274856576,-0.0053018914,-0.106803365,0.40015835
274868054,-0.019360496,-0.11416264,0.3853366
274880567,-0.0334191,-0.103859656,0.3927475
274905946,-0.024046697,-0.09797224,0.39422968
274917167,-0.025608763,-0.106803365,0.3927475
274932096,-0.016236361,-0.11563449,0.38681877
274956166,-0.01779843,-0.106803365,0.3927475
274968922,-0.01779843,-0.12152191,0.38830096
274980372,-0.013112227,-0.11416264,0.39422968
275004193,-0.01779843,-0.106803365,0.38237226
275016752,-0.019360496,-0.11563449,0.39571184
275052013,-0.009988094,-0.11416264,0.39422968
275064816,-0.016236361,-0.11563449,0.40015835
275087228,-0.016236361,-0.106803365,0.3927475
275099925,-0.019360496,-0.11710635,0.3853366
275110198,-0.028732898,-0.11416264,0.39571184
275121341,-0.028732898,-0.10827523,0.39571184
275133812,-0.0053018914,-0.106803365,0.38385445
275145157,-0.025608763,-0.112690784,0.3927475
275157210,-0.027170831,-0.103859656,0.39422968
275179793,-0.025608763,-0.1023878,0.40164053
275191242,-0.01779843,-0.103859656,0.3927475
275203804,-0.013112227,-0.11121893,0.39422968
275228087,-0.009988094,-0.103859656,0.3794079
275240373,-0.019360496,-0.10827523,0.3927475
275251580,-0.020922562,-0.11563449,0.3927475
275274163,-0.009988094,-0.12152191,0.3927475
275287193,-0.020922562,-0.11563449,0.40015835
275300054,-0.0068639587,-0.10091595,0.3853366
275312434,-0.024046697,-0.103859656,0.3794079
275323981,-0.027170831,-0.106803365,0.39867622
275335248,-0.013112227,-0.106803365,0.3927475
275347915,-0.013112227,-0.11121893,0.38830096
275358193,-0.019360496,-0.1185782,0.40164053
275369384,-0.01779843,-0.11416264,0.38237226
275381164,-0.01779843,-0.106803365,0.39867622
275393164,-0.01155016,-0.10827523,0.38385445
275405145,-0.025608763,-0.10827523,0.3927475
275417157,-0.016236361,-0.106803365,0.39571184
275429218,-0.009988094,-0.10091595,0.39867622
275453190,-0.01779843,-0.11710635,0.38830096
275464365,-0.013112227,-0.106803365,0.39867622
275476349,-0.027170831,-0.11710635,0.3853366
275499335,-0.0068639587,-0.10091595,0.40460488
275511602,-0.0068639587,-0.106803365,0.38830096
275524179,-0.01155016,-0.106803365,0.40015835
275536290,-0.019360496,-0.112690784,0.38385445
275548519,-0.028732898,-0.112690784,0.40905142
275559753,-0.025608763,-0.106803365,0.38681877
275571495,-0.016236361,-0.1023878,0.3912653
275583614,-0.019360496,-0.1023878,0.40015835
275595450,-0.0053018914,-0.1185782,0.39571184
275607667,-0.020922562,-0.112690784,0.38681877
275620525,-0.01155016,-0.12299376,0.3927475
275631614,-0.020922562,-0.112690784,0.3927475
275644323,-0.019360496,-0.10827523,0.40015835
275655971,-0.030294966,-0.103859656,0.39867622
275667330,-0.013112227,-0.106803365,0.39867622
275691793,-0.025608763,-0.12299376,0.37496138
275703262,-0.0053018914,-0.11563449,0.3927475
275727254,-0.031857032,-0.10827523,0.40164053
275739266,-0.0381053,-0.106803365,0.40460488
275751357,-0.01779843,-0.11121893,0.3927475
275774943,-0.024046697,-0.103859656,0.3927475
275787506,-0.025608763,-0.112690784,0.3912653
275798791,-0.016236361,-0.112690784,0.38681877
275822788,-0.019360496,-0.1023878,0.3912653
275834404,-0.016236361,-0.11563449,0.38681877
275846772,-0.034981165,-0.1023878,0.39571184
275858483,-0.027170831,-0.10091595,0.39867622
275870966,-0.01779843,-0.10091595,0.3927475
275882185,-0.0053018914,-0.106803365,0.38681877
275894852,-0.019360496,-0.09797224,0.3853366
275919372,-0.01155016,-0.09944409,0.40164053
275933677,-0.020922562,-0.09944409,0.39571184
275946361,-0.01155016,-0.1023878,0.40164053
275958939,-0.024046697,-0.12152191,0.38237226
275971552,-0.020922562,-0.09944409,0.38681877
275982814,-0.01155016,-0.1023878,0.3927475
275995470,-0.01155016,-0.09944409,0.39571184
276006301,-0.0068639587,-0.10091595,0.39422968
276018735,-0.016236361,-0.10827523,0.3912653
276030062,-0.019360496,-0.11416264,0.39867622
276054178,-0.01779843,-0.106803365,0.3927475
276066787,-0.020922562,-0.089141116,0.40015835
276078444,-0.013112227,-0.11121893,0.39867622
276102018,-0.01155016,-0.09944409,0.39422968
276115360,-0.025608763,-0.09650039,0.39571184
276139287,-0.019360496,-0.09650039,0.40015835
276151219,-0.0068639587,-0.106803365,0.39422968
276163269,-0.024046697,-0.103859656,0.3927475
276186762,-0.01779843,-0.09797224,0.39867622
276198004,-0.019360496,-0.103859656,0.38237226
276210761,-0.020922562,-0.12593748,0.3808901
276234784,-0.027170831,-0.106803365,0.40756923
276246060,-0.013112227,-0.11121893,0.38237226
276258745,-0.019360496,-0.09061296,0.39867622
276281509,-0.027170831,-0.09797224,0.38830096
276292189,-0.024046697,-0.106803365,0.39422968
276305087,-0.01779843,-0.10091595,0.39422968
276329923,-0.019360496,-0.09944409,0.39571184
276341247,-0.009988094,-0.106803365,0.40164053
276376877,-0.027170831,-0.10091595,0.39422968
276388391,-0.01779843,-0.09502853,0.38830096
276412401,-0.01155016,-0.112690784,0.38385445
276424784,-0.019360496,-0.1185782,0.40015835
276436696,-0.016236361,-0.10827523,0.39571184
276460250,-0.028732898,-0.09208482,0.39571184
276472890,-0.01779843,-0.11121893,0.39867622
276484021,-0.0068639587,-0.106803365,0.40164053
276496922,-0.028732898,-0.1023878,0.40015835
276508073,-0.01155016,-0.112690784,0.3927475
276521871,-0.019360496,-0.09944409,0.40164053
276533214,-0.019360496,-0.1023878,0.3912653
276545106,-0.019360496,-0.1023878,0.39422968
276557484,-0.016236361,-0.10827523,0.3927475
276569402,-0.013112227,-0.106803365,0.40460488
276580415,-0.01155016,-0.10827523,0.3912653
276603323,-0.013112227,-0.103859656,0.3927475
276616426,-0.009988094,-0.106803365,0.40015835
276640265,-0.0068639587,-0.11416264,0.39422968
276651345,-0.016236361,-0.106803365,0.3927475
276664286,-0.025608763,-0.106803365,0.39571184
276688288,-0.0021777577,-0.112690784,0.39571184
276700386,-0.025608763,-0.1023878,0.39571184
276712193,0.0009463764,-0.11563449,0.38681877
276737246,-0.009988094,-0.11416264,0.40460488
276749556,-0.019360496,-0.1023878,0.39571184
276761484,-0.019360496,-0.10827523,0.38681877
276772449,-0.025608763,-0.112690784,0.38385445
276785484,-0.013112227,-0.09797224,0.39422968
276797173,-0.024046697,-0.103859656,0.3927475
276809516,-0.027170831,-0.11416264,0.39422968
276821198,-0.027170831,-0.11121893,0.38830096
276833512,-0.019360496,-0.106803365,0.3927475
276844410,-0.009988094,-0.10827523,0.39571184
276856237,-0.01779843,-0.10091595,0.40164053
276868412,-0.019360496,-0.10091595,0.3927475
276879322,-0.019360496,-0.10827523,0.39571184
276890949,-0.020922562,-0.112690784,0.40164053
276913151,-0.020922562,-0.10827523,0.3912653
276925165,-0.019360496,-0.12152191,0.3927475
276936249,-0.030294966,-0.11121893,0.38830096
276948565,-0.016236361,-0.112690784,0.40015835
276959929,-0.020922562,-0.112690784,0.40015835
276972741,-0.019360496,-0.11121893,0.39422968
276983630,-0.009988094,-0.10091595,0.3853366
276995310,-0.0053018914,-0.106803365,0.3912653
277007773,-0.01779843,-0.11121893,0.39422968
277019358,-0.01779843,-0.11710635,0.3927475
277031606,-0.019360496,-0.112690784,0.38681877
277056048,-0.024046697,-0.10091595,0.39867622
277068377,-0.020922562,-0.11563449,0.38385445
277079802,-0.019360496,-0.09650039,0.38681877
277103614,-0.009988094,-0.09797224,0.40460488
277115445,-0.020922562,-0.086197406,0.3912653
277127819,-0.009988094,-0.1023878,0.40164053
277151615,-0.019360496,-0.09208482,0.3927475
277163546,-0.030294966,-0.11121893,0.40164053
277187954,-0.016236361,-0.1023878,0.3927475
277199342,-0.020922562,-0.1023878,0.39571184
277211514,-0.019360496,-0.09061296,0.39422968
277223275,-0.019360496,-0.103859656,0.39422968
277235820,-0.027170831,-0.11710635,0.40460488
277246940,-0.020922562,-0.106803365,0.3927475
277258978,-0.019360496,-0.09650039,0.41201577
277283988,-0.024046697,-0.11121893,0.38237226
277295244,-0.0068639587,-0.11416264,0.38830096
277307635,-0.0068639587,-0.10091595,0.40164053
277331817,-0.020922562,-0.09944409,0.40015835
277343353,-0.009988094,-0.1185782,0.40164053
277355936,-0.01779843,-0.106803365,0.39867622
277379884,-0.019360496,-0.1185782,0.3927475
277390803,-0.01155016,-0.112690784,0.40164053
277415112,-0.025608763,-0.10827523,0.3927475
277427508,-0.01155016,-0.1185782,0.40015835
277439316,-0.019360496,-0.10091595,0.38830096
277462171,-0.016236361,-0.10827523,0.38385445
277474423,0.0025084435,-0.106803365,0.3927475
277485947,-0.019360496,-0.09944409,0.37792572
277498200,-0.019360496,-0.10827523,0.39571184
277510810,-0.01779843,-0.106803365,0.3853366
277522183,-0.016236361,-0.106803365,0.38681877
277535353,-0.025608763,-0.112690784,0.38385445
277547220,-0.024046697,-0.103859656,0.40460488
277559294,-0.01779843,-0.11121893,0.38237226
277571221,-0.019360496,-0.1023878,0.3912653
277582702,-0.013112227,-0.1318249,0.3927475
277606473,-0.019360496,-0.10091595,0.40164053
277618456,-0.01779843,-0.11121893,0.39422968
277630585,-0.0068639587,-0.103859656,0.40164053
277654943,-0.009988094,-0.1023878,0.39571184
277666129,-0.016236361,-0.106803365,0.39571184
277690160,-0.027170831,-0.09797224,0.38830096
277702960,-0.01155016,-0.112690784,0.3927475
277713998,-0.019360496,-0.103859656,0.40460488
277738425,-0.0021777577,-0.106803365,0.3912653
277750713,-0.01779843,-0.103859656,0.39422968
277762335,-0.009988094,-0.106803365,0.37792572
277786284,-0.009988094,-0.09797224,0.3853366
277798407,-0.027170831,-0.106803365,0.3794079
277810371,-0.019360496,-0.103859656,0.3853366
277822390,-0.019360496,-0.09797224,0.40164053
277834171,-0.013112227,-0.11710635,0.3927475
277846174,-0.009988094,-0.11416264,0.39867622
277858339,-0.019360496,-0.12152191,0.39867622
277870284,-0.019360496,-0.11710635,0.38237226
277882284,-0.01155016,-0.09944409,0.40015835
277894413,-0.019360496,-0.10827523,0.3927475
277906313,-0.009988094,-0.1023878,0.3912653
277930323,-0.013112227,-0.106803365,0.40460488
277942383,-0.024046697,-0.103859656,0.40756923
277966156,-0.0334191,-0.09797224,0.39422968
277978403,-0.01779843,-0.11121893,0.40164053
277990325,-0.024046697,-0.11416264,0.40164053
278014419,-0.027170831,-0.10091595,0.39867622
278026161,-0.01779843,-0.11416264,0.39867622
278038320,-0.019360496,-0.106803365,0.40164053
278062062,-0.01779843,-0.11416264,0.38830096
278073236,-0.020922562,-0.106803365,0.38385445
278086397,-0.019360496,-0.103859656,0.39422968
278098203,-0.013112227,-0.11121893,0.39422968
278110172,-0.024046697,-0.09797224,0.40756923
278121515,-0.019360496,-0.112690784,0.39571184
278134034,-0.016236361,-0.09944409,0.38681877
278145160,-0.013112227,-0.11121893,0.40756923
278157077,-0.031857032,-0.10827523,0.3912653
278169190,-0.028732898,-0.112690784,0.38681877
278207236,-0.016236361,-0.106803365,0.3927475
278220429,-0.019360496,-0.106803365,0.3927475
278834455,-0.01779843,-0.11710635,0.3853366
278846775,-0.020922562,-0.1023878,0.3912653
279123484,-0.027170831,-0.11121893,0.38237226
279134309,-0.016236361,-0.106803365,0.40164053
279146433,-0.016236361,-0.106803365,0.3912653
279158167,-0.027170831,-0.11121893,0.39422968
279170575,-0.027170831,-0.103859656,0.3927475
279181999,-0.019360496,-0.1023878,0.3912653
279206001,-0.016236361,-0.11563449,0.39571184
279218495,-0.020922562,-0.10827523,0.3912653
279253962,-0.016236361,-0.10827523,0.3927475
279265246,-0.013112227,-0.11416264,0.3853366
279290557,-0.009988094,-0.12299376,0.3912653
279302294,-0.025608763,-0.106803365,0.39571184
279314200,-0.034981165,-0.1023878,0.3912653
279337522,-0.031857032,-0.106803365,0.3927475
279348847,-0.013112227,-0.11416264,0.3927475
279360369,-0.009988094,-0.12152191,0.3927475
279384059,-0.027170831,-0.11710635,0.40460488
279397640,-0.030294966,-0.11710635,0.38237226
279408181,-0.01155016,-0.106803365,0.40015835
279432090,-0.0068639587,-0.11416264,0.38830096
279444605,-0.009988094,-0.10091595,0.3927475
279456057,-0.01779843,-0.106803365,0.38830096
279481441,-0.01779843,-0.106803365,0.39422968
279493068,-0.019360496,-0.106803365,0.39867622
279517044,-0.009988094,-0.09061296,0.40164053
279529192,-0.027170831,-0.11121893,0.38237226
279541038,-0.024046697,-0.10091595,0.3853366
279565484,-0.019360496,-0.11563449,0.39571184
279577441,-0.009988094,-0.112690784,0.3808901
279589512,-0.009988094,-0.09944409,0.3912653
279613345,-0.013112227,-0.103859656,0.39867622
279624438,-0.020922562,-0.106803365,0.38385445
279636243,-0.027170831,-0.106803365,0.38237226
279647244,-0.027170831,-0.106803365,0.38681877
279660414,-0.01155016,-0.12299376,0.3927475
279672399,-0.024046697,-0.103859656,0.3927475
279684217,-0.01779843,-0.11416264,0.40164053
279696365,-0.01779843,-0.11416264,0.40756923
279707958,-0.019360496,-0.10827523,0.38385445
279719454,-0.009988094,-0.12446563,0.3927475
279730160,-0.024046697,-0.103859656,0.39422968
279753179,-0.016236361,-0.10827523,0.3912653
279765145,-0.016236361,-0.12299376,0.39571184
279789181,-0.019360496,-0.09944409,0.38681877
279801180,-0.0068639587,-0.103859656,0.39867622
279812909,-0.0068639587,-0.106803365,0.39867622
279824374,-0.019360496,-0.11563449,0.40015835
279835759,-0.020922562,-0.112690784,0.3927475
279846169,-0.013112227,-0.11710635,0.39867622
279857201,-0.013112227,-0.106803365,0.39867622
279869359,-0.0068639587,-0.09502853,0.39422968
279892351,-0.01779843,-0.10091595,0.3912653
279903766,-0.0037398248,-0.11121893,0.38237226
279927605,-0.0068639587,-0.106803365,0.38830096
279939312,-0.019360496,-0.10827523,0.3808901
279951595,-0.013112227,-0.106803365,0.39422968
279973157,-0.016236361,-0.12299376,0.38385445
279985155,0.0009463764,-0.11563449,0.38385445
279997145,-0.0037398248,-0.106803365,0.38830096
280021217,-0.019360496,-0.10827523,0.3912653
280032241,-0.0021777577,-0.09944409,0.3927475
280044238,-0.019360496,-0.106803365,0.39422968
280066967,-0.013112227,-0.106803365,0.39867622
280079006,-0.027170831,-0.106803365,0.38830096
280090940,-0.01155016,-0.1185782,0.40015835
280113148,-0.019360496,-0.112690784,0.38681877
280125215,-0.016236361,-0.106803365,0.40164053
280136186,-0.019360496,-0.09944409,0.40164053
280159653,-0.019360496,-0.10091595,0.38830096
280171252,-0.01779843,-0.09797224,0.39422968
280182822,-0.031857032,-0.106803365,0.39571184
280206789,-0.019360496,-0.1185782,0.3927475
280219389,-0.024046697,-0.106803365,0.38830096
280230826,-0.028732898,-0.089141116,0.39571184
280254822,-0.019360496,-0.09944409,0.40015835
280266818,-0.013112227,-0.10091595,0.3853366
280279200,-0.009988094,-0.09797224,0.40164053
280293676,-0.013112227,-0.11121893,0.3927475
280306031,-0.024046697,-0.106803365,0.3927475
280319213,-0.019360496,-0.106803365,0.3853366
280343219,-0.016236361,-0.09944409,0.40164053
280355312,-0.01155016,-0.11563449,0.3912653
280366758,-0.019360496,-0.106803365,0.38681877
280390812,-0.01779843,-0.11121893,0.38237226
280402159,-0.020922562,-0.1185782,0.3927475
280414813,-0.027170831,-0.106803365,0.39422968
280426034,-0.016236361,-0.11563449,0.38681877
280438836,-0.025608763,-0.1023878,0.3927475
280450032,-0.024046697,-0.103859656,0.3927475
280462858,-0.019360496,-0.106803365,0.38681877
280474539,-0.024046697,-0.103859656,0.39422968
280486057,-0.020922562,-0.11563449,0.39571184
280499404,-0.020922562,-0.11563449,0.3927475
280510777,-0.024046697,-0.103859656,0.40164053
280523219,0.00407051,-0.10827523,0.3927475
280534823,-0.01155016,-0.1023878,0.39571184
280546238,-0.025608763,-0.10827523,0.3927475
280570938,-0.013112227,-0.10091595,0.3927475
280582316,-0.0037398248,-0.11416264,0.40164053
280594864,-0.009988094,-0.106803365,0.3912653
280618754,-0.020922562,-0.112690784,0.3912653
280630040,-0.019360496,-0.09797224,0.40164053
280642787,-0.024046697,-0.106803365,0.38237226
280665689,-0.019360496,-0.10827523,0.3912653
280678042,-0.01155016,-0.103859656,0.3927475
280690850,-0.01155016,-0.11563449,0.3927475
280702019,-0.025608763,-0.10827523,0.3912653
280714771,-0.019360496,-0.1023878,0.40015835
280726306,-0.019360496,-0.12152191,0.3927475
280738789,-0.019360496,-0.10091595,0.40756923
280750008,-0.024046697,-0.12152191,0.39867622
280761202,-0.009988094,-0.106803365,0.3927475
280772192,-0.034981165,-0.09650039,0.40905142
280808649,-0.025608763,-0.112690784,0.40164053
280820242,-0.016236361,-0.12299376,0.3927475
280844071,-0.013112227,-0.09797224,0.40164053
280856599,-0.009988094,-0.11416264,0.40460488
280868061,-0.024046697,-0.11121893,0.3927475
280892177,-0.01779843,-0.09797224,0.39422968
280905640,-0.01155016,-0.10827523,0.3808901
280929572,-0.019360496,-0.103859656,0.38830096
280940278,-0.027170831,-0.11121893,0.40460488
280952543,-0.019360496,-0.11563449,0.38681877
280964110,-0.019360496,-0.11121893,0.38830096
280976866,-0.019360496,-0.11416264,0.3927475
280988035,-0.019360496,-0.112690784,0.3927475
281001068,-0.025608763,-0.09944409,0.3912653
281013360,-0.009988094,-0.103859656,0.39867622
281024947,-0.0037398248,-0.106803365,0.38830096
281036395,-0.013112227,-0.11121893,0.40164053
281048963,-0.0068639587,-0.11416264,0.3927475
281071288,-0.019360496,-0.11563449,0.39571184
281083790,-0.013112227,-0.103859656,0.3927475
281094170,-0.01779843,-0.106803365,0.38830096
281119312,-0.019360496,-0.106803365,0.3927475
281133041,-0.020922562,-0.09208482,0.3912653
281145161,-0.009988094,-0.106803365,0.39422968
281168381,-0.025608763,-0.106803365,0.40164053
281179691,-0.016236361,-0.1023878,0.3808901
281201358,-0.030294966,-0.08766925,0.39422968
281213171,-0.016236361,-0.09944409,0.3927475
281224405,-0.034981165,-0.10827523,0.3912653
281235988,-0.028732898,-0.09944409,0.3927475
281259746,-0.0334191,-0.103859656,0.39422968
281271282,-0.009988094,-0.1023878,0.38385445
281283761,-0.016236361,-0.10827523,0.40608707
281306160,-0.024046697,-0.09502853,0.39422968
281318174,-0.01779843,-0.10091595,0.39867622
281343244,-0.016236361,-0.106803365,0.39571184
281356121,-0.028732898,-0.1023878,0.38385445
281368375,-0.01155016,-0.09944409,0.3808901
281390161,-0.019360496,-0.12152191,0.38830096
281401224,-0.009988094,-0.1023878,0.39571184
281413235,-0.024046697,-0.106803365,0.38237226
281435684,-0.020922562,-0.10827523,0.38385445
281446519,-0.016236361,-0.10827523,0.38681877
281459504,-0.019360496,-0.09502853,0.37347922
281483462,-0.020922562,-0.10827523,0.38681877
281494520,-0.01155016,-0.10827523,0.3808901
281506972,-0.0068639587,-0.11121893,0.3794079
281532104,-0.016236361,-0.106803365,0.37496138
281543655,-0.013112227,-0.09061296,0.3853366
281566509,-0.020922562,-0.112690784,0.3808901
281579245,-0.019360496,-0.10091595,0.37496138
281590461,-0.020922562,-0.10827523,0.3808901
281603411,-0.020922562,-0.106803365,0.3912653
281615643,-0.019360496,-0.1023878,0.37792572
281627133,-0.027170831,-0.106803365,0.38237226
281639741,-0.024046697,-0.103859656,0.38830096
281651190,-0.020922562,-0.09650039,0.3927475
281662514,-0.020922562,-0.09944409,0.38681877
281674662,-0.019360496,-0.106803365,0.3794079
281686312,-0.020922562,-0.1023878,0.3912653
281709694,-0.024046697,-0.10091595,0.3853366
281723765,-0.013112227,-0.11121893,0.37496138
281735253,-0.01155016,-0.11563449,0.38385445
281758860,-0.016236361,-0.1023878,0.37792572
281770502,-0.020922562,-0.12299376,0.38385445
281782811,-0.0068639587,-0.106803365,0.37347922
281807118,-0.009988094,-0.103859656,0.37347922
281819981,-0.01779843,-0.106803365,0.38237226
281843615,-0.019360496,-0.106803365,0.38830096
281854821,-0.019360496,-0.112690784,0.37792572
281866464,-0.019360496,-0.11121893,0.38237226
281879108,-0.01779843,-0.103859656,0.37347922
281892075,-0.028732898,-0.106803365,0.38681877
281903296,-0.009988094,-0.11563449,0.38385445
281916288,-0.009988094,-0.11416264,0.37347922
281939884,-0.016236361,-0.10827523,0.37496138
281951219,-0.019360496,-0.10091595,0.37496138
281964255,-0.009988094,-0.11121893,0.38237226
281975240,-0.024046697,-0.11121893,0.38830096
281987012,-0.019360496,-0.112690784,0.3808901
281998784,-0.020922562,-0.106803365,0.37496138
282011101,-0.01779843,-0.10091595,0.3794079
282035224,-0.019360496,-0.11121893,0.3853366
282046163,-0.009988094,-0.106803365,0.3794079
282083220,-0.019360496,-0.11710635,0.3794079
282094223,-0.0334191,-0.10091595,0.3794079
282118160,-0.019360496,-0.09944409,0.3808901
282131770,-0.016236361,-0.106803365,0.38681877
282142453,-0.0037398248,-0.09797224,0.3794079
282166054,-0.019360496,-0.1023878,0.37792572
282178964,-0.024046697,-0.103859656,0.3794079
282190326,-0.01779843,-0.103859656,0.38237226
282203005,-0.019360496,-0.106803365,0.38237226
282214446,-0.020922562,-0.106803365,0.38681877
282227233,-0.028732898,-0.09944409,0.38681877
282239251,-0.009988094,-0.10091595,0.38237226
282251358,-0.0381053,-0.09650039,0.3808901
282262410,-0.0068639587,-0.106803365,0.3853366
282274316,-0.027170831,-0.09797224,0.3794079
282286164,-0.028732898,-0.112690784,0.37792572
282309273,-0.009988094,-0.10827523,0.3912653
282321623,-0.01779843,-0.103859656,0.37496138
282346169,-0.019360496,-0.106803365,0.3853366
282357203,-0.024046697,-0.12152191,0.38681877
282369129,-0.027170831,-0.10091595,0.3794079
282393342,-0.01155016,-0.106803365,0.38681877
282404317,-0.019360496,-0.106803365,0.37496138
282416984,-0.019360496,-0.106803365,0.37792572
282428120,-0.01155016,-0.106803365,0.37792572
282440915,-0.01779843,-0.11416264,0.38830096
282451987,-0.016236361,-0.1023878,0.37792572
282462313,-0.028732898,-0.1185782,0.3808901
282485375,-0.01155016,-0.103859656,0.38385445
282496547,-0.019360496,-0.10827523,0.37792572
282508196,-0.016236361,-0.106803365,0.38681877
282532049,-0.013112227,-0.11121893,0.3794079
282544868,-0.01779843,-0.11121893,0.3794079
282579419,-0.01779843,-0.103859656,0.38237226
282591642,-0.009988094,-0.1185782,0.38681877
282603288,-0.019360496,-0.10827523,0.37496138
282616039,-0.024046697,-0.09797224,0.3794079
282628395,-0.013112227,-0.106803365,0.38237226
282640108,-0.009988094,-0.1023878,0.38385445
282652396,-0.013112227,-0.11710635,0.38237226
282665331,-0.019360496,-0.11710635,0.37496138
282676431,-0.019360496,-0.11416264,0.3794079
282689195,-0.025608763,-0.1023878,0.37199703
282712091,-0.020922562,-0.10091595,0.38385445
282724355,-0.01155016,-0.10827523,0.3808901
282736820,-0.009988094,-0.112690784,0.37792572
282759795,-0.027170831,-0.106803365,0.3927475
282770192,-0.01155016,-0.09944409,0.3808901
282781166,-0.016236361,-0.112690784,0.3912653
282805165,-0.027170831,-0.11121893,0.38237226
282817158,-0.025608763,-0.089141116,0.38385445
282829247,-0.01779843,-0.10091595,0.3794079
282840888,-0.009988094,-0.11563449,0.37792572
282852418,-0.020922562,-0.11563449,0.3808901
282863773,-0.024046697,-0.103859656,0.37496138
282875631,-0.025608763,-0.10827523,0.38681877
282888587,-0.019360496,-0.12299376,0.3808901
282900147,-0.01155016,-0.112690784,0.37496138
282912294,-0.019360496,-0.09944409,0.38681877
282948268,-0.025608763,-0.10827523,0.3808901
282960684,-0.01779843,-0.10091595,0.36606833
282984845,-0.016236361,-0.1185782,0.36755052
282996183,-0.030294966,-0.11710635,0.3794079
283008564,-0.020922562,-0.1023878,0.38681877
283031405,-0.024046697,-0.106803365,0.3690327
283043837,-0.019360496,-0.09502853,0.38237226
283055436,-0.031857032,-0.106803365,0.37496138
283067630,-0.009988094,-0.103859656,0.36606833
283079656,-0.0068639587,-0.11710635,0.37496138
283091623,-0.019360496,-0.10827523,0.36755052
283103394,-0.013112227,-0.10091595,0.37496138
283115575,-0.016236361,-0.10827523,0.38385445
283128058,-0.013112227,-0.106803365,0.3794079
283140164,-0.01779843,-0.09502853,0.3794079
283152154,-0.01779843,-0.103859656,0.38237226
283164182,-0.025608763,-0.10827523,0.37792572
283175275,-0.009988094,-0.09944409,0.38385445
283187227,-0.020922562,-0.106803365,0.37792572
283211256,-0.016236361,-0.09650039,0.38385445
283223272,-0.009988094,-0.112690784,0.3808901
283235337,-0.013112227,-0.11121893,0.3853366
283258172,-0.019360496,-0.106803365,0.38681877
283270838,-0.030294966,-0.103859656,0.38237226
283282611,-0.013112227,-0.11710635,0.3853366
283307323,-0.027170831,-0.106803365,0.37496138
283319106,-0.027170831,-0.11416264,0.37496138
283332416,-0.019360496,-0.103859656,0.38830096
283343342,-0.016236361,-0.10827523,0.37792572
283355760,-0.0068639587,-0.10091595,0.3794079
283366948,-0.020922562,-0.11563449,0.37792572
283378504,-0.019360496,-0.11121893,0.3853366
283390758,-0.019360496,-0.1023878,0.3912653
283402443,-0.009988094,-0.103859656,0.38237226
283414816,-0.019360496,-0.112690784,0.37496138
283438722,-0.030294966,-0.11416264,0.3853366
283451281,-0.016236361,-0.1185782,0.3927475
283462842,-0.024046697,-0.11121893,0.37347922
283486858,-0.016236361,-0.10827523,0.37496138
283498044,-0.025608763,-0.10827523,0.38385445
283510162,-0.025608763,-0.1023878,0.37496138
283534176,-0.013112227,-0.11710635,0.3690327
283546430,-0.024046697,-0.11121893,0.3794079
283569393,-0.01155016,-0.112690784,0.38385445
283582034,-0.025608763,-0.106803365,0.37792572
283594523,-0.019360496,-0.10827523,0.38237226
283605952,-0.019360496,-0.11121893,0.38237226
283617332,-0.009988094,-0.11121893,0.38237226
283630059,-0.019360496,-0.1185782,0.37496138
283642564,-0.013112227,-0.103859656,0.37496138
283653982,-0.024046697,-0.11121893,0.3794079
283666798,-0.019360496,-0.106803365,0.37199703
283678163,-0.019360496,-0.106803365,0.38237226
283690957,-0.01779843,-0.103859656,0.3853366
283714837,-0.013112227,-0.103859656,0.3853366
283726166,-0.019360496,-0.10827523,0.37496138
283738846,-0.030294966,-0.11121893,0.3853366
283762795,-0.016236361,-0.10827523,0.37199703
283774273,-0.019360496,-0.10091595,0.3794079
283785220,-0.019360496,-0.10091595,0.38237226
283808267,-0.025608763,-0.10827523,0.38385445
283820604,-0.0068639587,-0.11416264,0.38830096
283832411,-0.019360496,-0.103859656,0.38830096
283844447,-0.009988094,-0.106803365,0.3808901
283856117,-0.025608763,-0.1023878,0.3808901
283868925,-0.020922562,-0.106803365,0.37199703
283880183,-0.009988094,-0.11416264,0.37347922
283892583,-0.016236361,-0.106803365,0.37496138
283904205,-0.025608763,-0.11563449,0.3912653
283916783,-0.016236361,-0.1023878,0.3808901
283928401,-0.020922562,-0.112690784,0.37496138
283941050,-0.027170831,-0.106803365,0.38237226
283953254,-0.0053018914,-0.10827523,0.3912653
283965102,-0.020922562,-0.09650039,0.3808901
283989143,-0.020922562,-0.1023878,0.37496138
284000175,-0.0037398248,-0.106803365,0.37347922
284013126,-0.01155016,-0.09944409,0.37792572
284036954,-0.01779843,-0.11710635,0.3853366
284047574,-0.01155016,-0.1185782,0.37792572
284058182,-0.027170831,-0.11416264,0.3853366
284081234,-0.013112227,-0.11416264,0.38830096
284093207,-0.030294966,-0.10091595,0.38237226
284104712,-0.013112227,-0.10091595,0.37496138
284128428,-0.009988094,-0.112690784,0.37496138
284140885,-0.019360496,-0.10091595,0.37496138
284152453,-0.0068639587,-0.11121893,0.3794079
284176405,-0.0053018914,-0.10827523,0.38681877
284188345,-0.019360496,-0.12152191,0.37496138
284200433,-0.0068639587,-0.10091595,0.39422968
284223508,-0.024046697,-0.10091595,0.37496138
284236046,-0.027170831,-0.10091595,0.3794079
284260361,-0.019360496,-0.106803365,0.3794079
284271444,-0.009988094,-0.11710635,0.38237226
284284287,-0.01779843,-0.11121893,0.38237226
284308113,-0.013112227,-0.11710635,0.37496138
284320442,-0.009988094,-0.106803365,0.3808901
284333505,-0.013112227,-0.11121893,0.38237226
284356487,-0.030294966,-0.106803365,0.3794079
284367622,-0.016236361,-0.112690784,0.37199703
284380408,-0.013112227,-0.106803365,0.3794079
284392152,-0.024046697,-0.11121893,0.3853366
284404914,-0.013112227,-0.11121893,0.38237226
284416282,-0.025608763,-0.09650039,0.38681877
284428414,-0.019360496,-0.106803365,0.3808901
284440148,-0.019360496,-0.09650039,0.3927475
284452258,-0.019360496,-0.112690784,0.37792572
284463634,-0.024046697,-0.10091595,0.38830096
284475272,-0.016236361,-0.09944409,0.3808901
284498986,-0.013112227,-0.09797224,0.37496138
284509204,-0.0068639587,-0.11416264,0.38237226
284534512,-0.016236361,-0.1023878,0.37792572
284547144,-0.019360496,-0.106803365,0.3853366
284558552,-0.020922562,-0.11563449,0.38681877
284583651,-0.01779843,-0.10091595,0.38830096
284596178,-0.01779843,-0.11416264,0.37347922
284607526,-0.009988094,-0.10091595,0.38237226
284630479,-0.025608763,-0.106803365,0.37496138
284642205,-0.013112227,-0.103859656,0.37496138
284654830,-0.027170831,-0.103859656,0.38237226
284678816,-0.009988094,-0.1023878,0.38385445
284690431,-0.019360496,-0.11121893,0.3690327
284702762,-0.016236361,-0.106803365,0.39571184
284726836,-0.01779843,-0.11121893,0.3794079
284739292,-0.01779843,-0.11416264,0.37496138
284750777,-0.020922562,-0.1185782,0.37496138
284774817,-0.013112227,-0.11710635,0.38237226
284786472,-0.0334191,-0.11121893,0.3794079
284810512,-0.009988094,-0.09650039,0.37496138
284822770,-0.020922562,-0.10827523,0.37496138
284834672,-0.024046697,-0.10091595,0.37496138
284858566,-0.019360496,-0.10091595,0.3794079
284870923,-0.027170831,-0.11121893,0.38237226
284882621,-0.01155016,-0.1023878,0.37792572
284906671,-0.024046697,-0.09797224,0.3853366
284918790,-0.01155016,-0.112690784,0.38385445
284931658,-0.01155016,-0.11563449,0.36755052
284942340,-0.019360496,-0.09797224,0.38830096
284954985,-0.030294966,-0.12446563,0.38237226
284966373,-0.024046697,-0.12446563,0.37496138
284979220,-0.019360496,-0.10091595,0.38237226
284990312,-0.01779843,-0.11121893,0.3794079
285014034,-0.016236361,-0.10827523,0.37496138
285026515,-0.009988094,-0.10091595,0.3794079
285050719,-0.01155016,-0.106803365,0.38681877
285062009,-0.009988094,-0.112690784,0.38385445
285086014,-0.019360496,-0.09650039,0.3808901
285098528,-0.013112227,-0.103859656,0.37496138
285110070,-0.009988094,-0.09797224,0.3794079
285134331,-0.016236361,-0.10827523,0.37792572
285146673,-0.024046697,-0.09797224,0.3927475
285181927,-0.013112227,-0.106803365,0.37496138
285193878,-0.013112227,-0.11121893,0.3853366
285206167,-0.020922562,-0.106803365,0.37792572
285218842,-0.013112227,-0.11710635,0.3853366
285230061,-0.019360496,-0.10827523,0.37792572
285242828,-0.028732898,-0.09944409,0.38681877
285254312,-0.025608763,-0.106803365,0.3808901
285266514,-0.01779843,-0.103859656,0.37496138
285280014,-0.016236361,-0.1023878,0.3808901
285292018,-0.024046697,-0.09502853,0.37496138
285318319,-0.028732898,-0.1023878,0.37792572
285330844,-0.016236361,-0.106803365,0.37792572
285342322,-0.019360496,-0.11416264,0.3794079
285354169,-0.0053018914,-0.10827523,0.37496138
285365522,-0.01779843,-0.10091595,0.37347922
285377058,-0.028732898,-0.09944409,0.3927475
285389226,-0.027170831,-0.103859656,0.3794079
285402086,-0.0334191,-0.10091595,0.3853366
285413322,-0.024046697,-0.11121893,0.3794079
285426486,-0.0037398248,-0.106803365,0.3794079
285450313,-0.025608763,-0.09944409,0.3912653
285462291,-0.019360496,-0.09944409,0.37496138
285474371,-0.0381053,-0.089141116,0.3912653
285498166,-0.030294966,-0.10091595,0.3794079
285509356,-0.028732898,-0.09208482,0.3927475
285521369,-0.027170831,-0.103859656,0.37347922
285545632,-0.024046697,-0.09797224,0.38830096
285557149,-0.027170831,-0.106803365,0.3690327
285569520,-0.024046697,-0.09797224,0.3794079
285581162,-0.019360496,-0.112690784,0.37792572
285593441,-0.01155016,-0.10827523,0.3808901
285605155,-0.0334191,-0.10091595,0.3794079
285617373,-0.020922562,-0.106803365,0.3808901
285628439,-0.024046697,-0.11416264,0.3853366
285639995,-0.020922562,-0.11563449,0.38385445
285651228,-0.016236361,-0.1023878,0.3808901
285663971,-0.024046697,-0.106803365,0.3853366
285700446,-0.01779843,-0.11416264,0.38237226
285723237,-0.01779843,-0.106803365,0.38830096
285736352,-0.01779843,-0.103859656,0.37496138
285747270,-0.009988094,-0.1023878,0.37496138
285771243,-0.019360496,-0.10827523,0.38385445
285783971,-0.0053018914,-0.1023878,0.38385445
285794160,-0.0037398248,-0.10827523,0.38830096
285807975,-0.0037398248,-0.106803365,0.38830096
285818187,-0.019360496,-0.09944409,0.3808901
285829527,-0.025608763,-0.11563449,0.37792572
285841196,-0.024046697,-0.09797224,0.3927475
285864299,-0.024046697,-0.11121893,0.3853366
285876452,-0.013112227,-0.11710635,0.38237226
285887757,-0.019360496,-0.11710635,0.38237226
285911241,-0.028732898,-0.09944409,0.3927475
285923770,-0.009988094,-0.11710635,0.38237226
285959015,-0.013112227,-0.106803365,0.3927475
285971630,-0.024046697,-0.10091595,0.3794079
285995565,-0.013112227,-0.106803365,0.3794079
286008029,-0.024046697,-0.10091595,0.3853366
286020271,-0.01155016,-0.1023878,0.3808901
286044220,-0.019360496,-0.1023878,0.3808901
286056256,-0.01155016,-0.1023878,0.37792572
286068296,-0.0068639587,-0.12152191,0.3794079
286080340,-0.01779843,-0.10091595,0.37347922
286092284,-0.019360496,-0.1023878,0.37199703
286104171,-0.019360496,-0.09797224,0.3853366
286116216,-0.01779843,-0.11121893,0.37496138
286140208,-0.013112227,-0.09797224,0.3690327
286152862,-0.016236361,-0.09208482,0.3808901
286163263,-0.019360496,-0.11710635,0.3853366
286187112,-0.019360496,-0.11121893,0.3794079
286199972,-0.01779843,-0.106803365,0.37496138
286223620,-0.013112227,-0.11121893,0.3794079
286234953,-0.024046697,-0.106803365,0.3794079
286247804,-0.01155016,-0.106803365,0.36755052
286270682,-0.01155016,-0.106803365,0.37792572
286282792,-0.01779843,-0.106803365,0.38237226
286294473,-0.013112227,-0.09797224,0.3794079
286307108,-0.020922562,-0.11563449,0.37792572
286319628,-0.016236361,-0.10827523,0.38385445
286331324,-0.027170831,-0.103859656,0.38237226
286343921,-0.019360496,-0.12152191,0.3794079
286355255,-0.016236361,-0.112690784,0.38385445
286367894,-0.024046697,-0.11121893,0.3853366
286379300,-0.019360496,-0.09797224,0.3794079
286391558,-0.031857032,-0.10827523,0.3808901
286414434,-0.0068639587,-0.10091595,0.39867622
286427132,-0.024046697,-0.10091595,0.38830096
286439299,-0.027170831,-0.11121893,0.38830096
286462013,-0.020922562,-0.112690784,0.37496138
286474654,-0.013112227,-0.11416264,0.3794079
286498716,-0.025608763,-0.09944409,0.38385445
286510305,-0.031857032,-0.1023878,0.3808901
286522742,-0.01779843,-0.103859656,0.37347922
286546804,-0.01155016,-0.112690784,0.3808901
286557986,-0.013112227,-0.12152191,0.3927475
286569574,-0.024046697,-0.10091595,0.3853366
286582020,-0.0334191,-0.10091595,0.3794079
286594728,-0.025608763,-0.10827523,0.38681877
286606305,-0.019360496,-0.106803365,0.37199703
286618658,-0.025608763,-0.1185782,0.38385445
286630402,-0.01779843,-0.11416264,0.3794079
286643175,-0.019360496,-0.106803365,0.3794079
286654166,-0.019360496,-0.112690784,0.37792572
286667536,-0.01779843,-0.09797224,0.38237226
286679387,-0.027170831,-0.103859656,0.3794079
286691177,-0.009988094,-0.09797224,0.38237226
286702160,-0.009988094,-0.103859656,0.3794079
286714728,-0.019360496,-0.106803365,0.3808901
286739095,-0.020922562,-0.09944409,0.37792572
286752896,-0.01779843,-0.11710635,0.3690327
286776926,-0.025608763,-0.11563449,0.37496138
286787993,-0.009988094,-0.11121893,0.37496138
286800848,-0.013112227,-0.11121893,0.36606833
286824947,-0.016236361,-0.10827523,0.38385445
286836102,-0.028732898,-0.10827523,0.37199703
286848976,-0.028732898,-0.09944409,0.37199703
286873966,-0.028732898,-0.106803365,0.38385445
286884204,-0.01779843,-0.103859656,0.3927475
286896800,-0.030294966,-0.10091595,0.3927475
286908048,-0.016236361,-0.11563449,0.37792572
286922825,-0.020922562,-0.10827523,0.36755052
286934321,-0.019360496,-0.112690784,0.3808901
286957211,-0.0334191,-0.09502853,0.38237226
286968946,-0.019360496,-0.112690784,0.38385445
286980068,-0.020922562,-0.11563449,0.3927475
287004036,-0.01779843,-0.106803365,0.3794079
287016532,-0.027170831,-0.09797224,0.38830096
287028030,-0.01155016,-0.09944409,0.38385445
287051336,-0.0037398248,-0.103859656,0.3794079
287063765,-0.024046697,-0.103859656,0.3927475
287074189,-0.025608763,-0.112690784,0.3808901
287097152,-0.025608763,-0.09650039,0.38681877
287109216,-0.013112227,-0.11416264,0.3794079
287120997,-0.030294966,-0.09502853,0.3927475
287133204,-0.025608763,-0.106803365,0.38681877
287144955,-0.01155016,-0.09944409,0.38385445
287156406,-0.009988094,-0.103859656,0.3853366
287167993,-0.016236361,-0.106803365,0.38385445
287191741,-0.024046697,-0.103859656,0.38237226
287203273,-0.027170831,-0.11416264,0.37496138
287214477,-0.01155016,-0.10827523,0.37792572
287240239,-0.019360496,-0.12152191,0.3853366
287252404,-0.0068639587,-0.103859656,0.3794079
287276591,-0.019360496,-0.103859656,0.38830096
287288251,-0.01779843,-0.103859656,0.3794079
287299322,-0.019360496,-0.09797224,0.37496138
287323326,-0.01155016,-0.09208482,0.38681877
287337111,-0.016236361,-0.11563449,0.3808901
287348450,-0.019360496,-0.106803365,0.38385445
287372355,-0.019360496,-0.09944409,0.3927475
287384698,-0.028732898,-0.10827523,0.36755052
287396739,-0.024046697,-0.106803365,0.3794079
287408567,-0.01779843,-0.11121893,0.3794079
287420268,-0.027170831,-0.106803365,0.3853366
287432330,-0.027170831,-0.106803365,0.37496138
287444196,-0.019360496,-0.1023878,0.3808901
287456567,-0.019360496,-0.10827523,0.37199703
287468283,-0.009988094,-0.11563449,0.37792572
287481263,-0.024046697,-0.106803365,0.3794079
287504567,-0.016236361,-0.1023878,0.38385445
287515788,-0.019360496,-0.11121893,0.3794079
287528909,-0.009988094,-0.112690784,0.3808901
287552612,-0.019360496,-0.112690784,0.38385445
287564423,-0.01779843,-0.106803365,0.38830096
287576721,-0.034981165,-0.11563449,0.37199703
287601652,-0.01779843,-0.106803365,0.37496138
287612186,-0.016236361,-0.11563449,0.38385445
287648815,-0.016236361,-0.112690784,0.38385445
287660256,-0.024046697,-0.11121893,0.3794079
287683219,-0.027170831,-0.11121893,0.36606833
287695531,-0.025608763,-0.112690784,0.3808901
287707246,-0.016236361,-0.112690784,0.3808901
287719576,-0.0068639587,-0.10091595,0.38830096
287731454,0.0025084435,-0.12446563,0.38237226
287743760,-0.01155016,-0.1023878,0.37496138
287754857,-0.01155016,-0.1185782,0.37199703
287778821,-0.025608763,-0.10827523,0.3808901
287791524,-0.020922562,-0.10827523,0.37792572
287803268,-0.009988094,-0.103859656,0.3853366
287827239,-0.016236361,-0.1185782,0.38237226
287839986,-0.013112227,-0.09061296,0.38830096
287851225,-0.009988094,-0.09944409,0.3808901
287875020,-0.020922562,-0.09208482,0.37496138
287888354,-0.020922562,-0.106803365,0.37792572
287911128,-0.020922562,-0.112690784,0.37496138
287924016,-0.016236361,-0.1185782,0.37496138
287938364,-0.025608763,-0.11563449,0.37792572
287963099,-0.016236361,-0.1023878,0.38385445
287974170,-0.009988094,-0.106803365,0.3808901
287987086,-0.030294966,-0.103859656,0.3794079
288011084,-0.013112227,-0.11121893,0.3853366
288023292,-0.016236361,-0.112690784,0.3808901
288035258,-0.019360496,-0.106803365,0.3808901
288046163,-0.030294966,-0.12152191,0.37347922
288059106,-0.027170831,-0.11710635,0.38830096
288070339,-0.028732898,-0.112690784,0.37792572
288083159,-0.019360496,-0.106803365,0.37199703
288095243,-0.020922562,-0.1185782,0.38385445
288107215,-0.013112227,-0.11710635,0.38237226
288119264,-0.025608763,-0.106803365,0.37496138
288142300,-0.019360496,-0.09944409,0.3927475
288154738,-0.019360496,-0.106803365,0.38385445
288165985,-0.0381053,-0.103859656,0.38237226
288190321,-0.019360496,-0.08766925,0.37496138
288201170,-0.01779843,-0.103859656,0.37496138
288213513,-0.009988094,-0.10827523,0.37496138
288236558,-0.0334191,-0.10091595,0.37496138
288248782,-0.034981165,-0.10827523,0.3808901
288259773,-0.01779843,-0.09797224,0.3794079
288282167,-0.020922562,-0.1023878,0.38681877
288294057,-0.024046697,-0.11416264,0.3794079
288305415,-0.01155016,-0.1023878,0.37496138
288328553,-0.024046697,-0.09502853,0.38830096
288342047,-0.016236361,-0.09650039,0.38681877
288353246,-0.009988094,-0.1023878,0.36755052
288376053,-0.016236361,-0.09208482,0.3927475
288389083,-0.025608763,-0.12299376,0.3912653
288424084,-0.020922562,-0.106803365,0.3912653
288437046,-0.009988094,-0.11121893,0.39422968
288461383,-0.019360496,-0.10827523,0.36755052
288472385,-0.020922562,-0.1023878,0.39571184
288485067,-0.01155016,-0.10827523,0.36606833
288497219,-0.024046697,-0.106803365,0.37347922
288510397,-0.024046697,-0.12152191,0.37496138
288522188,-0.01155016,-0.10827523,0.37496138
288534160,-0.019360496,-0.12299376,0.38385445
288546160,-0.01779843,-0.09797224,0.37496138
288559296,-0.009988094,-0.09944409,0.3927475
288571732,-0.016236361,-0.106803365,0.3808901
288583235,-0.009988094,-0.11121893,0.3794079
288594187,-0.027170831,-0.106803365,0.38237226
288606167,-0.019360496,-0.12446563,0.37347922
288617231,-0.016236361,-0.11563449,0.38385445
288629382,-0.016236361,-0.11563449,0.3808901
288652030,-0.0068639587,-0.103859656,0.38830096
288664722,-0.009988094,-0.103859656,0.37496138
288687549,-0.019360496,-0.103859656,0.38237226
288700020,-0.016236361,-0.09650039,0.37792572
288712519,-0.009988094,-0.10091595,0.3794079
288735288,-0.020922562,-0.106803365,0.37792572
288748522,-0.020922562,-0.1185782,0.3808901
288760452,-0.028732898,-0.106803365,0.37496138
288784485,-0.01779843,-0.11416264,0.3794079
288796394,-0.009988094,-0.112690784,0.37792572
288807315,-0.01779843,-0.103859656,0.3853366
288820277,-0.0053018914,-0.103859656,0.37792572
288831333,-0.020922562,-0.1023878,0.3808901
288844147,-0.01155016,-0.09650039,0.37792572
288855357,-0.01779843,-0.10091595,0.38237226
288878523,-0.01779843,-0.106803365,0.37347922
288891377,-0.01779843,-0.11121893,0.3794079
288903609,-0.01155016,-0.112690784,0.37496138
288927662,-0.025608763,-0.106803365,0.3808901
288939907,-0.020922562,-0.089141116,0.38385445
288961211,-0.020922562,-0.09944409,0.3808901
288973227,-0.031857032,-0.112690784,0.38681877
288984271,-0.01779843,-0.09502853,0.38830096
288996029,-0.025608763,-0.112690784,0.3808901
289008173,-0.019360496,-0.106803365,0.3794079
289020142,-0.025608763,-0.09944409,0.3808901
289032232,-0.024046697,-0.106803365,0.38237226
289056272,-0.01155016,-0.1023878,0.38681877
289068074,-0.009988094,-0.106803365,0.37792572
289080253,-0.009988094,-0.11121893,0.38237226
289104263,-0.01779843,-0.103859656,0.37496138
289115500,-0.019360496,-0.12152191,0.38830096
289126837,-0.009988094,-0.106803365,0.3853366
289150769,-0.00061569066,-0.11121893,0.38830096
289162201,-0.025608763,-0.112690784,0.38681877
289174850,-0.0068639587,-0.103859656,0.3927475
289187371,-0.016236361,-0.1023878,0.3912653
289198920,-0.009988094,-0.10827523,0.3912653
289211229,-0.019360496,-0.1023878,0.38681877
289222790,-0.01155016,-0.09944409,0.38385445
289235768,-0.028732898,-0.10827523,0.38681877
289246793,-0.027170831,-0.103859656,0.3794079
289259636,0.0009463764,-0.12299376,0.3927475
289271295,-0.019360496,-0.106803365,0.3927475
289283621,-0.016236361,-0.09944409,0.37792572
289294836,-0.019360496,-0.1185782,0.38681877
289306552,-0.016236361,-0.10827523,0.39571184
289331620,-0.019360496,-0.10091595,0.38830096
289342853,-0.027170831,-0.103859656,0.3794079
289355630,-0.027170831,-0.11121893,0.38237226
289379643,-0.01779843,-0.106803365,0.39422968
289390307,-0.031857032,-0.10827523,0.3808901
289402448,-0.0068639587,-0.106803365,0.39422968
289426809,-0.01779843,-0.106803365,0.38830096
289438174,-0.009988094,-0.11710635,0.3853366
289463250,-0.01779843,-0.11710635,0.3927475
289474726,-0.01155016,-0.106803365,0.3927475
289486312,-0.009988094,-0.106803365,0.38681877
289498836,-0.016236361,-0.10827523,0.37792572
289510305,-0.016236361,-0.09944409,0.38385445
289522470,-0.019360496,-0.09797224,0.38830096
289533978,-0.009988094,-0.10827523,0.3912653
289557971,-0.009988094,-0.106803365,0.3794079
289569654,-0.01155016,-0.10827523,0.38385445
289581916,-0.025608763,-0.10827523,0.38681877
289606339,-0.009988094,-0.10827523,0.3927475
289618464,-0.019360496,-0.112690784,0.38681877
289630434,-0.013112227,-0.11416264,0.39867622
289654183,-0.019360496,-0.106803365,0.38385445
289666514,-0.024046697,-0.09797224,0.37347922
289690783,-0.016236361,-0.09944409,0.38681877
289701997,-0.019360496,-0.10827523,0.3808901
289714165,-0.019360496,-0.106803365,0.38681877
289738035,-0.024046697,-0.11121893,0.3927475
289750187,-0.01155016,-0.10827523,0.37199703
289762001,-0.020922562,-0.1023878,0.3912653
289786335,-0.0334191,-0.09502853,0.3794079
289798363,-0.019360496,-0.11121893,0.3927475
289810284,-0.01779843,-0.10091595,0.3853366
289822171,-0.025608763,-0.10827523,0.38385445
289833944,-0.01155016,-0.1023878,0.37792572
289845232,-0.013112227,-0.106803365,0.38237226
289856968,-0.019360496,-0.103859656,0.3794079
289880602,-0.013112227,-0.10091595,0.3853366
289892058,-0.027170831,-0.09797224,0.3690327
289917207,-0.030294966,-0.09797224,0.3794079
289930964,-0.00061569066,-0.106803365,0.36606833
289942189,-0.019360496,-0.112690784,0.37199703
289966286,-0.020922562,-0.10827523,0.36606833
289978160,-0.01779843,-0.09797224,0.37496138
289990170,-0.019360496,-0.08766925,0.36013964
290016161,-0.024046697,-0.09797224,0.37347922
290028383,-0.024046697,-0.103859656,0.36606833
290053144,-0.019360496,-0.103859656,0.36606833
290065360,-0.019360496,-0.10827523,0.35865745
290076839,-0.027170831,-0.09797224,0.37496138
290099324,-0.01779843,-0.11121893,0.37347922
290112423,-0.020922562,-0.1023878,0.36755052
290124395,-0.009988094,-0.106803365,0.3690327
290136127,-0.009988094,-0.106803365,0.36606833
290148393,-0.013112227,-0.106803365,0.36606833
290161176,-0.013112227,-0.103859656,0.3690327
290173167,-0.019360496,-0.09650039,0.3556931
290185367,-0.01155016,-0.10827523,0.36606833
290196448,-0.019360496,-0.10827523,0.36606833
290208039,-0.019360496,-0.10091595,0.37347922
290219369,-0.025608763,-0.106803365,0.36606833
290242160,-0.019360496,-0.10091595,0.3690327
290253217,-0.028732898,-0.10827523,0.3616218
290276560,-0.019360496,-0.11563449,0.36755052
290287755,-0.009988094,-0.09944409,0.3616218
290299268,-0.025608763,-0.1023878,0.37199703
290311633,-0.028732898,-0.1023878,0.36606833
290323285,-0.024046697,-0.106803365,0.36013964
290335661,-0.019360496,-0.09650039,0.36606833
290346450,-0.025608763,-0.10827523,0.36606833
290380256,-0.013112227,-0.11416264,0.363104
290392262,-0.020922562,-0.09944409,0.35865745
290414966,-0.019360496,-0.09944409,0.37199703
290425269,-0.01779843,-0.11121893,0.363104
290436250,-0.013112227,-0.10091595,0.3690327
290448562,-0.031857032,-0.1023878,0.38385445
290459786,-0.0381053,-0.106803365,0.3690327
290471608,-0.027170831,-0.103859656,0.38237226
290483611,-0.028732898,-0.09650039,0.3616218
290507617,-0.019360496,-0.10827523,0.37199703
290519431,-0.025608763,-0.106803365,0.35865745
290531610,-0.01779843,-0.10091595,0.36606833
290554521,-0.016236361,-0.1023878,0.37199703
290567040,-0.019360496,-0.106803365,0.3616218
290579914,-0.016236361,-0.112690784,0.37792572
290604172,-0.013112227,-0.11416264,0.3690327
290616144,-0.019360496,-0.11121893,0.36755052
290627623,-0.019360496,-0.11563449,0.36755052
290640265,-0.019360496,-0.112690784,0.36606833
290651237,-0.01155016,-0.10827523,0.37199703
290663331,-0.01779843,-0.103859656,0.38237226
290675296,-0.01779843,-0.10091595,0.363104
290687932,-0.0053018914,-0.09944409,0.37792572
290698820,-0.01779843,-0.09797224,0.37347922
290710866,-0.020922562,-0.10827523,0.36606833
290986162,-0.019360496,-0.10091595,0.36606833
291010026,-0.028732898,-0.1023878,0.36606833
291178166,-0.01779843,-0.106803365,0.3690327
291225402,-0.028732898,-0.1023878,0.36606833
291236343,-0.030294966,-0.10091595,0.363104
291248718,-0.020922562,-0.106803365,0.35865745
291259365,-0.013112227,-0.10091595,0.3690327
291284084,-0.013112227,-0.106803365,0.38237226
291297109,-0.013112227,-0.10091595,0.37347922
291332133,-0.031857032,-0.112690784,0.36606833
291344521,-0.016236361,-0.112690784,0.37199703
291370522,-0.027170831,-0.09797224,0.363104
291382284,-0.01779843,-0.09944409,0.36606833
291394551,-0.019360496,-0.103859656,0.35421094
291418163,-0.0037398248,-0.103859656,0.363104
291430367,-0.0381053,-0.106803365,0.37199703
291442385,-0.025608763,-0.09208482,0.37792572
291454180,-0.019360496,-0.103859656,0.35717526
291466305,-0.027170831,-0.09797224,0.36606833
291479790,-0.020922562,-0.1023878,0.36755052
291490537,-0.016236361,-0.112690784,0.36755052
291501160,-0.019360496,-0.12152191,0.36606833
291513633,-0.019360496,-0.106803365,0.363104
291525154,-0.019360496,-0.11121893,0.3690327
291537118,-0.019360496,-0.10827523,0.3616218
291560066,-0.019360496,-0.106803365,0.3690327
291572442,-0.019360496,-0.10091595,0.37347922
291595333,-0.0037398248,-0.11416264,0.36606833
291608021,-0.027170831,-0.09061296,0.37347922
291620452,-0.025608763,-0.106803365,0.36606833
291644469,-0.009988094,-0.11416264,0.35717526
291656243,-0.013112227,-0.11710635,0.35717526
291668364,-0.020922562,-0.112690784,0.37792572
291692711,-0.024046697,-0.10091595,0.37347922
291704033,-0.028732898,-0.106803365,0.36755052
291716439,-0.024046697,-0.103859656,0.3690327
291731386,-0.013112227,-0.106803365,0.363104
291742167,-0.019360496,-0.11563449,0.37792572
291753520,-0.019360496,-0.103859656,0.3794079
291765194,-0.01779843,-0.09502853,0.36606833
291777138,-0.024046697,-0.10091595,0.363104
291789202,-0.028732898,-0.09650039,0.3616218
291800644,-0.019360496,-0.106803365,0.36755052
291824241,-0.009988094,-0.09650039,0.36606833
291836445,-0.028732898,-0.112690784,0.3616218
291849875,-0.019360496,-0.106803365,0.363104
291873151,-0.0021777577,-0.10827523,0.36755052
291884185,-0.024046697,-0.11121893,0.36606833
291896567,-0.031857032,-0.089141116,0.36755052
291919519,-0.019360496,-0.09650039,0.3616218
291931617,-0.025608763,-0.106803365,0.37496138
291944804,-0.019360496,-0.11121893,0.36606833
291956327,-0.025608763,-0.09650039,0.36755052
291968651,-0.013112227,-0.11416264,0.36013964
291980308,-0.01155016,-0.12299376,0.37496138
291992909,-0.024046697,-0.106803365,0.37347922
292004237,-0.024046697,-0.103859656,0.37347922
292016684,-0.019360496,-0.106803365,0.363104
292028147,-0.01779843,-0.09797224,0.36606833
292040453,-0.019360496,-0.12299376,0.37199703
292052257,-0.031857032,-0.10827523,0.37496138
292063273,-0.016236361,-0.10827523,0.3616218
292075323,-0.028732898,-0.09944409,0.37496138
292099542,-0.013112227,-0.10091595,0.37347922
292110963,-0.01779843,-0.106803365,0.36013964
292125719,-0.030294966,-0.09797224,0.36606833
292151005,-0.020922562,-0.1023878,0.3556931
292163540,-0.01779843,-0.11121893,0.36013964
292174812,-0.01779843,-0.11121893,0.37347922
292198841,-0.01779843,-0.103859656,0.37347922
292210389,-0.013112227,-0.106803365,0.3690327
292234504,-0.024046697,-0.106803365,0.3690327
292245665,-0.024046697,-0.09797224,0.363104
292258453,-0.019360496,-0.11121893,0.36606833
292283468,-0.024046697,-0.106803365,0.36606833
292294825,-0.028732898,-0.09944409,0.36606833
292306375,-0.013112227,-0.10091595,0.35421094
292331747,-0.024046697,-0.11121893,0.363104
292342816,-0.0068639587,-0.10091595,0.37347922
292354608,-0.030294966,-0.106803365,0.36013964
292366809,-0.019360496,-0.106803365,0.3556931
292378955,-0.019360496,-0.103859656,0.35717526
292390170,-0.019360496,-0.09502853,0.37347922
292402975,-0.020922562,-0.106803365,0.35272875
292414197,-0.027170831,-0.09061296,0.36013964
292425255,-0.019360496,-0.09502853,0.34531787
292437408,-0.019360496,-0.10091595,0.363104
292461212,-0.019360496,-0.106803365,0.35272875
292473040,-0.024046697,-0.09797224,0.34828222
292485392,-0.019360496,-0.09650039,0.3616218
292509398,-0.0381053,-0.08472555,0.35717526
292521980,-0.027170831,-0.09797224,0.33494267
292535781,-0.009988094,-0.08472555,0.34828222
292559274,-0.028732898,-0.1023878,0.3393892
292571443,-0.025608763,-0.1023878,0.3556931
292595224,-0.024046697,-0.11121893,0.3393892
292607267,-0.027170831,-0.103859656,0.34531787
292619371,-0.028732898,-0.106803365,0.3393892
292631352,-0.019360496,-0.106803365,0.3393892
292643226,-0.01779843,-0.09502853,0.34087133
292655171,-0.024046697,-0.10091595,0.36013964
292666324,-0.01779843,-0.103859656,0.34828222
292689191,-0.024046697,-0.103859656,0.3497644
292701786,-0.028732898,-0.11563449,0.34828222
292712305,-0.024046697,-0.10091595,0.34531787
292736405,-0.009988094,-0.106803365,0.32753175
292748596,-0.025608763,-0.1023878,0.35272875
292760075,-0.01155016,-0.112690784,0.34680006
292784385,-0.030294966,-0.09061296,0.35717526
292796585,-0.009988094,-0.11121893,0.34087133
292809102,-0.0068639587,-0.09061296,0.34087133
292820567,-0.019360496,-0.106803365,0.35421094
292832214,-0.016236361,-0.112690784,0.34828222
292845758,-0.024046697,-0.09797224,0.36013964
292868941,-0.020922562,-0.09208482,0.3556931
292880223,-0.027170831,-0.09502853,0.36013964
292893035,-0.020922562,-0.1023878,0.35272875
292916831,-0.027170831,-0.09797224,0.34531787
292928026,-0.028732898,-0.09944409,0.33346048
292940856,-0.019360496,-0.1023878,0.32753175
292964013,-0.009988094,-0.103859656,0.3393892
292975317,-0.01155016,-0.09650039,0.34680006
292988068,-0.028732898,-0.09650039,0.32308525
293012420,-0.024046697,-0.09061296,0.31567436
293023401,-0.020922562,-0.09944409,0.32753175
293048442,-0.024046697,-0.08766925,0.33494267
293061051,-0.028732898,-0.09650039,0.33049613
293072346,-0.031857032,-0.1023878,0.33346048
293095248,-0.025608763,-0.086197406,0.3393892
293107651,-0.027170831,-0.106803365,0.3201209
293119286,-0.019360496,-0.09061296,0.3393892
293132849,-0.016236361,-0.112690784,0.3393892
293144462,-0.034981165,-0.09208482,0.3393892
293155768,-0.019360496,-0.103859656,0.34087133
293166168,-0.01155016,-0.089141116,0.34828222
293189190,-0.01779843,-0.09797224,0.32901394
293201214,-0.019360496,-0.1023878,0.32308525
293212887,-0.025608763,-0.09650039,0.32308525
293235752,-0.020922562,-0.09944409,0.32753175
293247280,-0.025608763,-0.09944409,0.3393892
293259653,-0.020922562,-0.09944409,0.34235352
293284011,-0.024046697,-0.09061296,0.3319783
293296400,-0.01779843,-0.10091595,0.32901394
293307809,-0.028732898,-0.09208482,0.3393892
293318168,-0.0037398248,-0.103859656,0.3260496
293330166,-0.016236361,-0.09944409,0.32753175
293341373,-0.019360496,-0.09502853,0.34087133
293355245,-0.01779843,-0.09797224,0.33494267
293366470,-0.01779843,-0.09797224,0.33642483
293379301,-0.027170831,-0.106803365,0.34531787
293390508,-0.01779843,-0.09502853,0.33494267
293415525,-0.013112227,-0.106803365,0.3260496
293427147,-0.01779843,-0.09061296,0.3216031
293438525,-0.024046697,-0.09797224,0.34087133
293461157,-0.028732898,-0.09944409,0.34235352
293472297,-0.024046697,-0.10091595,0.3260496
293484771,-0.01779843,-0.09502853,0.3319783
293508872,-0.030294966,-0.08766925,0.3393892
293520261,-0.020922562,-0.10827523,0.33049613
293534465,-0.020922562,-0.09944409,0.33642483
293547206,-0.019360496,-0.09650039,0.3393892
293559659,-0.020922562,-0.09208482,0.3393892
293571495,-0.028732898,-0.09208482,0.3393892
293582816,-0.01155016,-0.09208482,0.33346048
293594463,-0.025608763,-0.089141116,0.33346048
293606775,-0.031857032,-0.089141116,0.34680006
293619915,-0.028732898,-0.09208482,0.33346048
293631222,-0.009988094,-0.09502853,0.3216031
293643731,-0.019360496,-0.103859656,0.32901394
293654816,-0.024046697,-0.08472555,0.3393892
293666629,-0.0427915,-0.08766925,0.33494267
293690554,-0.01779843,-0.09797224,0.32901394
293702808,-0.0334191,-0.09502853,0.3393892
293714649,-0.019360496,-0.1023878,0.32308525
293738695,-0.0381053,-0.086197406,0.3393892
293750839,-0.019360496,-0.09944409,0.33049613
293787915,-0.034981165,-0.09650039,0.29788825
293799260,-0.034981165,-0.089141116,0.31715655
293823258,-0.013112227,-0.09502853,0.3097457
293835783,-0.028732898,-0.09208482,0.29788825
293846216,-0.030294966,-0.09502853,0.31271002
293859084,-0.020922562,-0.09944409,0.3082635
293870351,-0.024046697,-0.09502853,0.2964061
293882701,-0.027170831,-0.09797224,0.29492393
293894312,-0.027170831,-0.09061296,0.30085263
293917988,-0.030294966,-0.09061296,0.28751305
293931794,-0.020922562,-0.08030998,0.27417347
293943226,-0.034981165,-0.09208482,0.28899524
293966196,-0.016236361,-0.08178184,0.26824474
293979107,-0.031857032,-0.08178184,0.27417347
293990305,-0.009988094,-0.09944409,0.2830665
294014323,-0.0068639587,-0.08766925,0.30085263
