timestamp,timestamp_last_signal,channel_count,rssi,rc_lost_frame_count,rc_total_frame_count,rc_ppm_frame_length,values[0],values[1],values[2],values[3],values[4],values[5],values[6],values[7],values[8],values[9],values[10],values[11],values[12],values[13],values[14],values[15],values[16],values[17],rc_failsafe,rc_lost,input_source
273377125,273377125,8,44,0,0,22942,1518,1518,1419,1519,1518,1518,1518,1519,0,0,0,0,0,0,0,0,0,0,0,0,2
273584208,273584208,8,44,0,0,22942,1519,1518,1419,1518,1519,1518,1518,1518,0,0,0,0,0,0,0,0,0,0,0,0,2
273796322,273796322,8,44,0,0,22942,1518,1519,1419,1518,1518,1519,1518,1518,0,0,0,0,0,0,0,0,0,0,0,0,2
273983260,273983260,8,44,0,0,22941,1518,1519,1419,1518,1519,1518,1518,1518,0,0,0,0,0,0,0,0,0,0,0,0,2
274190751,274190751,8,44,0,0,22942,1519,1518,1419,1518,1519,1518,1518,1518,0,0,0,0,0,0,0,0,0,0,0,0,2
274406734,274406734,8,44,0,0,22942,1518,1518,1419,1519,1518,1518,1518,1519,0,0,0,0,0,0,0,0,0,0,0,0,2
274609942,274609942,8,44,0,0,22942,1518,1518,1420,1518,1518,1518,1519,1518,0,0,0,0,0,0,0,0,0,0,0,0,2
274800379,274800379,8,44,0,0,22942,1518,1519,1419,1518,1518,1519,1518,1518,0,0,0,0,0,0,0,0,0,0,0,0,2
275009211,275009211,8,44,0,0,22941,1518,1519,1419,1518,1518,1519,1518,1518,0,0,0,0,0,0,0,0,0,0,0,0,2
275196111,275196111,8,44,0,0,22942,1518,1519,1419,1518,1518,1519,1518,1518,0,0,0,0,0,0,0,0,0,0,0,0,2
275419581,275419581,8,44,0,0,22942,1518,1518,1419,1519,1518,1518,1519,1518,0,0,0,0,0,0,0,0,0,0,0,0,2
275623589,275623589,8,44,0,0,22942,1518,1518,1419,1519,1518,1518,1518,1519,0,0,0,0,0,0,0,0,0,0,0,0,2
275810528,275810528,8,44,0,0,22942,1518,1518,1420,1518,1518,1518,1519,1518,0,0,0,0,0,0,0,0,0,0,0,0,2
276021738,276021738,8,44,0,0,22917,1289,1707,1420,1518,1518,1518,1519,1518,0,0,0,0,0,0,0,0,0,0,0,0,2
276213956,276213956,8,44,0,0,22941,1519,1518,1419,1518,1519,1518,1518,1518,0,0,0,0,0,0,0,0,0,0,0,0,2
276429184,276429184,8,44,0,0,22940,1305,1726,1419,1518,1519,1518,1518,1518,0,0,0,0,0,0,0,0,0,0,0,0,2
276632337,276632337,8,44,0,0,22942,1518,1518,1420,1518,1518,1518,1519,1518,0,0,0,0,0,0,0,0,0,0,0,0,2
276824333,276824333,8,44,0,0,22942,1518,1518,1420,1518,1518,1518,1519,1518,0,0,0,0,0,0,0,0,0,0,0,0,2
277031314,277031314,8,44,0,0,22941,1519,1553,1420,1518,1518,1518,1519,1518,0,0,0,0,0,0,0,0,0,0,0,0,2
277238730,277238730,8,44,0,0,23356,1722,1736,1419,1518,1519,1518,1518,1519,0,0,0,0,0,0,0,0,0,0,0,0,2
277430533,277430533,8,44,0,0,23368,1717,1745,1420,1518,1518,1518,1519,1518,0,0,0,0,0,0,0,0,0,0,0,0,2
277641759,277641759,8,44,0,0,23368,1719,1744,1419,1518,1518,1519,1518,1518,0,0,0,0,0,0,0,0,0,0,0,0,2
277836862,277836862,8,44,0,0,23368,1719,1744,1419,1518,1518,1519,1518,1518,0,0,0,0,0,0,0,0,0,0,0,0,2
278053141,278053141,8,44,0,0,23367,1717,1744,1419,1518,1519,1518,1518,1519,0,0,0,0,0,0,0,0,0,0,0,0,2
279257924,279257924,8,44,0,0,22942,1518,1518,1419,1519,1518,1518,1518,1519,0,0,0,0,0,0,0,0,0,0,0,0,2
279473128,279473128,8,44,0,0,22941,1519,1518,1419,1519,1518,1518,1518,1519,0,0,0,0,0,0,0,0,0,0,0,0,2
279665392,279665392,8,44,0,0,22942,1518,1518,1420,1518,1518,1518,1519,1518,0,0,0,0,0,0,0,0,0,0,0,0,2
279872359,279872359,8,44,0,0,22942,1518,1519,1419,1518,1519,1518,1518,1518,0,0,0,0,0,0,0,0,0,0,0,0,2
280083620,280083620,8,44,0,0,22941,1519,1518,1419,1519,1518,1518,1518,1518,0,0,0,0,0,0,0,0,0,0,0,0,2
280290550,280290550,8,44,0,0,22674,1363,1351,1420,1518,1519,1519,1519,1518,0,0,0,0,0,0,0,0,0,0,0,0,2
280477935,280477935,8,44,0,0,22531,1300,1325,1419,1519,1519,1519,1518,1519,0,0,0,0,0,0,0,0,0,0,0,0,2
280681993,280681993,8,44,0,0,22531,1293,1330,1419,1519,1519,1519,1519,1518,0,0,0,0,0,0,0,0,0,0,0,0,2
280873145,280873145,8,44,0,0,22711,1419,1443,1419,1519,1519,1519,1519,1518,0,0,0,0,0,0,0,0,0,0,0,0,2
281088332,281088332,8,44,0,0,22937,1518,1518,1419,1518,1517,1517,1517,1518,0,0,0,0,0,0,0,0,0,0,0,0,2
281288213,281288213,8,44,0,0,22831,1520,1520,1420,1443,1444,1520,1521,1520,0,0,0,0,0,0,0,0,0,0,0,0,2
281487528,281487528,8,44,0,0,22675,1520,1520,1451,1350,1363,1520,1521,1520,0,0,0,0,0,0,0,0,0,0,0,0,2
281702582,281702582,8,44,0,0,22555,1520,1521,1466,1295,1295,1520,1521,1520,0,0,0,0,0,0,0,0,0,0,0,0,2
281882748,281882748,8,44,0,0,22641,1520,1520,1471,1344,1344,1520,1521,1520,0,0,0,0,0,0,0,0,0,0,0,0,2
282097771,282097771,8,44,0,0,22834,1520,1521,1474,1461,1446,1521,1520,1520,0,0,0,0,0,0,0,0,0,0,0,0,2
282289140,282289140,8,44,0,0,23025,1552,1517,1473,1517,1517,1518,1517,1517,0,0,0,0,0,0,0,0,0,0,0,0,2
282513132,282513132,8,44,0,0,23022,1553,1517,1472,1517,1518,1517,1517,1517,0,0,0,0,0,0,0,0,0,0,0,0,2
282704190,282704190,8,44,0,0,23081,1519,1520,1472,1559,1558,1520,1519,1519,0,0,0,0,0,0,0,0,0,0,0,0,2
282915540,282915540,8,44,0,0,22992,1518,1517,1473,1518,1518,1518,1518,1518,0,0,0,0,0,0,0,0,0,0,0,0,2
283107360,283107360,8,44,0,0,22992,1518,1518,1472,1518,1518,1518,1518,1518,0,0,0,0,0,0,0,0,0,0,0,0,2
283322725,283322725,8,44,0,0,22992,1517,1518,1473,1518,1518,1518,1518,1517,0,0,0,0,0,0,0,0,0,0,0,0,2
283525741,283525741,8,44,0,0,22992,1518,1517,1473,1518,1518,1518,1518,1517,0,0,0,0,0,0,0,0,0,0,0,0,2
283717965,283717965,8,44,0,0,22992,1518,1518,1472,1518,1519,1517,1518,1518,0,0,0,0,0,0,0,0,0,0,0,0,2
283933006,283933006,8,44,0,0,22992,1518,1518,1472,1519,1518,1518,1517,1518,0,0,0,0,0,0,0,0,0,0,0,0,2
284120317,284120317,8,44,0,0,22993,1518,1518,1472,1518,1518,1518,1518,1518,0,0,0,0,0,0,0,0,0,0,0,0,2
284336385,284336385,8,44,0,0,22993,1517,1518,1472,1519,1518,1518,1517,1518,0,0,0,0,0,0,0,0,0,0,0,0,2
284527212,284527212,8,44,0,0,22992,1518,1517,1473,1518,1518,1518,1518,1517,0,0,0,0,0,0,0,0,0,0,0,0,2
284730642,284730642,8,44,0,0,22992,1518,1517,1473,1518,1518,1518,1518,1517,0,0,0,0,0,0,0,0,0,0,0,0,2
284945141,284945141,8,44,0,0,22993,1517,1518,1472,1519,1518,1518,1517,1518,0,0,0,0,0,0,0,0,0,0,0,0,2
285137802,285137802,8,44,0,0,22993,1517,1518,1473,1518,1518,1518,1518,1518,0,0,0,0,0,0,0,0,0,0,0,0,2
285345395,285345395,8,44,0,0,23062,1510,1554,1473,1521,1522,1522,1522,1521,0,0,0,0,0,0,0,0,0,0,0,0,2
285548375,285548375,8,44,0,0,23343,1694,1731,1472,1518,1518,1517,1518,1518,0,0,0,0,0,0,0,0,0,0,0,0,2
285740201,285740201,8,44,0,0,23417,1707,1755,1472,1518,1518,1517,1518,1518,0,0,0,0,0,0,0,0,0,0,0,0,2
285951222,285951222,8,44,0,0,23418,1707,1755,1472,1518,1518,1518,1517,1518,0,0,0,0,0,0,0,0,0,0,0,0,2
286142555,286142555,8,44,0,0,23417,1710,1752,1472,1518,1518,1517,1518,1518,0,0,0,0,0,0,0,0,0,0,0,0,2
286358596,286358596,8,43,0,0,23417,1712,1750,1472,1518,1518,1518,1517,1518,0,0,0,0,0,0,0,0,0,0,0,0,2
286545730,286545730,8,43,0,0,23418,1713,1748,1473,1517,1518,1518,1518,1518,0,0,0,0,0,0,0,0,0,0,0,0,2
286752936,286752936,8,44,0,0,23417,1715,1749,1472,1518,1517,1518,1518,1518,0,0,0,0,0,0,0,0,0,0,0,0,2
286961130,286961130,8,44,0,0,23414,1721,1732,1472,1518,1518,1517,1518,1518,0,0,0,0,0,0,0,0,0,0,0,0,2
287172149,287172149,8,44,0,0,23089,1561,1549,1472,1518,1518,1518,1517,1518,0,0,0,0,0,0,0,0,0,0,0,0,2
287360179,287360179,8,44,0,0,22991,1518,1518,1473,1518,1518,1518,1517,1518,0,0,0,0,0,0,0,0,0,0,0,0,2
287564309,287564309,8,44,0,0,22992,1518,1518,1474,1517,1518,1518,1518,1518,0,0,0,0,0,0,0,0,0,0,0,0,2
287770712,287770712,8,44,0,0,22992,1517,1518,1472,1518,1518,1518,1517,1518,0,0,0,0,0,0,0,0,0,0,0,0,2
287977948,287977948,8,43,0,0,22991,1518,1517,1473,1517,1518,1518,1518,1517,0,0,0,0,0,0,0,0,0,0,0,0,2
288193934,288193934,8,44,0,0,22992,1517,1518,1472,1518,1518,1518,1517,1518,0,0,0,0,0,0,0,0,0,0,0,0,2
288381224,288381224,8,44,0,0,22991,1518,1518,1472,1518,1518,1518,1517,1518,0,0,0,0,0,0,0,0,0,0,0,0,2
288592155,288592155,8,44,0,0,22991,1518,1518,1472,1518,1518,1518,1517,1518,0,0,0,0,0,0,0,0,0,0,0,0,2
288800343,288800343,8,44,0,0,22991,1518,1518,1472,1518,1517,1518,1518,1518,0,0,0,0,0,0,0,0,0,0,0,0,2
288987543,288987543,8,44,0,0,22991,1518,1517,1473,1517,1518,1518,1518,1517,0,0,0,0,0,0,0,0,0,0,0,0,2
289202637,289202637,8,44,0,0,22965,1518,1518,1446,1518,1517,1518,1518,1518,0,0,0,0,0,0,0,0,0,0,0,0,2
289395736,289395736,8,44,0,0,22965,1518,1517,1447,1518,1517,1518,1518,1518,0,0,0,0,0,0,0,0,0,0,0,0,2
289585853,289585853,8,44,0,0,22965,1518,1518,1446,1518,1518,1518,1517,1518,0,0,0,0,0,0,0,0,0,0,0,0,2
289797146,289797146,8,44,0,0,22977,1517,1518,1460,1518,1518,1518,1517,1518,0,0,0,0,0,0,0,0,0,0,0,0,2
290004977,290004977,8,43,0,0,23022,1517,1518,1505,1518,1519,1519,1519,1520,0,0,0,0,0,0,0,0,0,0,0,0,2
290200317,290200317,8,44,0,0,23091,1527,1526,1513,1526,1527,1526,1526,1526,0,0,0,0,0,0,0,0,0,0,0,0,2
290407523,290407523,8,44,0,0,23092,1526,1527,1513,1526,1526,1527,1526,1526,0,0,0,0,0,0,0,0,0,0,0,0,2
290618599,290618599,8,44,0,0,23091,1527,1526,1513,1526,1527,1526,1526,1526,0,0,0,0,0,0,0,0,0,0,0,0,2
291212949,291212949,8,44,0,0,23121,1537,1537,1514,1515,1514,1537,1536,1537,0,0,0,0,0,0,0,0,0,0,0,0,2
291413129,291413129,8,44,0,0,23122,1537,1537,1514,1515,1514,1537,1536,1537,0,0,0,0,0,0,0,0,0,0,0,0,2
291624371,291624371,8,44,0,0,23122,1537,1537,1515,1514,1514,1537,1537,1537,0,0,0,0,0,0,0,0,0,0,0,0,2
291816328,291816328,8,43,0,0,23122,1536,1537,1515,1514,1514,1537,1537,1537,0,0,0,0,0,0,0,0,0,0,0,0,2
292031531,292031531,8,44,0,0,23122,1537,1536,1515,1514,1515,1536,1537,1537,0,0,0,0,0,0,0,0,0,0,0,0,2
292234734,292234734,8,44,0,0,23122,1536,1537,1515,1514,1514,1537,1537,1537,0,0,0,0,0,0,0,0,0,0,0,0,2
292436045,292436045,8,44,0,0,23089,1503,1549,1549,1518,1519,1518,1518,1519,0,0,0,0,0,0,0,0,0,0,0,0,2
292645934,292645934,8,43,0,0,23114,1496,1549,1580,1518,1519,1518,1518,1518,0,0,0,0,0,0,0,0,0,0,0,0,2
292837806,292837806,8,44,0,0,23111,1485,1557,1580,1518,1518,1519,1518,1518,0,0,0,0,0,0,0,0,0,0,0,0,2
293036154,293036154,8,44,0,0,23133,1470,1570,1612,1519,1518,1518,1518,1519,0,0,0,0,0,0,0,0,0,0,0,0,2
293240340,293240340,8,44,0,0,23139,1458,1583,1612,1518,1518,1519,1518,1518,0,0,0,0,0,0,0,0,0,0,0,0,2
293443360,293443360,8,44,0,0,23139,1430,1611,1610,1519,1518,1518,1519,1518,0,0,0,0,0,0,0,0,0,0,0,0,2
293646751,293646751,8,44,0,0,23138,1395,1645,1613,1518,1519,1518,1518,1518,0,0,0,0,0,0,0,0,0,0,0,0,2
293849968,293849968,8,44,0,0,23182,1366,1685,1644,1518,1519,1518,1518,1518,0,0,0,0,0,0,0,0,0,0,0,0,2
294041889,294041889,8,44,0,0,23206,1346,1699,1678,1518,1519,1518,1518,1518,0,0,0,0,0,0,0,0,0,0,0,0,2
294249203,294249203,8,44,0,0,23210,1350,1696,1678,1517,1516,1517,1517,1517,0,0,0,0,0,0,0,0,0,0,0,0,2
294456112,294456112,8,44,0,0,23252,1386,1713,1678,1517,1517,1517,1517,1517,0,0,0,0,0,0,0,0,0,0,0,0,2
294664147,294664147,8,44,0,0,23272,1395,1720,1678,1517,1516,1518,1517,1517,0,0,0,0,0,0,0,0,0,0,0,0,2
294855758,294855758,8,44,0,0,23280,1393,1716,1698,1517,1517,1517,1516,1517,0,0,0,0,0,0,0,0,0,0,0,0,2
295070748,295070748,8,44,0,0,23361,1396,1723,1709,1517,1517,1534,1534,1535,0,0,0,0,0,0,0,0,0,0,0,0,2
295279531,295279531,8,44,0,0,23308,1395,1717,1716,1517,1517,1517,1517,1518,0,0,0,0,0,0,0,0,0,0,0,0,2
295465751,295465751,8,44,0,0,23319,1393,1706,1740,1516,1517,1517,1518,1517,0,0,0,0,0,0,0,0,0,0,0,0,2
295673938,295673938,8,44,0,0,23365,1401,1727,1773,1517,1517,1517,1517,1518,0,0,0,0,0,0,0,0,0,0,0,0,2
295885150,295885150,8,44,0,0,23469,1443,1770,1798,1517,1517,1517,1518,1517,0,0,0,0,0,0,0,0,0,0,0,0,2
296084125,296084125,8,44,0,0,23626,1489,1864,1812,1517,1517,1517,1517,1518,0,0,0,0,0,0,0,0,0,0,0,0,2
296291351,296291351,8,44,0,0,23786,1549,1926,1827,1518,1518,1518,1517,1518,0,0,0,0,0,0,0,0,0,0,0,0,2
296479318,296479318,8,44,0,0,23807,1549,1933,1841,1518,1517,1518,1518,1518,0,0,0,0,0,0,0,0,0,0,0,0,2
296682540,296682540,8,44,0,0,23813,1550,1939,1841,1517,1518,1518,1518,1518,0,0,0,0,0,0,0,0,0,0,0,0,2
296885731,296885731,8,44,0,0,23781,1518,1940,1843,1518,1518,1517,1518,1518,0,0,0,0,0,0,0,0,0,0,0,0,2
297097937,297097937,8,44,0,0,23831,1520,1940,1941,1453,1454,1520,1520,1520,0,0,0,0,0,0,0,0,0,0,0,0,2
297289778,297289778,8,44,0,0,23921,1531,1940,1941,1513,1513,1530,1531,1531,0,0,0,0,0,0,0,0,0,0,0,0,2
297504936,297504936,8,44,0,0,23892,1519,1940,1941,1519,1519,1520,1519,1519,0,0,0,0,0,0,0,0,0,0,0,0,2
297704339,297704339,8,44,0,0,23890,1519,1940,1941,1519,1518,1519,1519,1520,0,0,0,0,0,0,0,0,0,0,0,0,2
297891405,297891405,8,44,0,0,23890,1520,1940,1941,1518,1519,1517,1518,1518,0,0,0,0,0,0,0,0,0,0,0,0,2
298110523,298110523,8,44,0,0,23747,1485,1817,1940,1519,1518,1518,1518,1517,0,0,0,0,0,0,0,0,0,0,0,0,2
298317738,298317738,8,44,0,0,23623,1417,1780,1940,1519,1518,1518,1518,1517,0,0,0,0,0,0,0,0,0,0,0,0,2
298501922,298501922,8,44,0,0,23658,1403,1770,1940,1544,1543,1521,1520,1520,0,0,0,0,0,0,0,0,0,0,0,0,2
298729360,298729360,8,44,0,0,23660,1445,1653,1940,1584,1585,1520,1520,1521,0,0,0,0,0,0,0,0,0,0,0,0,2
298928121,298928121,8,43,0,0,23768,1498,1544,1940,1679,1666,1520,1521,1520,0,0,0,0,0,0,0,0,0,0,0,0,2
299136334,299136334,8,43,0,0,23996,1519,1520,1940,1787,1786,1520,1520,1520,0,0,0,0,0,0,0,0,0,0,0,0,2
299921951,299921951,8,44,0,0,23918,1450,1601,1940,1734,1741,1520,1520,1520,0,0,0,0,0,0,0,0,0,0,0,0,2
300137009,300137009,8,44,0,0,23729,1411,1645,1940,1595,1609,1520,1521,1520,0,0,0,0,0,0,0,0,0,0,0,0,2
300341941,300341941,8,44,0,0,23482,1431,1622,1940,1518,1519,1518,1518,1518,0,0,0,0,0,0,0,0,0,0,0,0,2
300548027,300548027,8,44,0,0,23468,1451,1591,1940,1519,1518,1518,1518,1519,0,0,0,0,0,0,0,0,0,0,0,0,2
300747531,300747531,8,44,0,0,23555,1464,1584,1940,1569,1556,1520,1520,1521,0,0,0,0,0,0,0,0,0,0,0,0,2
300934746,300934746,8,44,0,0,23635,1462,1569,1940,1609,1610,1520,1520,1521,0,0,0,0,0,0,0,0,0,0,0,0,2
301146742,301146742,8,44,0,0,23728,1467,1564,1940,1654,1654,1521,1520,1520,0,0,0,0,0,0,0,0,0,0,0,0,2
301357911,301357911,8,43,0,0,23793,1470,1565,1940,1687,1686,1520,1520,1520,0,0,0,0,0,0,0,0,0,0,0,0,2
301548946,301548946,8,44,0,0,23820,1460,1565,1940,1702,1701,1520,1520,1520,0,0,0,0,0,0,0,0,0,0,0,0,2
301753142,301753142,8,43,0,0,23826,1462,1567,1940,1701,1701,1520,1521,1520,0,0,0,0,0,0,0,0,0,0,0,0,2
301960372,301960372,8,44,0,0,23828,1454,1570,1940,1702,1702,1520,1521,1520,0,0,0,0,0,0,0,0,0,0,0,0,2
302168168,302168168,8,44,0,0,23815,1456,1568,1940,1700,1700,1520,1521,1520,0,0,0,0,0,0,0,0,0,0,0,0,2
302375377,302375377,8,44,0,0,23818,1473,1546,1940,1700,1699,1521,1520,1520,0,0,0,0,0,0,0,0,0,0,0,0,2
302558735,302558735,8,44,0,0,23799,1463,1546,1940,1697,1697,1520,1520,1521,0,0,0,0,0,0,0,0,0,0,0,0,2
302769943,302769943,8,44,0,0,23784,1447,1558,1940,1692,1692,1520,1521,1520,0,0,0,0,0,0,0,0,0,0,0,0,2
302973715,302973715,8,44,0,0,23796,1437,1575,1940,1695,1695,1520,1520,1521,0,0,0,0,0,0,0,0,0,0,0,0,2
303177941,303177941,8,44,0,0,23785,1423,1586,1940,1685,1685,1520,1521,1520,0,0,0,0,0,0,0,0,0,0,0,0,2
303388058,303388058,8,44,0,0,23754,1421,1603,1940,1656,1657,1520,1521,1520,0,0,0,0,0,0,0,0,0,0,0,0,2
303584538,303584538,8,44,0,0,23623,1443,1603,1940,1575,1578,1521,1520,1520,0,0,0,0,0,0,0,0,0,0,0,0,2
303799359,303799359,8,44,0,0,23465,1475,1563,1941,1517,1518,1518,1518,1519,0,0,0,0,0,0,0,0,0,0,0,0,2
303982722,303982722,8,44,0,0,23463,1490,1549,1940,1518,1518,1518,1518,1518,0,0,0,0,0,0,0,0,0,0,0,0,2
304192149,304192149,8,44,0,0,23498,1482,1562,1940,1544,1543,1521,1520,1520,0,0,0,0,0,0,0,0,0,0,0,0,2
304401706,304401706,8,44,0,0,23574,1470,1551,1940,1580,1579,1521,1520,1520,0,0,0,0,0,0,0,0,0,0,0,0,2
304592901,304592901,8,44,0,0,23604,1471,1553,1940,1589,1588,1521,1520,1520,0,0,0,0,0,0,0,0,0,0,0,0,2
304792132,304792132,8,44,0,0,23547,1478,1561,1940,1544,1544,1520,1520,1521,0,0,0,0,0,0,0,0,0,0,0,0,2
305005146,305005146,8,44,0,0,23464,1489,1550,1940,1518,1518,1519,1518,1518,0,0,0,0,0,0,0,0,0,0,0,0,2
305211579,305211579,8,44,0,0,23482,1508,1552,1940,1520,1519,1520,1520,1519,0,0,0,0,0,0,0,0,0,0,0,0,2
305402565,305402565,8,44,0,0,23490,1506,1550,1940,1505,1521,1521,1522,1521,0,0,0,0,0,0,0,0,0,0,0,0,2
305618746,305618746,8,44,0,0,23406,1504,1544,1940,1476,1476,1520,1520,1521,0,0,0,0,0,0,0,0,0,0,0,0,2
305810165,305810165,8,44,0,0,23384,1501,1544,1940,1474,1473,1520,1520,1521,0,0,0,0,0,0,0,0,0,0,0,0,2
306025177,306025177,8,44,0,0,23397,1482,1559,1940,1482,1482,1520,1520,1521,0,0,0,0,0,0,0,0,0,0,0,0,2
306213196,306213196,8,44,0,0,23469,1476,1565,1940,1503,1503,1520,1521,1521,0,0,0,0,0,0,0,0,0,0,0,0,2
306412329,306412329,8,44,0,0,23464,1466,1569,1940,1518,1518,1517,1518,1518,0,0,0,0,0,0,0,0,0,0,0,0,2
306623621,306623621,8,44,0,0,23462,1473,1569,1940,1518,1518,1517,1518,1518,0,0,0,0,0,0,0,0,0,0,0,0,2
306838737,306838737,8,44,0,0,23462,1470,1569,1940,1518,1518,1517,1518,1518,0,0,0,0,0,0,0,0,0,0,0,0,2
307030737,307030737,8,43,0,0,23450,1451,1572,1941,1517,1518,1518,1518,1517,0,0,0,0,0,0,0,0,0,0,0,0,2
307222212,307222212,8,44,0,0,23448,1459,1573,1940,1518,1517,1518,1518,1517,0,0,0,0,0,0,0,0,0,0,0,0,2
308653836,308653836,8,44,0,0,23327,1497,1544,1940,1438,1439,1520,1520,1520,0,0,0,0,0,0,0,0,0,0,0,0,2
308846714,308846714,8,44,0,0,23310,1487,1555,1940,1436,1436,1520,1520,1521,0,0,0,0,0,0,0,0,0,0,0,0,2
309037155,309037155,8,44,0,0,23319,1483,1559,1940,1445,1445,1521,1520,1520,0,0,0,0,0,0,0,0,0,0,0,0,2
309248360,309248360,8,43,0,0,23364,1480,1567,1940,1462,1462,1520,1520,1521,0,0,0,0,0,0,0,0,0,0,0,0,2
309464432,309464432,8,44,0,0,23351,1474,1572,1940,1456,1455,1520,1520,1521,0,0,0,0,0,0,0,0,0,0,0,0,2
309655312,309655312,8,44,0,0,23339,1468,1573,1940,1450,1450,1520,1520,1521,0,0,0,0,0,0,0,0,0,0,0,0,2
309866749,309866749,8,44,0,0,23321,1466,1575,1940,1438,1439,1520,1520,1521,0,0,0,0,0,0,0,0,0,0,0,0,2
310057768,310057768,8,44,0,0,23291,1469,1571,1940,1428,1428,1520,1520,1521,0,0,0,0,0,0,0,0,0,0,0,0,2
310273936,310273936,8,44,0,0,23294,1472,1570,1940,1429,1429,1520,1521,1520,0,0,0,0,0,0,0,0,0,0,0,0,2
310480956,310480956,8,44,0,0,23295,1473,1569,1940,1429,1429,1521,1520,1520,0,0,0,0,0,0,0,0,0,0,0,0,2
310660344,310660344,8,44,0,0,23276,1480,1562,1940,1421,1420,1520,1520,1521,0,0,0,0,0,0,0,0,0,0,0,0,2
310872158,310872158,8,44,0,0,23273,1482,1563,1940,1417,1417,1520,1520,1520,0,0,0,0,0,0,0,0,0,0,0,0,2
311083578,311083578,8,44,0,0,23275,1481,1561,1940,1419,1418,1520,1520,1521,0,0,0,0,0,0,0,0,0,0,0,0,2
311274715,311274715,8,44,0,0,23270,1474,1559,1940,1420,1420,1521,1520,1520,0,0,0,0,0,0,0,0,0,0,0,0,2
311489998,311489998,8,44,0,0,23274,1468,1566,1940,1425,1424,1520,1520,1521,0,0,0,0,0,0,0,0,0,0,0,0,2
311693957,311693957,8,44,0,0,23284,1470,1569,1940,1424,1425,1520,1520,1521,0,0,0,0,0,0,0,0,0,0,0,0,2
311885130,311885130,8,44,0,0,23283,1459,1574,1940,1427,1428,1520,1520,1520,0,0,0,0,0,0,0,0,0,0,0,0,2
312092339,312092339,8,43,0,0,23308,1458,1575,1940,1442,1443,1520,1520,1521,0,0,0,0,0,0,0,0,0,0,0,0,2
312491534,312491534,8,44,0,0,23425,1452,1583,1940,1500,1501,1520,1521,1524,0,0,0,0,0,0,0,0,0,0,0,0,2
312702708,312702708,8,44,0,0,23443,1456,1584,1941,1502,1503,1520,1519,1520,0,0,0,0,0,0,0,0,0,0,0,0,2
312894733,312894733,8,44,0,0,23416,1462,1578,1940,1488,1488,1519,1520,1520,0,0,0,0,0,0,0,0,0,0,0,0,2
313097957,313097957,8,44,0,0,23385,1487,1565,1940,1468,1468,1520,1520,1520,0,0,0,0,0,0,0,0,0,0,0,0,2
313308889,313308889,8,44,0,0,23364,1480,1565,1940,1463,1463,1519,1520,1520,0,0,0,0,0,0,0,0,0,0,0,0,2
313509204,313509204,8,44,0,0,23362,1478,1568,1940,1461,1462,1519,1520,1520,0,0,0,0,0,0,0,0,0,0,0,0,2
313712122,313712122,8,44,0,0,23364,1479,1569,1940,1462,1461,1520,1519,1520,0,0,0,0,0,0,0,0,0,0,0,0,2
313923364,313923364,8,44,0,0,23346,1475,1567,1940,1455,1456,1520,1520,1519,0,0,0,0,0,0,0,0,0,0,0,0,2
314111385,314111385,8,44,0,0,23322,1476,1565,1940,1444,1444,1520,1520,1520,0,0,0,0,0,0,0,0,0,0,0,0,2
314326743,314326743,8,44,0,0,23312,1469,1573,1940,1439,1440,1520,1520,1519,0,0,0,0,0,0,0,0,0,0,0,0,2
314517957,314517957,8,44,0,0,23318,1460,1584,1940,1441,1442,1520,1519,1520,0,0,0,0,0,0,0,0,0,0,0,0,2
314725426,314725426,8,44,0,0,23311,1466,1575,1940,1439,1438,1520,1519,1520,0,0,0,0,0,0,0,0,0,0,0,0,2
314937047,314937047,8,44,0,0,23311,1467,1573,1940,1438,1439,1519,1520,1520,0,0,0,0,0,0,0,0,0,0,0,0,2
315128336,315128336,8,44,0,0,23318,1470,1571,1940,1442,1442,1520,1519,1520,0,0,0,0,0,0,0,0,0,0,0,0,2
315319765,315319765,8,44,0,0,23322,1469,1572,1940,1443,1443,1520,1520,1520,0,0,0,0,0,0,0,0,0,0,0,0,2
315531365,315531365,8,44,0,0,23392,1468,1573,1940,1485,1484,1520,1520,1520,0,0,0,0,0,0,0,0,0,0,0,0,2
315738535,315738535,8,44,0,0,23462,1482,1558,1940,1518,1518,1518,1517,1518,0,0,0,0,0,0,0,0,0,0,0,0,2
315946501,315946501,8,44,0,0,23465,1485,1557,1940,1517,1518,1518,1520,1520,0,0,0,0,0,0,0,0,0,0,0,0,2
316133336,316133336,8,44,0,0,23549,1483,1557,1940,1569,1570,1520,1520,1521,0,0,0,0,0,0,0,0,0,0,0,0,2
316353136,316353136,8,44,0,0,23546,1482,1570,1940,1553,1553,1520,1520,1521,0,0,0,0,0,0,0,0,0,0,0,0,2
316536392,316536392,8,44,0,0,23467,1491,1551,1940,1518,1518,1518,1519,1518,0,0,0,0,0,0,0,0,0,0,0,0,2
316748356,316748356,8,44,0,0,23476,1498,1551,1940,1518,1519,1518,1518,1518,0,0,0,0,0,0,0,0,0,0,0,0,2
316939538,316939538,8,44,0,0,23467,1499,1549,1940,1516,1516,1518,1517,1517,0,0,0,0,0,0,0,0,0,0,0,0,2
317150525,317150525,8,44,0,0,23432,1499,1549,1869,1518,1517,1518,1517,1517,0,0,0,0,0,0,0,0,0,0,0,0,2
317357998,317357998,8,44,0,0,23273,1499,1549,1730,1518,1517,1518,1517,1517,0,0,0,0,0,0,0,0,0,0,0,0,2
317545732,317545732,8,44,0,0,23180,1498,1550,1645,1518,1517,1518,1517,1517,0,0,0,0,0,0,0,0,0,0,0,0,2
317752988,317752988,8,44,0,0,23143,1496,1549,1614,1517,1518,1517,1518,1517,0,0,0,0,0,0,0,0,0,0,0,0,2
317964341,317964341,8,44,0,0,23140,1495,1550,1613,1518,1517,1518,1517,1517,0,0,0,0,0,0,0,0,0,0,0,0,2
318160111,318160111,8,44,0,0,23142,1497,1550,1613,1518,1517,1518,1517,1517,0,0,0,0,0,0,0,0,0,0,0,0,2
318375347,318375347,8,44,0,0,23161,1507,1551,1613,1520,1520,1520,1521,1521,0,0,0,0,0,0,0,0,0,0,0,0,2
318558552,318558552,8,44,0,0,23237,1519,1520,1612,1573,1572,1520,1520,1520,0,0,0,0,0,0,0,0,0,0,0,0,2
318766558,318766558,8,44,0,0,23273,1519,1520,1595,1613,1596,1519,1520,1520,0,0,0,0,0,0,0,0,0,0,0,0,2
318973940,318973940,8,44,0,0,23311,1520,1519,1596,1613,1613,1520,1520,1519,0,0,0,0,0,0,0,0,0,0,0,0,2
319181261,319181261,8,44,0,0,23316,1520,1520,1594,1613,1613,1520,1519,1520,0,0,0,0,0,0,0,0,0,0,0,0,2
319384029,319384029,8,44,0,0,23296,1519,1544,1594,1593,1610,1519,1518,1518,0,0,0,0,0,0,0,0,0,0,0,0,2
319592391,319592391,8,44,0,0,23163,1508,1552,1594,1520,1519,1520,1520,1520,0,0,0,0,0,0,0,0,0,0,0,0,2
319775533,319775533,8,44,0,0,23134,1502,1551,1593,1519,1518,1518,1518,1519,0,0,0,0,0,0,0,0,0,0,0,0,2
319990523,319990523,8,44,0,0,23177,1484,1543,1594,1556,1555,1520,1520,1520,0,0,0,0,0,0,0,0,0,0,0,0,2
320202707,320202707,8,44,0,0,23244,1473,1551,1589,1607,1589,1520,1519,1520,0,0,0,0,0,0,0,0,0,0,0,0,2
320405939,320405939,8,44,0,0,23264,1454,1566,1589,1603,1603,1520,1520,1519,0,0,0,0,0,0,0,0,0,0,0,0,2
320592946,320592946,8,44,0,0,23269,1461,1563,1589,1602,1601,1520,1520,1520,0,0,0,0,0,0,0,0,0,0,0,0,2
320800237,320800237,8,44,0,0,23276,1498,1544,1583,1600,1601,1519,1520,1520,0,0,0,0,0,0,0,0,0,0,0,0,2
321004895,321004895,8,44,0,0,23287,1502,1544,1582,1603,1603,1520,1519,1520,0,0,0,0,0,0,0,0,0,0,0,0,2
321211268,321211268,8,44,0,0,23282,1508,1544,1582,1598,1598,1520,1520,1519,0,0,0,0,0,0,0,0,0,0,0,0,2
321418521,321418521,8,44,0,0,23236,1520,1519,1582,1580,1581,1520,1520,1519,0,0,0,0,0,0,0,0,0,0,0,0,2
321606532,321606532,8,44,0,0,23252,1511,1522,1582,1580,1581,1522,1523,1522,0,0,0,0,0,0,0,0,0,0,0,0,2
321805940,321805940,8,44,0,0,23246,1503,1544,1581,1581,1581,1520,1521,1521,0,0,0,0,0,0,0,0,0,0,0,0,2
322012969,322012969,8,43,0,0,23266,1496,1544,1582,1593,1594,1521,1521,1520,0,0,0,0,0,0,0,0,0,0,0,0,2
322221118,322221118,8,44,0,0,23277,1491,1544,1582,1602,1601,1521,1521,1520,0,0,0,0,0,0,0,0,0,0,0,0,2
322424121,322424121,8,44,0,0,23301,1485,1544,1581,1619,1619,1521,1520,1521,0,0,0,0,0,0,0,0,0,0,0,0,2
322620349,322620349,8,44,0,0,23305,1484,1544,1582,1620,1620,1521,1521,1520,0,0,0,0,0,0,0,0,0,0,0,0,2
322825140,322825140,8,44,0,0,23289,1477,1544,1582,1612,1613,1521,1521,1520,0,0,0,0,0,0,0,0,0,0,0,0,2
323026574,323026574,8,44,0,0,23250,1470,1544,1582,1594,1594,1521,1520,1521,0,0,0,0,0,0,0,0,0,0,0,0,2
323233776,323233776,8,44,0,0,23143,1472,1544,1581,1544,1544,1521,1521,1520,0,0,0,0,0,0,0,0,0,0,0,0,2
323442767,323442767,8,44,0,0,23100,1480,1550,1581,1518,1518,1517,1518,1518,0,0,0,0,0,0,0,0,0,0,0,0,2
323637144,323637144,8,44,0,0,23124,1482,1550,1615,1519,1518,1517,1518,1518,0,0,0,0,0,0,0,0,0,0,0,0,2
323848314,323848314,8,44,0,0,23167,1490,1549,1645,1518,1518,1518,1518,1517,0,0,0,0,0,0,0,0,0,0,0,0,2
324052332,324052332,8,44,0,0,23172,1495,1549,1645,1518,1518,1518,1517,1518,0,0,0,0,0,0,0,0,0,0,0,0,2
324239377,324239377,8,44,0,0,23184,1507,1550,1645,1518,1518,1518,1517,1518,0,0,0,0,0,0,0,0,0,0,0,0,2
324454731,324454731,8,44,0,0,23214,1510,1553,1645,1522,1521,1520,1521,1521,0,0,0,0,0,0,0,0,0,0,0,0,2
324638545,324638545,8,44,0,0,23190,1505,1549,1645,1517,1518,1517,1517,1517,0,0,0,0,0,0,0,0,0,0,0,0,2
324849782,324849782,8,44,0,0,23143,1501,1518,1644,1518,1517,1517,1517,1518,0,0,0,0,0,0,0,0,0,0,0,0,2
325048927,325048927,8,43,0,0,23172,1509,1522,1645,1521,1520,1521,1521,1521,0,0,0,0,0,0,0,0,0,0,0,0,2
325256347,325256347,8,44,0,0,23195,1512,1524,1644,1524,1524,1524,1523,1524,0,0,0,0,0,0,0,0,0,0,0,0,2
325467573,325467573,8,44,0,0,23230,1516,1539,1645,1517,1518,1518,1518,1517,0,0,0,0,0,0,0,0,0,0,0,0,2
325675576,325675576,8,44,0,0,23241,1514,1525,1644,1526,1525,1525,1525,1526,0,0,0,0,0,0,0,0,0,0,0,0,2
325858550,325858550,8,44,0,0,23182,1503,1549,1644,1519,1518,1518,1518,1519,0,0,0,0,0,0,0,0,0,0,0,0,2
326065858,326065858,8,44,0,0,23179,1500,1549,1645,1518,1518,1519,1518,1518,0,0,0,0,0,0,0,0,0,0,0,0,2
326273727,326273727,8,44,0,0,23178,1499,1549,1647,1518,1519,1518,1518,1518,0,0,0,0,0,0,0,0,0,0,0,0,2
326473122,326473122,8,44,0,0,23203,1495,1550,1669,1507,1507,1525,1524,1525,0,0,0,0,0,0,0,0,0,0,0,0,2
326680352,326680352,8,44,0,0,23146,1501,1543,1678,1484,1480,1521,1520,1520,0,0,0,0,0,0,0,0,0,0,0,0,2
326872144,326872144,8,44,0,0,23130,1490,1554,1678,1473,1473,1520,1520,1520,0,0,0,0,0,0,0,0,0,0,0,0,2
327087788,327087788,8,44,0,0,23112,1486,1557,1678,1468,1468,1521,1520,1520,0,0,0,0,0,0,0,0,0,0,0,0,2
327294754,327294754,8,44,0,0,23100,1484,1554,1678,1465,1464,1521,1520,1520,0,0,0,0,0,0,0,0,0,0,0,0,2
327485614,327485614,8,44,0,0,23121,1489,1557,1678,1471,1471,1521,1520,1520,0,0,0,0,0,0,0,0,0,0,0,0,2
327689961,327689961,8,44,0,0,23126,1489,1557,1678,1473,1473,1520,1520,1521,0,0,0,0,0,0,0,0,0,0,0,0,2
327885152,327885152,8,44,0,0,23127,1490,1555,1682,1473,1472,1520,1520,1521,0,0,0,0,0,0,0,0,0,0,0,0,2
328100337,328100337,8,44,0,0,23122,1489,1557,1682,1471,1470,1521,1520,1520,0,0,0,0,0,0,0,0,0,0,0,0,2
328289241,328289241,8,44,0,0,23126,1489,1557,1682,1471,1472,1520,1520,1520,0,0,0,0,0,0,0,0,0,0,0,0,2
328504590,328504590,8,44,0,0,23099,1482,1554,1682,1463,1464,1520,1520,1520,0,0,0,0,0,0,0,0,0,0,0,0,2
328710449,328710449,8,44,0,0,23097,1493,1551,1682,1458,1457,1520,1520,1520,0,0,0,0,0,0,0,0,0,0,0,0,2
328910734,328910734,8,44,0,0,23065,1506,1543,1683,1439,1439,1520,1521,1520,0,0,0,0,0,0,0,0,0,0,0,0,2
329097821,329097821,8,44,0,0,23055,1509,1545,1682,1429,1428,1522,1522,1522,0,0,0,0,0,0,0,0,0,0,0,0,2
329313101,329313101,8,44,0,0,23053,1515,1551,1682,1418,1419,1526,1527,1527,0,0,0,0,0,0,0,0,0,0,0,0,2
329505323,329505323,8,44,0,0,23035,1515,1556,1683,1407,1407,1526,1526,1526,0,0,0,0,0,0,0,0,0,0,0,0,2
329720923,329720923,8,44,0,0,23013,1511,1562,1682,1398,1398,1522,1523,1523,0,0,0,0,0,0,0,0,0,0,0,0,2
329915400,329915400,8,44,0,0,23009,1509,1562,1682,1398,1397,1522,1521,1521,0,0,0,0,0,0,0,0,0,0,0,0,2
330110959,330110959,8,44,0,0,23010,1500,1567,1683,1402,1403,1520,1520,1519,0,0,0,0,0,0,0,0,0,0,0,0,2
330326539,330326539,8,44,0,0,23032,1480,1581,1683,1435,1421,1520,1519,1520,0,0,0,0,0,0,0,0,0,0,0,0,2
330510964,330510964,8,44,0,0,23109,1475,1583,1689,1453,1452,1520,1520,1520,0,0,0,0,0,0,0,0,0,0,0,0,2
330733156,330733156,8,44,0,0,23090,1469,1586,1695,1442,1442,1520,1519,1520,0,0,0,0,0,0,0,0,0,0,0,0,2
330924352,330924352,8,44,0,0,23065,1461,1588,1701,1433,1433,1520,1520,1520,0,0,0,0,0,0,0,0,0,0,0,0,2
331116148,331116148,8,44,0,0,23096,1460,1584,1719,1442,1441,1520,1520,1520,0,0,0,0,0,0,0,0,0,0,0,0,2
331327701,331327701,8,44,0,0,23150,1460,1582,1743,1459,1460,1519,1520,1520,0,0,0,0,0,0,0,0,0,0,0,0,2
331526737,331526737,8,44,0,0,23162,1463,1582,1741,1462,1462,1520,1519,1520,0,0,0,0,0,0,0,0,0,0,0,0,2
331742770,331742770,8,44,0,0,23276,1471,1581,1741,1518,1518,1518,1517,1518,0,0,0,0,0,0,0,0,0,0,0,0,2
331933722,331933722,8,44,0,0,23277,1475,1578,1742,1518,1517,1518,1518,1518,0,0,0,0,0,0,0,0,0,0,0,0,2
332344062,332344062,8,44,0,0,23279,1480,1572,1742,1518,1517,1518,1518,1517,0,0,0,0,0,0,0,0,0,0,0,0,2
332544178,332544178,8,44,0,0,23277,1491,1563,1742,1518,1518,1517,1518,1518,0,0,0,0,0,0,0,0,0,0,0,0,2
332737146,332737146,8,44,0,0,23277,1502,1550,1741,1518,1518,1517,1518,1518,0,0,0,0,0,0,0,0,0,0,0,0,2
332942570,332942570,8,44,0,0,23272,1498,1549,1741,1518,1518,1518,1517,1518,0,0,0,0,0,0,0,0,0,0,0,0,2
333150534,333150534,8,44,0,0,23269,1493,1549,1742,1517,1518,1518,1517,1518,0,0,0,0,0,0,0,0,0,0,0,0,2
333341754,333341754,8,44,0,0,23267,1483,1557,1742,1517,1518,1518,1518,1517,0,0,0,0,0,0,0,0,0,0,0,0,2
333565161,333565161,8,44,0,0,23266,1480,1560,1742,1518,1517,1518,1518,1517,0,0,0,0,0,0,0,0,0,0,0,0,2
333753137,333753137,8,44,0,0,23266,1479,1561,1742,1518,1517,1518,1518,1518,0,0,0,0,0,0,0,0,0,0,0,0,2
334977133,334977133,8,44,0,0,23266,1475,1566,1741,1518,1518,1517,1518,1518,0,0,0,0,0,0,0,0,0,0,0,0,2
335185121,335185121,8,44,0,0,23265,1477,1564,1741,1520,1519,1519,1519,1520,0,0,0,0,0,0,0,0,0,0,0,0,2
335380312,335380312,8,44,0,0,23322,1478,1563,1741,1544,1543,1519,1520,1519,0,0,0,0,0,0,0,0,0,0,0,0,2
335587620,335587620,8,44,0,0,23354,1481,1560,1741,1560,1560,1519,1519,1519,0,0,0,0,0,0,0,0,0,0,0,0,2
335790588,335790588,8,44,0,0,23378,1482,1560,1741,1572,1573,1519,1519,1519,0,0,0,0,0,0,0,0,0,0,0,0,2
335978451,335978451,8,44,0,0,23384,1483,1559,1742,1574,1574,1519,1519,1520,0,0,0,0,0,0,0,0,0,0,0,0,2
336183672,336183672,8,44,0,0,23389,1485,1557,1741,1577,1577,1519,1520,1519,0,0,0,0,0,0,0,0,0,0,0,0,2
336397121,336397121,8,44,0,0,23389,1488,1553,1741,1577,1578,1519,1519,1519,0,0,0,0,0,0,0,0,0,0,0,0,2
336597181,336597181,8,44,0,0,23389,1490,1551,1741,1577,1577,1519,1520,1519,0,0,0,0,0,0,0,0,0,0,0,0,2
336808336,336808336,8,44,0,0,23383,1493,1548,1741,1575,1576,1519,1520,1519,0,0,0,0,0,0,0,0,0,0,0,0,2
337011486,337011486,8,44,0,0,23385,1497,1545,1741,1574,1575,1519,1519,1519,0,0,0,0,0,0,0,0,0,0,0,0,2
337195558,337195558,8,44,0,0,23393,1496,1544,1742,1580,1581,1519,1519,1519,0,0,0,0,0,0,0,0,0,0,0,0,2
337398642,337398642,8,44,0,0,23404,1496,1544,1742,1584,1583,1519,1519,1519,0,0,0,0,0,0,0,0,0,0,0,0,2
337605977,337605977,8,44,0,0,23419,1491,1550,1747,1592,1592,1519,1519,1520,0,0,0,0,0,0,0,0,0,0,0,0,2
337813355,337813355,8,44,0,0,23420,1486,1555,1747,1590,1590,1519,1520,1519,0,0,0,0,0,0,0,0,0,0,0,0,2
338004954,338004954,8,44,0,0,23425,1485,1557,1747,1592,1593,1519,1520,1519,0,0,0,0,0,0,0,0,0,0,0,0,2
338212344,338212344,8,43,0,0,23474,1482,1555,1757,1614,1614,1519,1519,1519,0,0,0,0,0,0,0,0,0,0,0,0,2
338419584,338419584,8,44,0,0,23474,1488,1552,1757,1611,1611,1519,1519,1520,0,0,0,0,0,0,0,0,0,0,0,0,2
338627357,338627357,8,44,0,0,23475,1488,1547,1758,1614,1615,1519,1519,1520,0,0,0,0,0,0,0,0,0,0,0,0,2
338814739,338814739,8,44,0,0,23513,1485,1544,1770,1634,1634,1519,1520,1519,0,0,0,0,0,0,0,0,0,0,0,0,2
339029946,339029946,8,44,0,0,23545,1470,1544,1793,1647,1648,1519,1519,1520,0,0,0,0,0,0,0,0,0,0,0,0,2
339221896,339221896,8,44,0,0,23575,1468,1544,1840,1628,1628,1519,1519,1519,0,0,0,0,0,0,0,0,0,0,0,0,2
339428923,339428923,8,44,0,0,23609,1466,1544,1910,1621,1622,1519,1519,1520,0,0,0,0,0,0,0,0,0,0,0,0,2
339628938,339628938,8,44,0,0,23610,1467,1544,1940,1600,1600,1520,1519,1519,0,0,0,0,0,0,0,0,0,0,0,0,2
339840485,339840485,8,44,0,0,23565,1468,1544,1940,1575,1575,1521,1521,1521,0,0,0,0,0,0,0,0,0,0,0,0,2
340047351,340047351,8,44,0,0,23536,1474,1548,1940,1560,1560,1520,1521,1521,0,0,0,0,0,0,0,0,0,0,0,0,2
340239529,340239529,8,44,0,0,23455,1478,1550,1940,1519,1518,1519,1518,1518,0,0,0,0,0,0,0,0,0,0,0,0,2
340441773,340441773,8,44,0,0,23451,1474,1550,1940,1518,1519,1518,1519,1518,0,0,0,0,0,0,0,0,0,0,0,0,2
340645143,340645143,8,44,0,0,23457,1474,1558,1940,1518,1519,1518,1518,1519,0,0,0,0,0,0,0,0,0,0,0,0,2
340837183,340837183,8,44,0,0,23458,1472,1563,1940,1518,1519,1518,1518,1518,0,0,0,0,0,0,0,0,0,0,0,0,2
341044135,341044135,8,44,0,0,23458,1465,1564,1940,1518,1520,1521,1520,1520,0,0,0,0,0,0,0,0,0,0,0,0,2
341259326,341259326,8,44,0,0,23507,1461,1563,1940,1543,1544,1520,1520,1521,0,0,0,0,0,0,0,0,0,0,0,0,2
341447566,341447566,8,44,0,0,23560,1456,1562,1940,1573,1574,1520,1521,1520,0,0,0,0,0,0,0,0,0,0,0,0,2
341662783,341662783,8,44,0,0,23564,1452,1562,1940,1577,1577,1520,1520,1520,0,0,0,0,0,0,0,0,0,0,0,0,2
341855557,341855557,8,44,0,0,23538,1456,1562,1940,1561,1560,1520,1521,1520,0,0,0,0,0,0,0,0,0,0,0,0,2
342070747,342070747,8,44,0,0,23509,1465,1562,1940,1520,1520,1520,1520,1520,0,0,0,0,0,0,0,0,0,0,0,0,2
342273129,342273129,8,44,0,0,23458,1469,1560,1940,1518,1519,1518,1519,1519,0,0,0,0,0,0,0,0,0,0,0,0,2
342476293,342476293,8,44,0,0,23462,1477,1557,1940,1519,1518,1519,1519,1518,0,0,0,0,0,0,0,0,0,0,0,0,2
342665782,342665782,8,44,0,0,23461,1483,1550,1940,1519,1518,1519,1519,1518,0,0,0,0,0,0,0,0,0,0,0,0,2
342875576,342875576,8,44,0,0,23465,1488,1550,1940,1519,1518,1519,1518,1519,0,0,0,0,0,0,0,0,0,0,0,0,2
343066729,343066729,8,44,0,0,23461,1484,1550,1940,1519,1518,1518,1519,1519,0,0,0,0,0,0,0,0,0,0,0,0,2
343281915,343281915,8,43,0,0,23458,1480,1551,1940,1518,1519,1518,1519,1519,0,0,0,0,0,0,0,0,0,0,0,0,2
343473747,343473747,8,44,0,0,23466,1478,1559,1941,1518,1518,1519,1519,1519,0,0,0,0,0,0,0,0,0,0,0,0,2
343689355,343689355,8,44,0,0,23467,1479,1562,1941,1518,1518,1519,1519,1519,0,0,0,0,0,0,0,0,0,0,0,0,2
343896859,343896859,8,44,0,0,23467,1475,1564,1940,1518,1519,1518,1519,1519,0,0,0,0,0,0,0,0,0,0,0,0,2
344084354,344084354,8,44,0,0,23467,1477,1562,1940,1518,1519,1518,1519,1519,0,0,0,0,0,0,0,0,0,0,0,0,2
344299558,344299558,8,44,0,0,23463,1472,1562,1940,1519,1518,1519,1519,1518,0,0,0,0,0,0,0,0,0,0,0,0,2
344490940,344490940,8,44,0,0,23466,1475,1564,1940,1519,1518,1519,1519,1519,0,0,0,0,0,0,0,0,0,0,0,0,2
344697928,344697928,8,44,0,0,23468,1473,1568,1940,1518,1519,1518,1519,1519,0,0,0,0,0,0,0,0,0,0,0,0,2
344913788,344913788,8,43,0,0,23469,1476,1566,1940,1519,1518,1519,1519,1518,0,0,0,0,0,0,0,0,0,0,0,0,2
345104997,345104997,8,44,0,0,23469,1480,1560,1940,1519,1518,1519,1518,1519,0,0,0,0,0,0,0,0,0,0,0,0,2
345316156,345316156,8,44,0,0,23471,1481,1555,1940,1520,1520,1521,1520,1520,0,0,0,0,0,0,0,0,0,0,0,0,2
345504162,345504162,8,44,0,0,23477,1483,1559,1940,1520,1520,1520,1521,1520,0,0,0,0,0,0,0,0,0,0,0,0,2
345715600,345715600,8,44,0,0,23470,1482,1552,1940,1520,1520,1521,1520,1520,0,0,0,0,0,0,0,0,0,0,0,0,2
345918564,345918564,8,44,0,0,23526,1482,1561,1940,1544,1543,1521,1520,1520,0,0,0,0,0,0,0,0,0,0,0,0,2
346122314,346122314,8,44,0,0,23526,1482,1561,1940,1544,1544,1520,1520,1520,0,0,0,0,0,0,0,0,0,0,0,0,2
346313712,346313712,8,44,0,0,23526,1482,1561,1940,1544,1544,1520,1520,1520,0,0,0,0,0,0,0,0,0,0,0,0,2
346529178,346529178,8,44,0,0,23523,1478,1561,1940,1544,1544,1520,1520,1521,0,0,0,0,0,0,0,0,0,0,0,0,2
346728572,346728572,8,44,0,0,23526,1483,1562,1940,1543,1544,1520,1521,1520,0,0,0,0,0,0,0,0,0,0,0,0,2
346916025,346916025,8,44,0,0,23561,1495,1543,1940,1566,1566,1520,1520,1521,0,0,0,0,0,0,0,0,0,0,0,0,2
347128115,347128115,8,44,0,0,23584,1498,1544,1940,1572,1573,1520,1521,1520,0,0,0,0,0,0,0,0,0,0,0,0,2
347318576,347318576,8,44,0,0,23528,1493,1546,1940,1546,1543,1521,1520,1520,0,0,0,0,0,0,0,0,0,0,0,0,2
347529934,347529934,8,44,0,0,23523,1497,1552,1940,1520,1520,1520,1521,1520,0,0,0,0,0,0,0,0,0,0,0,0,2
347745800,347745800,8,44,0,0,23532,1508,1544,1940,1521,1522,1522,1522,1521,0,0,0,0,0,0,0,0,0,0,0,0,2
347925168,347925168,8,44,0,0,23517,1511,1554,1940,1522,1544,1522,1521,1522,0,0,0,0,0,0,0,0,0,0,0,0,2
348136115,348136115,8,44,0,0,23531,1483,1562,1940,1544,1544,1520,1520,1521,0,0,0,0,0,0,0,0,0,0,0,0,2
348343505,348343505,8,44,0,0,23574,1474,1563,1940,1566,1566,1520,1521,1520,0,0,0,0,0,0,0,0,0,0,0,0,2
348535405,348535405,8,44,0,0,23639,1466,1573,1940,1602,1603,1520,1520,1521,0,0,0,0,0,0,0,0,0,0,0,0,2
348750579,348750579,8,44,0,0,23648,1466,1571,1940,1604,1605,1520,1520,1521,0,0,0,0,0,0,0,0,0,0,0,0,2
348942585,348942585,8,44,0,0,23596,1464,1571,1940,1571,1570,1521,1520,1520,0,0,0,0,0,0,0,0,0,0,0,0,2
349157885,349157885,8,44,0,0,23518,1466,1569,1940,1544,1544,1520,1521,1520,0,0,0,0,0,0,0,0,0,0,0,0,2
349350138,349350138,8,44,0,0,23527,1483,1562,1940,1544,1544,1520,1520,1520,0,0,0,0,0,0,0,0,0,0,0,0,2
349565347,349565347,8,43,0,0,23571,1477,1557,1940,1572,1573,1520,1520,1520,0,0,0,0,0,0,0,0,0,0,0,0,2
349756330,349756330,8,44,0,0,23671,1469,1558,1940,1634,1635,1520,1521,1520,0,0,0,0,0,0,0,0,0,0,0,0,2
349960150,349960150,8,44,0,0,23772,1478,1551,1940,1682,1682,1520,1521,1520,0,0,0,0,0,0,0,0,0,0,0,0,2
350175569,350175569,8,44,0,0,23840,1488,1543,1940,1707,1708,1520,1520,1520,0,0,0,0,0,0,0,0,0,0,0,0,2
350365199,350365199,8,44,0,0,23849,1470,1554,1940,1715,1715,1521,1520,1520,0,0,0,0,0,0,0,0,0,0,0,0,2
350570958,350570958,8,44,0,0,23827,1467,1554,1940,1703,1702,1520,1520,1520,0,0,0,0,0,0,0,0,0,0,0,0,2
350776988,350776988,8,44,0,0,23734,1468,1554,1940,1655,1656,1520,1521,1520,0,0,0,0,0,0,0,0,0,0,0,0,2
350976591,350976591,8,44,0,0,23676,1469,1554,1940,1626,1633,1520,1520,1520,0,0,0,0,0,0,0,0,0,0,0,0,2
351181152,351181152,8,43,0,0,23570,1473,1552,1940,1565,1566,1520,1521,1520,0,0,0,0,0,0,0,0,0,0,0,0,2
351391338,351391338,8,43,0,0,23515,1470,1562,1940,1544,1543,1520,1521,1520,0,0,0,0,0,0,0,0,0,0,0,0,2
351582528,351582528,8,44,0,0,23511,1467,1562,1940,1543,1544,1520,1521,1520,0,0,0,0,0,0,0,0,0,0,0,0,2
351797754,351797754,8,44,0,0,23519,1479,1562,1940,1543,1544,1520,1520,1521,0,0,0,0,0,0,0,0,0,0,0,0,2
351989931,351989931,8,44,0,0,23528,1485,1562,1940,1544,1543,1520,1521,1520,0,0,0,0,0,0,0,0,0,0,0,0,2
352205195,352205195,8,44,0,0,23533,1489,1562,1940,1544,1543,1521,1520,1520,0,0,0,0,0,0,0,0,0,0,0,0,2
352396162,352396162,8,44,0,0,23534,1489,1562,1940,1544,1543,1521,1520,1520,0,0,0,0,0,0,0,0,0,0,0,0,2
352611365,352611365,8,44,0,0,23514,1489,1544,1940,1544,1543,1520,1521,1520,0,0,0,0,0,0,0,0,0,0,0,0,2
352796020,352796020,8,44,0,0,23520,1494,1544,1940,1543,1544,1520,1521,1520,0,0,0,0,0,0,0,0,0,0,0,0,2
353015340,353015340,8,44,0,0,23522,1496,1544,1940,1543,1544,1520,1521,1520,0,0,0,0,0,0,0,0,0,0,0,0,2
353205126,353205126,8,44,0,0,23473,1494,1544,1884,1544,1544,1520,1520,1520,0,0,0,0,0,0,0,0,0,0,0,0,2
353402771,353402771,8,44,0,0,23462,1493,1544,1883,1543,1544,1520,1521,1520,0,0,0,0,0,0,0,0,0,0,0,0,2
353609158,353609158,8,44,0,0,23472,1506,1543,1883,1544,1544,1520,1520,1520,0,0,0,0,0,0,0,0,0,0,0,0,2
353816156,353816156,8,44,0,0,23478,1508,1544,1883,1544,1544,1520,1521,1520,0,0,0,0,0,0,0,0,0,0,0,0,2
354016080,354016080,8,44,0,0,23471,1501,1544,1883,1544,1545,1520,1520,1520,0,0,0,0,0,0,0,0,0,0,0,0,2
354228320,354228320,8,44,0,0,23463,1496,1544,1878,1544,1544,1520,1521,1520,0,0,0,0,0,0,0,0,0,0,0,0,2
354414761,354414761,8,44,0,0,23456,1490,1544,1878,1544,1544,1521,1520,1520,0,0,0,0,0,0,0,0,0,0,0,0,2
354622709,354622709,8,43,0,0,23455,1489,1544,1877,1545,1544,1520,1520,1520,0,0,0,0,0,0,0,0,0,0,0,0,2
354829933,354829933,8,44,0,0,23445,1478,1544,1876,1545,1544,1520,1520,1521,0,0,0,0,0,0,0,0,0,0,0,0,2
355037125,355037125,8,44,0,0,23429,1464,1544,1876,1544,1544,1521,1520,1520,0,0,0,0,0,0,0,0,0,0,0,0,2
355244359,355244359,8,44,0,0,23442,1460,1562,1876,1544,1544,1520,1520,1521,0,0,0,0,0,0,0,0,0,0,0,0,2
355428324,355428324,8,44,0,0,23438,1457,1562,1876,1544,1544,1520,1521,1520,0,0,0,0,0,0,0,0,0,0,0,0,2
355639546,355639546,8,44,0,0,23446,1464,1562,1876,1544,1544,1520,1521,1520,0,0,0,0,0,0,0,0,0,0,0,0,2
355850784,355850784,8,44,0,0,23455,1475,1562,1876,1544,1544,1520,1521,1520,0,0,0,0,0,0,0,0,0,0,0,0,2
356041715,356041715,8,44,0,0,23465,1484,1561,1876,1545,1544,1520,1520,1520,0,0,0,0,0,0,0,0,0,0,0,0,2
356257784,356257784,8,44,0,0,23468,1485,1562,1876,1544,1544,1520,1521,1520,0,0,0,0,0,0,0,0,0,0,0,0,2
356449781,356449781,8,44,0,0,23463,1481,1562,1876,1544,1545,1520,1520,1520,0,0,0,0,0,0,0,0,0,0,0,0,2
356660172,356660172,8,43,0,0,23466,1484,1562,1876,1544,1545,1520,1520,1520,0,0,0,0,0,0,0,0,0,0,0,0,2
356868128,356868128,8,44,0,0,23469,1488,1562,1876,1544,1544,1521,1520,1520,0,0,0,0,0,0,0,0,0,0,0,0,2
357071305,357071305,8,44,0,0,23471,1491,1562,1876,1544,1544,1520,1520,1521,0,0,0,0,0,0,0,0,0,0,0,0,2
357250563,357250563,8,44,0,0,23474,1491,1562,1877,1544,1545,1520,1520,1520,0,0,0,0,0,0,0,0,0,0,0,0,2
357461716,357461716,8,44,0,0,23474,1492,1561,1878,1544,1544,1520,1521,1520,0,0,0,0,0,0,0,0,0,0,0,0,2
357665932,357665932,8,44,0,0,23474,1491,1545,1877,1544,1545,1520,1520,1520,0,0,0,0,0,0,0,0,0,0,0,0,2
357872836,357872836,8,44,0,0,23453,1489,1544,1877,1545,1544,1520,1520,1521,0,0,0,0,0,0,0,0,0,0,0,0,2
358072129,358072129,8,44,0,0,23412,1486,1552,1877,1521,1520,1520,1520,1520,0,0,0,0,0,0,0,0,0,0,0,0,2
358467536,358467536,8,44,0,0,23449,1485,1544,1877,1544,1544,1520,1520,1520,0,0,0,0,0,0,0,0,0,0,0,0,2
358678579,358678579,8,44,0,0,23449,1485,1544,1877,1544,1544,1520,1520,1520,0,0,0,0,0,0,0,0,0,0,0,0,2
358890549,358890549,8,44,0,0,23463,1481,1561,1878,1544,1543,1521,1520,1520,0,0,0,0,0,0,0,0,0,0,0,0,2
359093778,359093778,8,43,0,0,23459,1478,1561,1877,1544,1544,1520,1520,1520,0,0,0,0,0,0,0,0,0,0,0,0,2
359293107,359293107,8,44,0,0,23456,1475,1561,1878,1543,1544,1520,1520,1521,0,0,0,0,0,0,0,0,0,0,0,0,2
359484376,359484376,8,44,0,0,23454,1472,1561,1878,1543,1544,1520,1521,1520,0,0,0,0,0,0,0,0,0,0,0,0,2
359692429,359692429,8,44,0,0,23453,1472,1561,1878,1543,1544,1520,1521,1520,0,0,0,0,0,0,0,0,0,0,0,0,2
359907585,359907585,8,44,0,0,23346,1466,1549,1877,1489,1489,1520,1520,1520,0,0,0,0,0,0,0,0,0,0,0,0,2
360114726,360114726,8,44,0,0,23270,1470,1549,1879,1452,1451,1521,1520,1520,0,0,0,0,0,0,0,0,0,0,0,0,2
360305933,360305933,8,44,0,0,23222,1463,1551,1878,1438,1437,1520,1521,1520,0,0,0,0,0,0,0,0,0,0,0,0,2
360513821,360513821,8,44,0,0,23226,1463,1551,1878,1439,1439,1520,1520,1521,0,0,0,0,0,0,0,0,0,0,0,0,2
360717940,360717940,8,44,0,0,23228,1462,1552,1878,1441,1440,1521,1520,1520,0,0,0,0,0,0,0,0,0,0,0,0,2
360920561,360920561,8,44,0,0,23268,1475,1555,1877,1457,1457,1520,1520,1520,0,0,0,0,0,0,0,0,0,0,0,0,2
361120382,361120382,8,44,0,0,23298,1459,1558,1877,1473,1472,1520,1520,1521,0,0,0,0,0,0,0,0,0,0,0,0,2
361307549,361307549,8,44,0,0,23295,1461,1558,1878,1461,1461,1520,1521,1520,0,0,0,0,0,0,0,0,0,0,0,0,2
361514525,361514525,8,44,0,0,23264,1459,1557,1878,1458,1458,1521,1520,1520,0,0,0,0,0,0,0,0,0,0,0,0,2
361718775,361718775,8,44,0,0,23264,1468,1556,1877,1451,1451,1520,1520,1520,0,0,0,0,0,0,0,0,0,0,0,0,2
361929937,361929937,8,44,0,0,23195,1460,1555,1878,1421,1421,1520,1521,1520,0,0,0,0,0,0,0,0,0,0,0,0,2
362117185,362117185,8,44,0,0,23165,1459,1554,1878,1409,1409,1521,1520,1520,0,0,0,0,0,0,0,0,0,0,0,0,2
362344371,362344371,8,44,0,0,23163,1458,1554,1878,1409,1409,1520,1521,1520,0,0,0,0,0,0,0,0,0,0,0,0,2
362527309,362527309,8,44,0,0,23173,1452,1559,1877,1418,1418,1520,1520,1520,0,0,0,0,0,0,0,0,0,0,0,0,2
362735346,362735346,8,44,0,0,23186,1450,1562,1878,1422,1422,1520,1521,1520,0,0,0,0,0,0,0,0,0,0,0,0,2
362934761,362934761,8,44,0,0,23191,1453,1560,1878,1422,1422,1521,1520,1520,0,0,0,0,0,0,0,0,0,0,0,0,2
363141626,363141626,8,44,0,0,23188,1455,1561,1878,1419,1419,1520,1521,1520,0,0,0,0,0,0,0,0,0,0,0,0,2
363349746,363349746,8,44,0,0,23177,1457,1561,1878,1413,1413,1520,1521,1520,0,0,0,0,0,0,0,0,0,0,0,0,2
363557137,363557137,8,44,0,0,23178,1460,1560,1878,1413,1413,1520,1521,1520,0,0,0,0,0,0,0,0,0,0,0,0,2
363756563,363756563,8,44,0,0,23187,1461,1561,1878,1416,1416,1520,1520,1521,0,0,0,0,0,0,0,0,0,0,0,0,2
363963383,363963383,8,44,0,0,23194,1461,1561,1877,1420,1420,1520,1520,1521,0,0,0,0,0,0,0,0,0,0,0,0,2
364151375,364151375,8,44,0,0,23189,1457,1561,1877,1420,1420,1520,1520,1521,0,0,0,0,0,0,0,0,0,0,0,0,2
