timestamp,vel_pos_innov[0],vel_pos_innov[1],vel_pos_innov[2],vel_pos_innov[3],vel_pos_innov[4],vel_pos_innov[5],mag_innov[0],mag_innov[1],mag_innov[2],heading_innov,airspeed_innov,beta_innov,flow_innov[0],flow_innov[1],hagl_innov,vel_pos_innov_var[0],vel_pos_innov_var[1],vel_pos_innov_var[2],vel_pos_innov_var[3],vel_pos_innov_var[4],vel_pos_innov_var[5],mag_innov_var[0],mag_innov_var[1],mag_innov_var[2],heading_innov_var,airspeed_innov_var,beta_innov_var,flow_innov_var[0],flow_innov_var[1],hagl_innov_var,output_tracking_error[0],output_tracking_error[1],output_tracking_error[2],drag_innov[0],drag_innov[1],drag_innov_var[0],drag_innov_var[1],aux_vel_innov[0],aux_vel_innov[1]
273391065,-0.041552924,0.064190015,-0.05385743,0.032669067,0.042440414,0.07245636,-0.0124769565,0.021028526,-0.0029596984,0.003914833,0.0,0.0,0.0,0.0,0.0,0.26331088,0.26331753,0.5714395,0.561262,0.56126827,4.0544558,0.0025058931,0.0025058677,0.0025044633,0.09015285,0.0,0.0,0.0,0.0,0.0,0.000180351,0.0032470229,0.005581664,0.0,0.0,0.0,0.0,0.0,0.0
273590271,-0.08915097,0.038659416,-0.031623103,0.01940918,0.04333496,0.16544724,-0.0124769565,0.021028526,-0.0029596984,0.06945765,0.0,0.0,0.0,0.0,0.0,0.26338106,0.2633878,0.5714262,0.5631197,0.5631261,4.0545273,0.0025058931,0.0025058677,0.0025044633,0.090153106,0.0,0.0,0.0,0.0,0.0,0.00034709362,0.0055077444,0.011231979,0.0,0.0,0.0,0.0,0.0,0.0
273798319,-0.055322297,-0.008987189,-0.002261199,0.012271881,0.045604706,-0.08621597,-0.0124769565,0.021028526,-0.0029596984,0.02155459,0.0,0.0,0.0,0.0,0.0,0.26338202,0.26338875,0.57145303,0.5646002,0.5646066,4.0545273,0.0025058931,0.0025058677,0.0025044633,0.090153165,0.0,0.0,0.0,0.0,0.0,0.00037896467,0.0046826303,0.009681096,0.0,0.0,0.0,0.0,0.0,0.0
273997465,0.032731198,0.046769585,-0.012682839,0.025936127,0.04419899,-0.29018784,-0.0124769565,0.021028526,-0.0029596984,0.09213489,0.0,0.0,0.0,0.0,0.0,0.26332775,0.26333448,0.57145154,0.56577486,0.5657811,4.0543537,0.0025058931,0.0025058677,0.0025044633,0.090153076,0.0,0.0,0.0,0.0,0.0,0.00046942892,0.002618912,0.009328933,0.0,0.0,0.0,0.0,0.0,0.0
274204671,-0.04439689,-0.0319942,0.017357046,0.019397736,0.038167953,0.18264008,-0.0124769565,0.021028526,-0.0029596984,0.027845502,0.0,0.0,0.0,0.0,0.0,0.2633992,0.26340598,0.57143986,0.56764877,0.56765515,4.0544434,0.0025058931,0.0025058677,0.0025044633,0.09015297,0.0,0.0,0.0,0.0,0.0,0.00059366005,0.0034246827,0.009620887,0.0,0.0,0.0,0.0,0.0,0.0
274404665,-0.08036371,-0.010134517,0.008912606,0.009120941,0.039569855,0.099975586,-0.0124769565,0.021028526,-0.0029596984,-0.035316706,0.0,0.0,0.0,0.0,0.0,0.26346537,0.2634722,0.57143176,0.5695237,0.5695301,4.0542173,0.0025058931,0.0025058677,0.0025044633,0.090152964,0.0,0.0,0.0,0.0,0.0,0.00025338682,0.004548443,0.009265633,0.0,0.0,0.0,0.0,0.0,0.0
274607865,0.03470116,0.05317933,0.007981019,0.0035934448,0.04613304,-0.13984299,-0.0124769565,0.021028526,-0.0029596984,0.068081975,0.0,0.0,0.0,0.0,0.0,0.26339626,0.26340303,0.5714343,0.5706302,0.5706365,4.0543494,0.0025058931,0.0025058677,0.0025044633,0.090152875,0.0,0.0,0.0,0.0,0.0,0.00010675568,0.002762328,0.0103300335,0.0,0.0,0.0,0.0,0.0,0.0
274807083,-0.020296443,-0.0012924708,0.026966862,0.010894775,0.046504974,-0.14512253,-0.0124769565,0.021028526,-0.0029596984,-0.0077435374,0.0,0.0,0.0,0.0,0.0,0.26343453,0.2634413,0.5714725,0.5708797,0.5708861,4.0544996,0.0025058931,0.0025058677,0.0025044633,0.09015288,0.0,0.0,0.0,0.0,0.0,9.6835756e-05,0.0009805565,0.0027396225,0.0,0.0,0.0,0.0,0.0,0.0
275007091,-0.079278566,0.03917157,0.030407492,-0.0001296997,0.05114746,0.025863647,-0.0124769565,0.021028526,-0.0029596984,-0.065336764,0.0,0.0,0.0,0.0,0.0,0.26343828,0.26344508,0.57143027,0.57238674,0.5723931,4.054509,0.0025058931,0.0025058677,0.0025044633,0.090152875,0.0,0.0,0.0,0.0,0.0,0.00021022963,0.003627327,0.007739932,0.0,0.0,0.0,0.0,0.0,0.0
275210265,0.05527384,-0.002795796,0.004446246,0.0178833,0.051237106,0.35065842,-0.0124769565,0.021028526,-0.0029596984,-0.044790983,0.0,0.0,0.0,0.0,0.0,0.26343703,0.26344383,0.57145673,0.57386446,0.57387084,4.0546064,0.0025058931,0.0025058677,0.0025044633,0.090152964,0.0,0.0,0.0,0.0,0.0,0.00025061352,0.0047595752,0.014809191,0.0,0.0,0.0,0.0,0.0,0.0
275417478,0.00986599,0.017265735,-0.021971729,0.022090912,0.04716873,0.074035645,-0.0124769565,0.021028526,-0.0029596984,0.001940906,0.0,0.0,0.0,0.0,0.0,0.26347125,0.263478,0.571421,0.5755263,0.57553273,4.0545444,0.0025058931,0.0025058677,0.0025044633,0.09015296,0.0,0.0,0.0,0.0,0.0,0.0002417345,0.0072006825,0.02422717,0.0,0.0,0.0,0.0,0.0,0.0
275617501,-0.03857997,0.030942086,0.020076204,0.0071983337,0.048627853,-0.42286682,-0.0124769565,0.021028526,-0.0029596984,-0.05356747,0.0,0.0,0.0,0.0,0.0,0.26341346,0.2634202,0.5714203,0.5752538,0.5752601,4.0545516,0.0025058931,0.0025058677,0.0025044633,0.09015278,0.0,0.0,0.0,0.0,0.0,9.599719e-05,0.0012992745,0.0048100995,0.0,0.0,0.0,0.0,0.0,0.0
275824665,-0.027456228,-0.055240832,0.03793198,0.0093307495,0.0410347,0.3386917,-0.0124769565,0.021028526,-0.0029596984,-9.286404e-05,0.0,0.0,0.0,0.0,0.0,0.2634795,0.26348627,0.57147646,0.5771084,0.57711476,4.054648,0.0025058931,0.0025058677,0.0025044633,0.09015286,0.0,0.0,0.0,0.0,0.0,7.338066e-05,0.003773877,0.009110948,0.0,0.0,0.0,0.0,0.0,0.0
276023888,0.049640223,0.02045348,-0.014963774,0.021595001,0.041763306,0.2515068,-0.0124769565,0.021028526,-0.0029596984,0.028413057,0.0,0.0,0.0,0.0,0.0,0.26347575,0.26348254,0.57143134,0.5785769,0.57858336,4.0546474,0.0025058931,0.0025058677,0.0025044633,0.090152845,0.0,0.0,0.0,0.0,0.0,0.0002488929,0.003388401,0.00905057,0.0,0.0,0.0,0.0,0.0,0.0
276231865,0.013854068,-0.0073179957,0.023392977,0.014438629,0.042913437,-0.05659485,-0.0124769565,0.021028526,-0.0029596984,0.016454458,0.0,0.0,0.0,0.0,0.0,0.26348132,0.26348808,0.5714579,0.578655,0.5786614,4.054708,0.0025058931,0.0025058677,0.0025044633,0.090152845,0.0,0.0,0.0,0.0,0.0,0.0003956,0.0040676994,0.011618771,0.0,0.0,0.0,0.0,0.0,0.0
276431064,-0.06696191,-0.0106212115,0.057214737,0.010860443,0.038938522,-0.06049347,-0.0124769565,0.021028526,-0.0029596984,-0.004781246,0.0,0.0,0.0,0.0,0.0,0.2635391,0.26354593,0.5714407,0.5804743,0.5804808,4.0547256,0.0025058931,0.0025058677,0.0025044633,0.090153016,0.0,0.0,0.0,0.0,0.0,0.0006628186,0.0033930328,0.008842477,0.0,0.0,0.0,0.0,0.0,0.0
276638307,-0.030358944,0.000409861,0.049334988,0.0151023865,0.042840958,0.22977448,-0.0124769565,0.021028526,-0.0029596984,-0.009710133,0.0,0.0,0.0,0.0,0.0,0.2634676,0.26347438,0.5714355,0.5815626,0.58156896,4.0547805,0.0025058931,0.0025058677,0.0025044633,0.090153,0.0,0.0,0.0,0.0,0.0,0.0006282611,0.003655939,0.0102151465,0.0,0.0,0.0,0.0,0.0,0.0
276838357,0.04060749,0.014870679,0.00780523,0.027179718,0.037914276,0.06438446,-0.0124769565,0.021028526,-0.0029596984,0.013572991,0.0,0.0,0.0,0.0,0.0,0.26353234,0.26353914,0.5714889,0.58340997,0.58341646,4.054766,0.0025058931,0.0025058677,0.0025044633,0.09015299,0.0,0.0,0.0,0.0,0.0,0.00063795823,0.0016544663,0.003430313,0.0,0.0,0.0,0.0,0.0,0.0
277041465,-0.026631897,0.007915227,-0.013140215,0.031635284,0.039216995,-0.28188705,-0.0124769565,0.021028526,-0.0029596984,0.038157403,0.0,0.0,0.0,0.0,0.0,0.2634732,0.26347998,0.5714848,0.5845609,0.58456725,4.054777,0.0025058931,0.0025058677,0.0025044633,0.09015299,0.0,0.0,0.0,0.0,0.0,0.00048995495,0.0011369893,0.0034629058,0.0,0.0,0.0,0.0,0.0,0.0
277240705,-0.018185325,-0.02153528,0.021399725,0.029987335,0.040483475,-0.11822128,-0.0124769565,0.021028526,-0.0029596984,-0.059376597,0.0,0.0,0.0,0.0,0.0,0.2635152,0.26352197,0.57144696,0.5848029,0.58480936,4.0546966,0.0025058931,0.0025058677,0.0025044633,0.09015291,0.0,0.0,0.0,0.0,0.0,0.00010338059,0.0015822139,0.0034749813,0.0,0.0,0.0,0.0,0.0,0.0
277448665,-0.018697578,-0.003903549,-0.044461865,0.02785492,0.03682518,0.2381134,-0.0124769565,0.021028526,-0.0029596984,0.018940687,0.0,0.0,0.0,0.0,0.0,0.26351473,0.2635215,0.57147264,0.58628845,0.58629483,4.0547533,0.0025058931,0.0025058677,0.0025044633,0.0901529,0.0,0.0,0.0,0.0,0.0,0.00042228852,0.0028352023,0.008320718,0.0,0.0,0.0,0.0,0.0,0.0
277651865,0.004366896,0.011314644,0.06818856,0.03722,0.031780243,-0.18421936,-0.0124769565,0.021028526,-0.0029596984,0.07094574,0.0,0.0,0.0,0.0,0.0,0.26352307,0.26352984,0.5714285,0.58781755,0.5878239,4.054876,0.0025058931,0.0025058677,0.0025044633,0.090152994,0.0,0.0,0.0,0.0,0.0,0.0003210554,0.0021320388,0.006749858,0.0,0.0,0.0,0.0,0.0,0.0
277851065,-0.05657,-0.029314704,0.023355437,0.021152496,0.032909393,0.23593521,-0.0124769565,0.021028526,-0.0029596984,0.021523774,0.0,0.0,0.0,0.0,0.0,0.26355928,0.26356605,0.57146144,0.5880447,0.58805114,4.054873,0.0025058931,0.0025058677,0.0025044633,0.090152904,0.0,0.0,0.0,0.0,0.0,0.0002931596,0.0022908328,0.0045138258,0.0,0.0,0.0,0.0,0.0,0.0
278059064,0.015511258,0.004389339,-0.020508606,0.034564972,0.03723526,-0.024723053,-0.0124769565,0.021028526,-0.0029596984,-0.0003991127,0.0,0.0,0.0,0.0,0.0,0.26356217,0.2635689,0.5714853,0.5895517,0.5895581,4.054906,0.0025058931,0.0025058677,0.0025044633,0.09015289,0.0,0.0,0.0,0.0,0.0,0.00036607368,0.0017117541,0.0043878113,0.0,0.0,0.0,0.0,0.0,0.0
279271865,0.051922653,-0.021017702,0.01714255,0.036338806,0.019231796,0.026031494,-0.0124769565,0.021028526,-0.0029596984,-0.047848463,0.0,0.0,0.0,0.0,0.0,0.26352617,0.26353285,0.5714502,0.5924066,0.59241295,4.0551176,0.0025058931,0.0025058677,0.0025044633,0.09015309,0.0,0.0,0.0,0.0,0.0,0.00029196974,0.0036140017,0.009412497,0.0,0.0,0.0,0.0,0.0,0.0
279475065,0.0014011152,-0.014515558,0.037787322,0.026824951,0.02299881,-0.06298447,-0.0124769565,0.021028526,-0.0029596984,-0.009846747,0.0,0.0,0.0,0.0,0.0,0.26359406,0.2636008,0.57149994,0.5928163,0.59282273,4.0549855,0.0025058931,0.0025058677,0.0025044633,0.09015318,0.0,0.0,0.0,0.0,0.0,0.00036431337,0.0021881876,0.0055730366,0.0,0.0,0.0,0.0,0.0,0.0
279682265,-0.0660665,-0.0059603397,-0.0022215433,0.022212982,0.025592804,-0.07035828,-0.0124769565,0.021028526,-0.0029596984,0.15197837,0.0,0.0,0.0,0.0,0.0,0.26362586,0.26363254,0.57145846,0.5944546,0.5944611,4.055033,0.0025058931,0.0025058677,0.0025044633,0.090153076,0.0,0.0,0.0,0.0,0.0,8.552441e-05,0.0016286196,0.004166255,0.0,0.0,0.0,0.0,0.0,0.0
279881471,-0.004187546,-0.026499018,0.0050596287,0.024478912,0.02725792,0.019420624,-0.0124769565,0.021028526,-0.0029596984,-0.020212412,0.0,0.0,0.0,0.0,0.0,0.2636155,0.2636222,0.57148117,0.5944507,0.5944572,4.0549936,0.0025058931,0.0025058677,0.0025044633,0.09015316,0.0,0.0,0.0,0.0,0.0,0.00017494925,0.0023836913,0.006624539,0.0,0.0,0.0,0.0,0.0,0.0
280081465,0.061841253,0.0137074385,-0.07346284,0.021198273,0.030460358,-0.4024353,-0.0124769565,0.021028526,-0.0029596984,0.03207022,0.0,0.0,0.0,0.0,0.0,0.26361722,0.26362392,0.5714348,0.5944823,0.59448874,4.054757,0.0025058931,0.0025058677,0.0025044633,0.09015305,0.0,0.0,0.0,0.0,0.0,0.00020079836,0.0032399767,0.00898298,0.0,0.0,0.0,0.0,0.0,0.0
280288669,0.03540815,-0.025088673,-0.04651469,0.023071289,0.029762268,-0.057380676,-0.0124769565,0.021028526,-0.0029596984,0.024233818,0.0,0.0,0.0,0.0,0.0,0.2636114,0.2636181,0.5714609,0.59593105,0.5959375,4.054573,0.0025058931,0.0025058677,0.0025044633,0.09015287,0.0,0.0,0.0,0.0,0.0,0.00032011943,0.003176845,0.008675021,0.0,0.0,0.0,0.0,0.0,0.0
280488699,0.0042100307,-0.016659161,-0.11323515,0.026397705,0.032567978,0.116436005,-0.0124769565,0.021028526,-0.0029596984,0.0037602782,0.0,0.0,0.0,0.0,0.0,0.26361436,0.26362106,0.57142085,0.59597147,0.59597784,4.0548573,0.0025058931,0.0025058677,0.0025044633,0.09015287,0.0,0.0,0.0,0.0,0.0,0.00060051185,0.0018502849,0.0046707666,0.0,0.0,0.0,0.0,0.0,0.0
280687904,-0.008074415,0.007005522,-0.0029993951,0.020584106,0.0417099,-0.13271332,-0.0124769565,0.021028526,-0.0029596984,0.050875187,0.0,0.0,0.0,0.0,0.0,0.26361084,0.26361755,0.57145035,0.5959704,0.59597677,4.0548677,0.0025058931,0.0025058677,0.0025044633,0.09015286,0.0,0.0,0.0,0.0,0.0,0.00025445095,0.0027571074,0.008925598,0.0,0.0,0.0,0.0,0.0,0.0
280887087,-0.006510607,-0.049179293,-0.10257246,0.005214691,0.032958984,-0.0036964417,-0.0124769565,0.021028526,-0.0029596984,-0.0021147728,0.0,0.0,0.0,0.0,0.0,0.26361328,0.26362002,0.5714779,0.5974647,0.59747106,4.0548506,0.0025058931,0.0025058677,0.0025044633,0.09015294,0.0,0.0,0.0,0.0,0.0,0.0003086561,0.003027206,0.008456992,0.0,0.0,0.0,0.0,0.0,0.0
281090271,-0.0064339777,0.0074835867,-0.090697184,0.013381958,0.037654877,0.21787262,-0.0124769565,0.021028526,-0.0029596984,0.015240133,0.0,0.0,0.0,0.0,0.0,0.26359734,0.26360407,0.57142955,0.5974037,0.59741,4.0548983,0.0025058931,0.0025058677,0.0025044633,0.090152934,0.0,0.0,0.0,0.0,0.0,7.214386e-05,0.002493103,0.0073700263,0.0,0.0,0.0,0.0,0.0,0.0
281290287,-0.0285352,-0.025470596,0.0070629586,-0.0018615723,0.036895752,-0.03980255,-0.0124769565,0.021028526,-0.0029596984,0.009260416,0.0,0.0,0.0,0.0,0.0,0.26361325,0.26362,0.57145834,0.5974872,0.5974935,4.0547447,0.0025058931,0.0025058677,0.0025044633,0.09015294,0.0,0.0,0.0,0.0,0.0,0.00013283432,0.0016626636,0.0045838533,0.0,0.0,0.0,0.0,0.0,0.0
281497500,0.00758449,-0.033730853,0.005266564,0.008575439,0.038930893,0.04755783,-0.0124769565,0.021028526,-0.0029596984,0.056726575,0.0,0.0,0.0,0.0,0.0,0.26364568,0.2636524,0.57142234,0.59913045,0.5991368,4.0545635,0.0025058931,0.0025058677,0.0025044633,0.09015302,0.0,0.0,0.0,0.0,0.0,0.00073612406,0.0011911326,0.00331418,0.0,0.0,0.0,0.0,0.0,0.0
281696740,-0.0023711715,-0.022842512,-0.00072331436,0.003540039,0.04157448,0.21446991,-0.0124769565,0.021028526,-0.0029596984,0.0079190135,0.0,0.0,0.0,0.0,0.0,0.2636477,0.26365447,0.5714518,0.5991637,0.5991701,4.0546412,0.0025058931,0.0025058677,0.0025044633,0.0901531,0.0,0.0,0.0,0.0,0.0,0.0006022735,0.0016948913,0.004927765,0.0,0.0,0.0,0.0,0.0,0.0
281904664,-0.058725536,-0.020643516,-0.02547849,-3.4332275e-05,0.036029816,-0.1258316,-0.0124769565,0.021028526,-0.0029596984,-0.012857795,0.0,0.0,0.0,0.0,0.0,0.26358172,0.26358843,0.5714525,0.6002666,0.6002729,4.0546575,0.0025058931,0.0025058677,0.0025044633,0.09015309,0.0,0.0,0.0,0.0,0.0,0.0005424976,0.002594755,0.006446827,0.0,0.0,0.0,0.0,0.0,0.0
282103871,0.06198968,-0.027536247,0.027729973,0.001537323,0.03803253,0.25294495,-0.0124769565,0.021028526,-0.0029596984,-0.017782211,0.0,0.0,0.0,0.0,0.0,0.26365253,0.2636593,0.5714415,0.6006734,0.60067976,4.054761,0.0025058931,0.0025058677,0.0025044633,0.09015308,0.0,0.0,0.0,0.0,0.0,6.466523e-05,0.0014006572,0.0041026855,0.0,0.0,0.0,0.0,0.0,0.0
282311065,-0.07177407,0.0023280764,-0.0049553965,0.0031280518,0.04061508,0.033996582,-0.0124769565,0.021028526,-0.0029596984,0.013189852,0.0,0.0,0.0,0.0,0.0,0.26365393,0.2636607,0.5714715,0.60071146,0.60071784,4.0547686,0.0025058931,0.0025058677,0.0025044633,0.09015315,0.0,0.0,0.0,0.0,0.0,0.00011314263,0.0023329498,0.006416828,0.0,0.0,0.0,0.0,0.0,0.0
282511083,-0.038606774,-0.021138612,0.07932941,0.016269684,0.033052444,-0.13262558,-0.0124769565,0.021028526,-0.0029596984,0.0015604496,0.0,0.0,0.0,0.0,0.0,0.26364982,0.2636566,0.5714284,0.6021723,0.6021787,4.0548387,0.0025058931,0.0025058677,0.0025044633,0.090153046,0.0,0.0,0.0,0.0,0.0,0.00026391348,0.0018857928,0.0041273306,0.0,0.0,0.0,0.0,0.0,0.0
282710281,-0.040161937,0.007771153,0.02964085,0.014278412,0.035640717,0.02690506,-0.0124769565,0.021028526,-0.0029596984,-0.026638806,0.0,0.0,0.0,0.0,0.0,0.26364842,0.2636552,0.57145566,0.60218465,0.60219103,4.0548644,0.0025058931,0.0025058677,0.0025044633,0.09015304,0.0,0.0,0.0,0.0,0.0,7.6479584e-05,0.0027121413,0.0075721694,0.0,0.0,0.0,0.0,0.0,0.0
282917465,0.027948452,-0.021537578,-0.05974329,0.023887634,0.028064728,-0.20846558,-0.0124769565,0.021028526,-0.0029596984,-0.015901983,0.0,0.0,0.0,0.0,0.0,0.26364654,0.2636533,0.571482,0.60219675,0.6022032,4.054927,0.0025058931,0.0025058677,0.0025044633,0.090153106,0.0,0.0,0.0,0.0,0.0,7.4670264e-05,0.00364721,0.011228252,0.0,0.0,0.0,0.0,0.0,0.0
283117517,0.0034706928,0.029167239,-0.028191723,0.026298523,0.03131485,0.20605087,-0.0124769565,0.021028526,-0.0029596984,-0.03331852,0.0,0.0,0.0,0.0,0.0,0.26365098,0.26365775,0.5714384,0.6037074,0.60371375,4.054674,0.0025058931,0.0025058677,0.0025044633,0.0901531,0.0,0.0,0.0,0.0,0.0,0.000119373995,0.0010142294,0.0015824665,0.0,0.0,0.0,0.0,0.0,0.0
283320665,-0.073946655,-0.021461189,-0.02721209,0.0301857,0.029579163,0.38498306,-0.0124769565,0.021028526,-0.0029596984,0.086201906,0.0,0.0,0.0,0.0,0.0,0.26365042,0.26365718,0.5714678,0.6037213,0.6037277,4.0548935,0.0025058931,0.0025058677,0.0025044633,0.090153016,0.0,0.0,0.0,0.0,0.0,0.000112345064,0.001056189,0.0024338532,0.0,0.0,0.0,0.0,0.0,0.0
283519871,-0.04249874,-0.031631485,0.004646223,0.018383026,0.025110245,0.38212967,-0.0124769565,0.021028526,-0.0029596984,0.032439888,0.0,0.0,0.0,0.0,0.0,0.2636842,0.26369098,0.5714339,0.6039132,0.6039197,4.0549173,0.0025058931,0.0025058677,0.0025044633,0.090153016,0.0,0.0,0.0,0.0,0.0,0.00012323509,0.0018230518,0.0049999044,0.0,0.0,0.0,0.0,0.0,0.0
283727865,-0.008747228,0.013029482,-0.014786575,0.014320374,0.019893646,0.16654205,-0.0124769565,0.021028526,-0.0029596984,-0.049176455,0.0,0.0,0.0,0.0,0.0,0.26367858,0.26368532,0.57148546,0.6053946,0.60540104,4.054972,0.0025058931,0.0025058677,0.0025044633,0.090152994,0.0,0.0,0.0,0.0,0.0,0.00056225806,0.0017394304,0.0051636184,0.0,0.0,0.0,0.0,0.0,0.0
283931075,0.028013749,0.002062508,-0.076365635,0.01020813,0.014055252,0.31082535,-0.0124769565,0.021028526,-0.0029596984,-0.036014497,0.0,0.0,0.0,0.0,0.0,0.26368234,0.26368904,0.5714404,0.60396475,0.6039712,4.0549884,0.0025058931,0.0025058677,0.0025044633,0.09015308,0.0,0.0,0.0,0.0,0.0,0.00051310175,0.0058276462,0.020517088,0.0,0.0,0.0,0.0,0.0,0.0
284130271,-0.03934171,0.010786607,-0.023813935,0.002922058,0.01735878,-0.38939285,-0.0124769565,0.021028526,-0.0029596984,0.06772572,0.0,0.0,0.0,0.0,0.0,0.26371232,0.26371902,0.5714757,0.6041203,0.60412675,4.0549164,0.0025058931,0.0025058677,0.0025044633,0.090152904,0.0,0.0,0.0,0.0,0.0,4.8553975e-05,0.0031907205,0.007458577,0.0,0.0,0.0,0.0,0.0,0.0
284338296,-0.013150271,0.013454843,-0.0734625,0.0026283264,0.027046204,-0.3850174,-0.0124769565,0.021028526,-0.0029596984,0.02098453,0.0,0.0,0.0,0.0,0.0,0.26363742,0.2636441,0.5714721,0.60372186,0.6037282,4.054911,0.0025058931,0.0025058677,0.0025044633,0.09015289,0.0,0.0,0.0,0.0,0.0,0.00017860241,0.0038390607,0.009811869,0.0,0.0,0.0,0.0,0.0,0.0
284537465,-0.039327938,-0.017178236,-0.014598466,1.1444092e-05,0.020736694,0.014816284,-0.0124769565,0.021028526,-0.0029596984,-0.0363428,0.0,0.0,0.0,0.0,0.0,0.2637,0.2637067,0.5714558,0.60408443,0.60409087,4.05444,0.0025058931,0.0025058677,0.0025044633,0.090152964,0.0,0.0,0.0,0.0,0.0,9.252478e-05,0.00523181,0.015816197,0.0,0.0,0.0,0.0,0.0,0.0
284736665,-0.037441112,-0.007863961,-0.017568272,-0.010761261,0.02528572,-0.063518524,-0.0124769565,0.021028526,-0.0029596984,-0.0038701892,0.0,0.0,0.0,0.0,0.0,0.26369655,0.26370323,0.5714829,0.60408014,0.6040865,4.0549903,0.0025058931,0.0025058677,0.0025044633,0.09015288,0.0,0.0,0.0,0.0,0.0,0.00025240323,0.0047685546,0.013829962,0.0,0.0,0.0,0.0,0.0,0.0
284943115,-0.09187728,0.004533356,-0.008803355,-0.03158188,0.028814316,-0.09602356,-0.0124769565,0.021028526,-0.0029596984,-0.067742705,0.0,0.0,0.0,0.0,0.0,0.26374748,0.2637542,0.57146525,0.5927022,0.5927087,4.054537,0.0025058931,0.0025058677,0.0025044633,0.09015287,0.0,0.0,0.0,0.0,0.0,0.0001974581,0.0073251463,0.016452497,0.0,0.0,0.0,0.0,0.0,0.0
285143920,-0.03178695,-0.009951587,-0.030907074,-0.066482544,0.023677826,0.66412735,-0.0124769565,0.021028526,-0.0029596984,-0.13823462,0.0,0.0,0.0,0.0,0.0,0.2636552,0.26366183,0.5714596,0.58055425,0.58056056,4.0545225,0.0025058931,0.0025058677,0.0025044633,0.09015295,0.0,0.0,0.0,0.0,0.0,0.0004801334,0.0067796092,0.016404474,0.0,0.0,0.0,0.0,0.0,0.0
285343115,0.00065971306,-0.023542028,-0.012135224,-0.07979202,0.027450562,0.56175995,-0.0124769565,0.021028526,-0.0029596984,0.05478847,0.0,0.0,0.0,0.0,0.0,0.26362857,0.2636352,0.571485,0.57027483,0.5702811,4.0550365,0.0025058931,0.0025058677,0.0025044633,0.09015295,0.0,0.0,0.0,0.0,0.0,0.0002141992,0.0076773195,0.0239831,0.0,0.0,0.0,0.0,0.0,0.0
285550265,-0.022711609,0.025218925,-0.020447604,-0.10494995,0.025110245,0.12319946,-0.0124769565,0.021028526,-0.0029596984,0.027445734,0.0,0.0,0.0,0.0,0.0,0.26359078,0.26359737,0.5714377,0.5613773,0.5613835,4.054578,0.0025058931,0.0025058677,0.0025044633,0.09015301,0.0,0.0,0.0,0.0,0.0,0.00039607025,0.009261128,0.02961688,0.0,0.0,0.0,0.0,0.0,0.0
285750265,0.030713944,-0.005007046,-0.056359366,-0.11316681,0.026325226,0.27820587,-0.0124769565,0.021028526,-0.0029596984,0.002824545,0.0,0.0,0.0,0.0,0.0,0.26354638,0.26355296,0.5714615,0.55389684,0.553903,4.0545573,0.0025058931,0.0025058677,0.0025044633,0.090153076,0.0,0.0,0.0,0.0,0.0,0.0005087839,0.0076668332,0.027976409,0.0,0.0,0.0,0.0,0.0,0.0
285957464,0.011633135,0.0010112398,0.07874647,-0.12429047,0.022789001,-0.14318848,-0.0124769565,0.021028526,-0.0029596984,0.069832206,0.0,0.0,0.0,0.0,0.0,0.26357263,0.26357922,0.5714444,0.54542965,0.5454358,4.054624,0.0025058931,0.0025058677,0.0025044633,0.09015333,0.0,0.0,0.0,0.0,0.0,0.00031606312,0.005550253,0.01977811,0.0,0.0,0.0,0.0,0.0,0.0
286156665,0.04523277,0.0167227,0.10085135,-0.13162613,0.019481659,-0.4000244,-0.0124769565,0.021028526,-0.0029596984,0.019008398,0.0,0.0,0.0,0.0,0.0,0.26351774,0.26352432,0.57146734,0.5379383,0.5379444,4.0545983,0.0025058931,0.0025058677,0.0025044633,0.09015332,0.0,0.0,0.0,0.0,0.0,0.00011275074,0.004197836,0.016112702,0.0,0.0,0.0,0.0,0.0,0.0
286364665,0.0034200642,0.008377651,0.044669904,-0.12915802,0.022583008,0.05569458,-0.0124769565,0.021028526,-0.0029596984,-0.001835227,0.0,0.0,0.0,0.0,0.0,0.2634073,0.26341382,0.57146114,0.531516,0.5315219,4.054638,0.0025058931,0.0025058677,0.0025044633,0.0901532,0.0,0.0,0.0,0.0,0.0,0.00040105294,0.005084915,0.017295297,0.0,0.0,0.0,0.0,0.0,0.0
286567889,-0.027308743,0.009721701,0.03429637,-0.1224823,0.01889801,0.017173767,-0.0124769565,0.021028526,-0.0029596984,0.0586555,0.0,0.0,0.0,0.0,0.0,0.26338163,0.26338813,0.5714862,0.5242005,0.5242064,4.0546403,0.0025058931,0.0025058677,0.0025044633,0.09015329,0.0,0.0,0.0,0.0,0.0,0.00029349423,0.0056709354,0.01716133,0.0,0.0,0.0,0.0,0.0,0.0
286767087,-0.05058978,-0.02475394,0.032031238,-0.12377167,0.015577316,0.17456055,-0.0124769565,0.021028526,-0.0029596984,-0.0050839186,0.0,0.0,0.0,0.0,0.0,0.26338068,0.26338717,0.5714485,0.51840776,0.51841354,4.0545473,0.0025058931,0.0025058677,0.0025044633,0.09015329,0.0,0.0,0.0,0.0,0.0,0.00028895648,0.0073583643,0.020100793,0.0,0.0,0.0,0.0,0.0,0.0
286967083,0.03401329,0.0044053765,-0.045779962,-0.099681854,0.015838623,0.41511536,-0.0124769565,0.021028526,-0.0029596984,-0.009338081,0.0,0.0,0.0,0.0,0.0,0.26328057,0.263287,0.57144463,0.5134798,0.51348555,4.054796,0.0025058931,0.0025058677,0.0025044633,0.09015318,0.0,0.0,0.0,0.0,0.0,0.0004237436,0.0049631647,0.017029414,0.0,0.0,0.0,0.0,0.0,0.0
287174265,0.033609096,0.03689225,-0.0056873895,-0.09515762,0.013807297,0.25733185,-0.0124769565,0.021028526,-0.0029596984,-0.032617927,0.0,0.0,0.0,0.0,0.0,0.26332542,0.26333192,0.57149667,0.5080081,0.50801384,4.0548396,0.0025058931,0.0025058677,0.0025044633,0.09015327,0.0,0.0,0.0,0.0,0.0,0.00038682562,0.0020763152,0.0073870183,0.0,0.0,0.0,0.0,0.0,0.0
287374265,0.032823164,0.012529485,-0.05685003,-0.06849289,0.016614914,0.32348633,-0.0124769565,0.021028526,-0.0029596984,-0.08530259,0.0,0.0,0.0,0.0,0.0,0.26334915,0.26335567,0.5714779,0.5038246,0.50383043,4.054546,0.0025058931,0.0025058677,0.0025044633,0.09015324,0.0,0.0,0.0,0.0,0.0,5.5372388e-05,0.0023751433,0.007562076,0.0,0.0,0.0,0.0,0.0,0.0
287581471,0.023927638,0.004391123,0.024001278,-0.067409515,0.013858795,0.13621521,-0.0124769565,0.021028526,-0.0029596984,-0.024843872,0.0,0.0,0.0,0.0,0.0,0.26325592,0.2632624,0.5714751,0.49901128,0.49901694,4.054593,0.0025058931,0.0025058677,0.0025044633,0.090153225,0.0,0.0,0.0,0.0,0.0,5.0281426e-05,0.0036172373,0.011146228,0.0,0.0,0.0,0.0,0.0,0.0
287780691,0.020869935,0.015723625,-0.022456639,-0.06474686,0.0050525665,0.20745468,-0.0124769565,0.021028526,-0.0029596984,-0.04806763,0.0,0.0,0.0,0.0,0.0,0.26328686,0.26329336,0.5714586,0.49491394,0.49491972,4.0546007,0.0025058931,0.0025058677,0.0025044633,0.0901533,0.0,0.0,0.0,0.0,0.0,0.00027577498,0.0033543357,0.010961977,0.0,0.0,0.0,0.0,0.0,0.0
287983865,-0.0129769,-0.012664246,0.075424954,-0.0730629,0.0039157867,-0.121269226,-0.0124769565,0.021028526,-0.0029596984,-0.0089559555,0.0,0.0,0.0,0.0,0.0,0.2632466,0.26325306,0.57148325,0.49048322,0.49048895,4.054645,0.0025058931,0.0025058677,0.0025044633,0.090153284,0.0,0.0,0.0,0.0,0.0,0.00051245483,0.0029786036,0.010372591,0.0,0.0,0.0,0.0,0.0,0.0
288191865,0.03664352,-0.0009132065,0.06673996,-0.07696915,0.013036728,-0.41622162,-0.0124769565,0.021028526,-0.0029596984,-0.030940652,0.0,0.0,0.0,0.0,0.0,0.26318967,0.2631961,0.571488,0.48593128,0.48593694,4.054754,0.0025058931,0.0025058677,0.0025044633,0.09015337,0.0,0.0,0.0,0.0,0.0,8.591299e-05,0.00332361,0.012082885,0.0,0.0,0.0,0.0,0.0,0.0
288395065,0.03268806,-0.014329321,0.051477697,-0.07260895,0.006095886,0.14222717,-0.0124769565,0.021028526,-0.0029596984,0.0012637973,0.0,0.0,0.0,0.0,0.0,0.26316497,0.26317137,0.5714405,0.4829403,0.48294592,4.054912,0.0025058931,0.0025058677,0.0025044633,0.09015337,0.0,0.0,0.0,0.0,0.0,0.00022142816,0.0038604483,0.01338994,0.0,0.0,0.0,0.0,0.0,0.0
288594308,0.0064846314,0.014973104,0.056904666,-0.07916641,0.008556366,-0.10767746,-0.0124769565,0.021028526,-0.0029596984,0.00041478872,0.0,0.0,0.0,0.0,0.0,0.26311418,0.26312056,0.5714443,0.47849274,0.47849834,4.0546436,0.0025058931,0.0025058677,0.0025044633,0.09015336,0.0,0.0,0.0,0.0,0.0,6.907633e-05,0.0034448872,0.013809652,0.0,0.0,0.0,0.0,0.0,0.0
288793465,0.0518912,0.028060105,0.02471813,-0.08129883,0.008708954,0.25643158,-0.0124769565,0.021028526,-0.0029596984,-0.047621906,0.0,0.0,0.0,0.0,0.0,0.2631498,0.26315624,0.5714985,0.47587773,0.4758834,4.0546794,0.0025058931,0.0025058677,0.0025044633,0.09015326,0.0,0.0,0.0,0.0,0.0,0.00010775425,0.0020055263,0.002846349,0.0,0.0,0.0,0.0,0.0,0.0
289001513,0.082220435,0.021210399,0.014923051,-0.07614136,0.01525116,-0.19945526,-0.0124769565,0.021028526,-0.0029596984,0.036043584,0.0,0.0,0.0,0.0,0.0,0.26306507,0.26307145,0.57142365,0.47263768,0.47264323,4.0546846,0.0025058931,0.0025058677,0.0025044633,0.09015325,0.0,0.0,0.0,0.0,0.0,0.00010471483,0.0036932265,0.0089333905,0.0,0.0,0.0,0.0,0.0,0.0
289200677,0.0006230101,0.026867826,0.02421239,-0.07331467,0.014638901,0.044181824,-0.0124769565,0.021028526,-0.0029596984,0.02389437,0.0,0.0,0.0,0.0,0.0,0.2630451,0.26305148,0.5714487,0.46976188,0.46976745,4.0547223,0.0025058931,0.0025058677,0.0025044633,0.09015315,0.0,0.0,0.0,0.0,0.0,0.0003478545,0.0015133967,0.002859987,0.0,0.0,0.0,0.0,0.0,0.0
289408673,0.05023597,0.010643584,-0.016194027,-0.063575745,0.021175385,-0.29860306,-0.0124769565,0.021028526,-0.0029596984,0.009750247,0.0,0.0,0.0,0.0,0.0,0.26302537,0.26303175,0.5714736,0.4669128,0.4669184,4.0547,0.0025058931,0.0025058677,0.0025044633,0.09015313,0.0,0.0,0.0,0.0,0.0,0.00021649446,0.0020147765,0.0041039656,0.0,0.0,0.0,0.0,0.0,0.0
289607864,0.028212082,0.021915605,-0.02516872,-0.047851562,0.02132225,-0.16576767,-0.0124769565,0.021028526,-0.0029596984,-0.03607315,0.0,0.0,0.0,0.0,0.0,0.26295277,0.26295912,0.57147056,0.46379742,0.46380296,4.054739,0.0025058931,0.0025058677,0.0025044633,0.0901532,0.0,0.0,0.0,0.0,0.0,6.661281e-05,0.003539523,0.010259359,0.0,0.0,0.0,0.0,0.0,0.0
289807064,0.099217385,0.010745066,0.00785218,-0.030826569,0.028442383,-0.0066986084,-0.0124769565,0.021028526,-0.0029596984,-0.009910703,0.0,0.0,0.0,0.0,0.0,0.26299798,0.26300436,0.5714539,0.46134603,0.4613517,4.054742,0.0025058931,0.0025058677,0.0025044633,0.09015319,0.0,0.0,0.0,0.0,0.0,0.000115254035,0.0049295533,0.010425145,0.0,0.0,0.0,0.0,0.0,0.0
290014289,0.08946459,-0.01359378,-0.008878046,-0.021522522,0.02854538,-0.049556732,-0.0124769565,0.021028526,-0.0029596984,0.018559515,0.0,0.0,0.0,0.0,0.0,0.26303196,0.26303837,0.5714365,0.4588691,0.45887482,4.05478,0.0025058931,0.0025058677,0.0025044633,0.090153255,0.0,0.0,0.0,0.0,0.0,0.00028612278,0.00600824,0.01338016,0.0,0.0,0.0,0.0,0.0,0.0
290214278,0.1090904,0.02857991,-0.0641797,-0.0030822754,0.031049728,0.1347084,-0.0124769565,0.021028526,-0.0029596984,-0.008925557,0.0,0.0,0.0,0.0,0.0,0.2629417,0.26294804,0.5714326,0.45702285,0.4570285,4.054755,0.0025058931,0.0025058677,0.0025044633,0.09015334,0.0,0.0,0.0,0.0,0.0,0.0005499899,0.008106813,0.019631768,0.0,0.0,0.0,0.0,0.0,0.0
290421464,0.035666272,0.030735277,-0.032414466,0.0008277893,0.030538559,0.10889435,-0.0124769565,0.021028526,-0.0029596984,-0.06102711,0.0,0.0,0.0,0.0,0.0,0.2629767,0.26298305,0.57148653,0.45458937,0.45459512,4.054818,0.0025058931,0.0025058677,0.0025044633,0.090153314,0.0,0.0,0.0,0.0,0.0,0.00035228388,0.007793381,0.022857036,0.0,0.0,0.0,0.0,0.0,0.0
290620708,0.030397844,-0.017172232,-0.13145983,-0.0019683838,0.029647827,-0.15489197,-0.0124769565,0.021028526,-0.0029596984,-0.0003361702,0.0,0.0,0.0,0.0,0.0,0.26294163,0.26294795,0.5714389,0.45180312,0.45180884,4.054533,0.0025058931,0.0025058677,0.0025044633,0.090153396,0.0,0.0,0.0,0.0,0.0,8.6255364e-05,0.003892156,0.010975965,0.0,0.0,0.0,0.0,0.0,0.0
291231064,0.027936822,0.04664442,-0.007887254,0.013256073,0.03741455,0.019577026,-0.0124769565,0.021028526,-0.0029596984,0.04140526,0.0,0.0,0.0,0.0,0.0,0.262836,0.26284224,0.571452,0.44604474,0.4460504,4.0546827,0.0025058931,0.0025058677,0.0025044633,0.090153426,0.0,0.0,0.0,0.0,0.0,0.00022343193,0.0037165948,0.010233072,0.0,0.0,0.0,0.0,0.0,0.0
291431065,0.0062480867,0.022413969,0.027267441,0.007411957,0.035835266,0.11146927,-0.0124769565,0.021028526,-0.0029596984,-0.02450627,0.0,0.0,0.0,0.0,0.0,0.262818,0.26282424,0.57148,0.44461834,0.44462398,4.0545444,0.0025058931,0.0025058677,0.0025044633,0.09015342,0.0,0.0,0.0,0.0,0.0,0.00037864427,0.0026101503,0.008022828,0.0,0.0,0.0,0.0,0.0,0.0
291638303,0.006001096,0.05565772,0.011002616,0.0151023865,0.043668747,-0.26581573,-0.0124769565,0.021028526,-0.0029596984,0.03517455,0.0,0.0,0.0,0.0,0.0,0.26282564,0.26283184,0.57144624,0.44208348,0.4420891,4.054639,0.0025058931,0.0025058677,0.0025044633,0.090153486,0.0,0.0,0.0,0.0,0.0,0.00020418054,0.0026945483,0.007021764,0.0,0.0,0.0,0.0,0.0,0.0
291838320,0.06397141,0.060043953,-0.007962144,0.010971069,0.047477722,0.47496414,-0.0124769565,0.021028526,-0.0029596984,-0.06487036,0.0,0.0,0.0,0.0,0.0,0.2627895,0.2627957,0.5714735,0.44062078,0.4406264,4.0546374,0.0025058931,0.0025058677,0.0025044633,0.09015347,0.0,0.0,0.0,0.0,0.0,0.0002867089,0.006225921,0.018150143,0.0,0.0,0.0,0.0,0.0,0.0
292037472,0.04062425,0.035541516,-0.005720436,0.024604797,0.057224274,-0.28733444,-0.0124769565,0.021028526,-0.0029596984,-0.023027897,0.0,0.0,0.0,0.0,0.0,0.26276666,0.2627728,0.57143056,0.43796283,0.43796843,4.054697,0.0025058931,0.0025058677,0.0025044633,0.09015345,0.0,0.0,0.0,0.0,0.0,0.00021305693,0.003898189,0.010681544,0.0,0.0,0.0,0.0,0.0,0.0
292240665,0.014989894,-0.0019575078,0.020461982,0.015220642,0.052209854,0.0066337585,-0.0124769565,0.021028526,-0.0029596984,0.013838112,0.0,0.0,0.0,0.0,0.0,0.26267907,0.26268515,0.5714272,0.43495923,0.43496478,4.0548253,0.0025058931,0.0025058677,0.0025044633,0.09015335,0.0,0.0,0.0,0.0,0.0,0.00022666818,0.0024514722,0.008431019,0.0,0.0,0.0,0.0,0.0,0.0
292441471,0.03353575,0.012880188,-0.0014925869,0.020637512,0.05070114,-0.2962036,-0.0124769565,0.021028526,-0.0029596984,-0.01426208,0.0,0.0,0.0,0.0,0.0,0.26275352,0.26275963,0.5714904,0.43401998,0.43402562,4.054828,0.0025058931,0.0025058677,0.0025044633,0.090153515,0.0,0.0,0.0,0.0,0.0,0.00017828438,0.0017442387,0.005878093,0.0,0.0,0.0,0.0,0.0,0.0
292643864,0.019234957,0.017977227,0.029196618,0.02332306,0.048139572,0.12115097,-0.0124769565,0.021028526,-0.0029596984,-0.022952378,0.0,0.0,0.0,0.0,0.0,0.26272482,0.26273096,0.57144326,0.43383157,0.43383715,4.0549965,0.0025058931,0.0025058677,0.0025044633,0.090153426,0.0,0.0,0.0,0.0,0.0,0.0002263374,0.0017787606,0.0061360346,0.0,0.0,0.0,0.0,0.0,0.0
292843115,0.055323884,0.03701193,0.057083614,0.026958466,0.045455933,0.44735336,-0.0124769565,0.021028526,-0.0029596984,-0.0042412877,0.0,0.0,0.0,0.0,0.0,0.2627288,0.26273492,0.5714746,0.43256205,0.4325677,4.054979,0.0025058931,0.0025058677,0.0025044633,0.0901535,0.0,0.0,0.0,0.0,0.0,0.00027965562,0.003371204,0.009674261,0.0,0.0,0.0,0.0,0.0,0.0
293050330,0.028167037,0.01644319,-0.050361,0.026573181,0.04862404,0.19286728,-0.0124769565,0.021028526,-0.0029596984,0.08265245,0.0,0.0,0.0,0.0,0.0,0.2626945,0.2627006,0.57149506,0.42867258,0.42867818,4.054998,0.0025058931,0.0025058677,0.0025044633,0.09015348,0.0,0.0,0.0,0.0,0.0,0.00013999129,0.0015773869,0.005143,0.0,0.0,0.0,0.0,0.0,0.0
293250265,0.03282086,0.03869749,-0.0077197296,0.027435303,0.05308914,0.021312714,-0.0124769565,0.021028526,-0.0029596984,0.018472612,0.0,0.0,0.0,0.0,0.0,0.2626585,0.26266456,0.5714443,0.42477328,0.42477885,4.054956,0.0025058931,0.0025058677,0.0025044633,0.090153545,0.0,0.0,0.0,0.0,0.0,0.0004916138,0.0016384893,0.0048039285,0.0,0.0,0.0,0.0,0.0,0.0
293457465,-0.013327967,0.028493071,-0.03791277,0.028079987,0.0634861,-0.24407196,-0.0124769565,0.021028526,-0.0029596984,0.042426884,0.0,0.0,0.0,0.0,0.0,0.26262638,0.2626325,0.57146704,0.42211768,0.42212322,4.054751,0.0025058931,0.0025058677,0.0025044633,0.09015353,0.0,0.0,0.0,0.0,0.0,0.00041838948,0.0012508017,0.0037785713,0.0,0.0,0.0,0.0,0.0,0.0
293656671,0.022039866,0.065157786,0.009288364,0.03119278,0.07266617,0.17630386,-0.0124769565,0.021028526,-0.0029596984,-0.015473604,0.0,0.0,0.0,0.0,0.0,0.26258975,0.2625958,0.57142216,0.41701305,0.41701856,4.054739,0.0025058931,0.0025058677,0.0025044633,0.090153515,0.0,0.0,0.0,0.0,0.0,0.00047646952,0.0024143828,0.005630524,0.0,0.0,0.0,0.0,0.0,0.0
293863912,0.021096768,-0.016840272,0.07141658,0.030158997,0.091524124,0.3290367,-0.0124769565,0.021028526,-0.0029596984,0.02993977,0.0,0.0,0.0,0.0,0.0,0.2625009,0.2625069,0.57142013,0.40683606,0.40684146,4.05479,0.0025058931,0.0025058677,0.0025044633,0.090153396,0.0,0.0,0.0,0.0,0.0,0.0007367879,0.0028118077,0.008763102,0.0,0.0,0.0,0.0,0.0,0.0
294063864,-0.02973425,0.00054312125,0.032511607,0.039585114,0.09974861,-0.50715256,-0.0124769565,0.021028526,-0.0029596984,-0.029238999,0.0,0.0,0.0,0.0,0.0,0.26251888,0.26252496,0.57147545,0.39729548,0.39730087,4.0547733,0.0025058931,0.0025058677,0.0025044633,0.09015355,0.0,0.0,0.0,0.0,0.0,0.00040894907,0.0028758855,0.00980189,0.0,0.0,0.0,0.0,0.0,0.0
294263109,-0.060067236,0.084903926,0.01658529,0.03145981,0.11492729,-0.1894455,-0.0124769565,0.021028526,-0.0029596984,-0.0207147,0.0,0.0,0.0,0.0,0.0,0.262453,0.26245925,0.5714286,0.3885946,0.38859993,4.0548472,0.0025058931,0.0025058677,0.0025044633,0.09015354,0.0,0.0,0.0,0.0,0.0,0.0008049956,0.004597991,0.010000984,0.0,0.0,0.0,0.0,0.0,0.0
294469512,0.02666445,-0.016597725,0.065821,0.047050476,0.10671997,0.13217545,-0.0124769565,0.021028526,-0.0029596984,-0.108044624,0.0,0.0,0.0,0.0,0.0,0.2623451,0.26235178,0.5714241,0.38081777,0.38082308,4.055084,0.0025058931,0.0025058677,0.0025044633,0.090153515,0.0,0.0,0.0,0.0,0.0,0.0001867127,0.003328508,0.01071243,0.0,0.0,0.0,0.0,0.0,0.0
294670271,-0.11980048,0.13502848,-0.031945534,0.021915436,0.11976814,0.21403885,-0.0124769565,0.021028526,-0.0029596984,0.024894834,0.0,0.0,0.0,0.0,0.0,0.26235014,0.26235756,0.571471,0.3736912,0.37369686,4.055035,0.0025058931,0.0025058677,0.0025044633,0.09015358,0.0,0.0,0.0,0.0,0.0,0.00038135954,0.006180307,0.012467102,0.0,0.0,0.0,0.0,0.0,0.0
294869465,-0.28619182,0.10192296,-0.076051526,-0.027133942,0.098501205,0.098278046,-0.0124769565,0.021028526,-0.0029596984,0.019388676,0.0,0.0,0.0,0.0,0.0,0.26226017,0.26227283,0.5714624,0.36597618,0.36598215,4.054825,0.0025058931,0.0025058677,0.0025044633,0.09015359,0.0,0.0,0.0,0.0,0.0,0.0006409909,0.012544881,0.02369047,0.0,0.0,0.0,0.0,0.0,0.0
295068681,-0.39668858,0.20064181,-0.09148151,-0.05844879,0.1442051,-0.3583336,-0.0124769565,0.021028526,-0.0029596984,0.034353554,0.0,0.0,0.0,0.0,0.0,0.26231506,0.26231954,0.5714533,0.36117905,0.36118588,4.054803,0.0025058931,0.0025058677,0.0025044633,0.090153635,0.0,0.0,0.0,0.0,0.0,0.001395372,0.021928564,0.04467777,0.0,0.0,0.0,0.0,0.0,0.0
295276689,-0.4133612,0.45489436,-0.16736373,-0.12761307,0.18419075,0.24127197,0.0039916933,-0.019460969,0.12682095,0.034353554,0.0,0.0,0.0,0.0,0.0,0.26222277,0.2622401,0.57146245,0.35697687,0.35698596,4.0551157,0.002506405,0.002506695,0.002520776,0.090153635,0.0,0.0,0.0,0.0,0.0,0.002066693,0.033113293,0.060689718,0.0,0.0,0.0,0.0,0.0,0.0
295479882,-0.27979016,0.4808573,0.13688022,-0.12318802,0.24876595,0.31655884,0.00726955,0.0025794357,0.14203055,0.034353554,0.0,0.0,0.0,0.0,0.0,0.2624364,0.26247275,0.5715335,0.35453838,0.35455635,4.0550904,0.0025062696,0.002506569,0.0025194604,0.090153635,0.0,0.0,0.0,0.0,0.0,0.0022609679,0.035792876,0.06803426,0.0,0.0,0.0,0.0,0.0,0.0
295679065,-0.41608012,0.696334,0.06018293,-0.13235092,0.33245468,-0.2620697,0.0075026266,-0.019872889,0.16305041,0.034353554,0.0,0.0,0.0,0.0,0.0,0.26250988,0.26258922,0.57151586,0.35307378,0.35310152,4.05543,0.0025062172,0.0025065015,0.002518874,0.090153635,0.0,0.0,0.0,0.0,0.0,0.0023077058,0.041614708,0.08305962,0.0,0.0,0.0,0.0,0.0,0.0
295887071,-0.65036845,0.8068125,-0.06770985,-0.20050812,0.38366127,0.72914124,0.002522206,-0.025611058,0.19113338,0.034353554,0.0,0.0,0.0,0.0,0.0,0.2624885,0.2624873,0.57161385,0.35018408,0.3502141,4.055132,0.002506201,0.002506526,0.0025189198,0.090153635,0.0,0.0,0.0,0.0,0.0,0.00296766,0.047631558,0.09383818,0.0,0.0,0.0,0.0,0.0,0.0
296086265,-0.5299597,0.6947441,-0.2615836,-0.22106552,0.45593262,0.73882675,0.0043725483,-0.020500153,0.2282549,0.034353554,0.0,0.0,0.0,0.0,0.0,0.26285702,0.26280457,0.5716338,0.34906024,0.34908733,4.0551124,0.0025062463,0.0025065425,0.0025189063,0.090153635,0.0,0.0,0.0,0.0,0.0,0.0032757765,0.04763663,0.09605491,0.0,0.0,0.0,0.0,0.0,0.0
296289471,-0.6974325,0.9056039,-0.047250077,-0.27052307,0.5041466,0.5675583,0.016737562,-0.015412129,0.23132165,0.034353554,0.0,0.0,0.0,0.0,0.0,0.2631295,0.26296985,0.5716486,0.3487829,0.3488012,4.055137,0.0025062927,0.0025065565,0.0025188946,0.090153635,0.0,0.0,0.0,0.0,0.0,0.0042635347,0.05623715,0.109554954,0.0,0.0,0.0,0.0,0.0,0.0
296489479,-0.8618078,1.0812397,-0.13446319,-0.29692078,0.5964737,-0.68582535,0.010158263,-0.018543534,0.25581273,0.034353554,0.0,0.0,0.0,0.0,0.0,0.26364908,0.26322684,0.571787,0.35223287,0.3522269,4.055241,0.0025063357,0.0025065553,0.0025188997,0.090153635,0.0,0.0,0.0,0.0,0.0,0.0056581595,0.070056185,0.13303186,0.0,0.0,0.0,0.0,0.0,0.0
296696668,-1.4400687,0.9430244,-0.14338966,-0.42346954,0.61146355,0.33161163,0.009891849,-0.025773093,0.26287478,0.034353554,0.0,0.0,0.0,0.0,0.0,0.26404718,0.26332882,0.5718889,0.3586983,0.3586503,4.055015,0.0025063525,0.0025065586,0.0025189219,0.090153635,0.0,0.0,0.0,0.0,0.0,0.007658725,0.08031812,0.14161965,0.0,0.0,0.0,0.0,0.0,0.0
296895868,-1.216578,1.225085,-0.16420263,-0.5426407,0.6662216,-0.95783615,0.02733142,-0.01397986,0.26140147,0.034353554,0.0,0.0,0.0,0.0,0.0,0.26461795,0.26350492,0.57195127,0.36787724,0.3677496,4.0550566,0.0025063665,0.0025065625,0.0025189435,0.090153635,0.0,0.0,0.0,0.0,0.0,0.0088027585,0.08862715,0.15745464,0.0,0.0,0.0,0.0,0.0,0.0
297095865,-1.1959395,1.3044691,-0.24736683,-0.6536751,0.7357712,0.24114609,-0.0039450563,-0.032377265,0.2848577,0.034353554,0.0,0.0,0.0,0.0,0.0,0.26507214,0.26355815,0.57209903,0.3797261,0.3794849,4.0551558,0.0025063786,0.0025065714,0.0025189489,0.090153635,0.0,0.0,0.0,0.0,0.0,0.0096765775,0.09320489,0.16582756,0.0,0.0,0.0,0.0,0.0,0.0
297303113,-1.5196576,1.3583794,-0.07728082,-0.7991142,0.7632904,-0.0010757446,0.0453133,-0.042557575,0.40035748,0.034353554,0.0,0.0,0.0,0.0,0.0,0.2656217,0.2637242,0.5721688,0.39517513,0.39479586,4.0551715,0.0025064137,0.002506587,0.002518938,0.090153635,0.0,0.0,0.0,0.0,0.0,0.010570415,0.09639037,0.1658512,0.0,0.0,0.0,0.0,0.0,0.0
297506265,-1.8274388,1.2268977,-0.27284187,-0.96149445,0.80560875,-0.8409996,0.04006324,-0.033144727,0.39041406,0.034353554,0.0,0.0,0.0,0.0,0.0,0.26641724,0.26387146,0.57232606,0.4091369,0.40856272,4.055373,0.0025063646,0.0025065884,0.0025190015,0.090153635,0.0,0.0,0.0,0.0,0.0,0.012331196,0.10862603,0.18281533,0.0,0.0,0.0,0.0,0.0,0.0
297706314,-1.608068,1.5199776,0.148773,-0.99095917,0.9237633,0.020336151,0.0427887,-0.026264198,0.38002154,0.034353554,0.0,0.0,0.0,0.0,0.0,0.2674994,0.26425996,0.5726098,0.42266497,0.4218209,4.0553217,0.0025064168,0.002506593,0.002518959,0.090153635,0.0,0.0,0.0,0.0,0.0,0.01371633,0.11556457,0.19449793,0.0,0.0,0.0,0.0,0.0,0.0
297913465,-1.5103664,1.5362248,0.15351388,-1.017437,0.9856291,0.45765686,0.03167466,-0.006237395,0.37974486,0.034353554,0.0,0.0,0.0,0.0,0.0,0.26826596,0.26471075,0.5727331,0.43257827,0.43145105,4.055273,0.0025063737,0.0025066305,0.0025189773,0.090153635,0.0,0.0,0.0,0.0,0.0,0.013841615,0.10612892,0.17622341,0.0,0.0,0.0,0.0,0.0,0.0
298112671,-1.8329544,1.6747031,-0.010918438,-1.1052971,1.0523252,-0.2556038,0.02271609,-0.031631522,0.36927536,0.034353554,0.0,0.0,0.0,0.0,0.0,0.2689773,0.26504856,0.5729198,0.44369033,0.44227153,4.055538,0.0025062403,0.0025066843,0.0025190476,0.090153635,0.0,0.0,0.0,0.0,0.0,0.015743483,0.11610317,0.1899918,0.0,0.0,0.0,0.0,0.0,0.0
298319864,-1.6900148,1.769207,0.06999254,-1.1449509,1.118598,-0.26163864,0.027158301,-0.034502238,0.35183275,0.034353554,0.0,0.0,0.0,0.0,0.0,0.2693138,0.26527765,0.5731627,0.45626235,0.4545507,4.0557218,0.0025061576,0.002506762,0.0025190467,0.090153635,0.0,0.0,0.0,0.0,0.0,0.015886677,0.1052122,0.17768471,0.0,0.0,0.0,0.0,0.0,0.0
298519864,-1.7630177,1.7148895,0.16533586,-1.1809311,1.1604671,0.47129822,0.041177608,-0.013886735,0.3556124,0.034353554,0.0,0.0,0.0,0.0,0.0,0.26922393,0.2657067,0.5733582,0.46766168,0.4657095,4.056013,0.0025062284,0.002506919,0.00251884,0.090153635,0.0,0.0,0.0,0.0,0.0,0.016263956,0.09660573,0.17412631,0.0,0.0,0.0,0.0,0.0,0.0
298727082,-1.1841316,1.8881178,0.2369647,-1.1902008,1.2647858,0.8951187,0.04638146,0.013069034,0.3643249,0.034353554,0.0,0.0,0.0,0.0,0.0,0.26729465,0.2686672,0.57345325,0.48798695,0.48618126,4.0562143,0.0025065173,0.0025073623,0.0025182066,0.090153635,0.0,0.0,0.0,0.0,0.0,0.025156192,0.3251669,0.54489416,0.0,0.0,0.0,0.0,0.0,0.0
298926265,-0.5050907,1.6938667,0.5844736,-1.1425323,1.2877569,0.43528366,0.07420829,0.038901404,0.37237868,0.034353554,0.0,0.0,0.0,0.0,0.0,0.26634252,0.27054036,0.5734636,0.49659628,0.49548194,4.0564313,0.00250682,0.0025080317,0.0025173745,0.090153635,0.0,0.0,0.0,0.0,0.0,0.022031557,0.27795866,0.48766306,0.0,0.0,0.0,0.0,0.0,0.0
299134265,0.31377602,1.5106392,0.4572611,-0.96784973,1.244309,1.4105301,0.073284216,0.060638502,0.38526583,0.034353554,0.0,0.0,0.0,0.0,0.0,0.26686317,0.2715209,0.5735104,0.5076669,0.507601,4.055594,0.0025067767,0.0025086666,0.0025168415,0.090153635,0.0,0.0,0.0,0.0,0.0,0.018366275,0.25573376,0.40325937,0.0,0.0,0.0,0.0,0.0,0.0
299943864,1.095089,1.4285123,0.2616027,-0.56253815,1.1337652,0.60591507,-0.025187753,-0.0034997538,0.34149477,0.034353554,0.0,0.0,0.0,0.0,0.0,0.5300305,0.53566337,1.1740034,0.6034728,0.6068555,4.0559072,0.002506164,0.0025070237,0.0025188443,0.090153635,0.0,0.0,0.0,0.0,0.0,0.011638002,0.16787477,0.26979595,0.0,0.0,0.0,0.0,0.0,0.0
300147084,1.0093098,1.665717,0.45825207,-0.1804657,1.2885237,0.86750793,-0.03620134,-0.03526333,0.338041,0.034353554,0.0,0.0,0.0,0.0,0.0,0.32290226,0.32922965,0.7089504,0.6460386,0.65069294,4.056084,0.0025062212,0.0025067679,0.00251902,0.090153635,0.0,0.0,0.0,0.0,0.0,0.013283572,0.19556488,0.32408777,0.0,0.0,0.0,0.0,0.0,0.0
300347083,1.3260403,1.282652,0.41739333,0.08299255,1.3143725,0.91350555,-0.034205366,-0.046310585,0.32529715,0.034353554,0.0,0.0,0.0,0.0,0.0,0.2631004,0.26923043,0.5735134,0.6627307,0.6681853,4.056254,0.0025061786,0.002506663,0.0025191274,0.090153635,0.0,0.0,0.0,0.0,0.0,0.01645092,0.2401264,0.40430883,0.0,0.0,0.0,0.0,0.0,0.0
300546288,1.1031151,1.3922228,0.80958605,0.06577301,1.3081255,1.6904259,-0.006175114,-0.042815693,0.3158307,0.034353554,0.0,0.0,0.0,0.0,0.0,0.26468816,0.269298,0.57381046,0.6758726,0.6815915,4.0560956,0.0025062722,0.0025066722,0.002518996,0.090153635,0.0,0.0,0.0,0.0,0.0,0.01879748,0.26769075,0.44574627,0.0,0.0,0.0,0.0,0.0,0.0
300753464,1.322628,1.521616,-0.04676771,0.40344238,1.3061581,0.62241745,0.016745523,-0.026702598,0.310717,0.034353554,0.0,0.0,0.0,0.0,0.0,0.3196568,0.32078636,0.68997693,0.70770144,0.7135479,4.056326,0.0025063844,0.0025070393,0.0025185295,0.090153635,0.0,0.0,0.0,0.0,0.0,0.0181447,0.28793973,0.45580715,0.0,0.0,0.0,0.0,0.0,0.0
300952664,1.3419304,0.8922641,0.2589655,0.46881104,1.2100477,0.750206,0.03483122,0.0064520948,0.31841272,0.034353554,0.0,0.0,0.0,0.0,0.0,0.3990045,0.39622122,0.86067593,0.76051086,0.76612496,4.056503,0.0025064098,0.0025076603,0.0025179228,0.090153635,0.0,0.0,0.0,0.0,0.0,0.0151841985,0.27549297,0.4207405,0.0,0.0,0.0,0.0,0.0,0.0
301152681,1.6684818,0.13798857,0.46724176,0.62833405,1.0977936,0.02956009,0.030011669,0.024615284,0.3229628,0.034353554,0.0,0.0,0.0,0.0,0.0,0.36966714,0.36359,0.7881574,0.8300864,0.83517593,4.0568247,0.0025063902,0.0025078675,0.0025176932,0.090153635,0.0,0.0,0.0,0.0,0.0,0.013328221,0.29024416,0.4343597,0.0,0.0,0.0,0.0,0.0,0.0
301359871,1.3661537,-0.48838186,0.3169937,0.7637787,0.9198456,0.5558243,0.02822657,0.015902802,0.32060713,0.034353554,0.0,0.0,0.0,0.0,0.0,0.38713533,0.3786905,0.82325184,0.904925,0.90909916,4.05704,0.0025063744,0.002507735,0.0025177614,0.090153635,0.0,0.0,0.0,0.0,0.0,0.010955114,0.27081084,0.4285789,0.0,0.0,0.0,0.0,0.0,0.0
301559065,1.3646183,-0.5002861,0.28376055,0.8864136,0.7682142,0.69924927,0.024997309,-0.00031265616,0.302857,0.034353554,0.0,0.0,0.0,0.0,0.0,0.41157693,0.4016294,0.8755263,0.9872428,0.99026275,4.0575805,0.0025063525,0.0025073444,0.0025180704,0.090153635,0.0,0.0,0.0,0.0,0.0,0.009777283,0.2616987,0.435857,0.0,0.0,0.0,0.0,0.0,0.0
301767065,1.8859177,-0.44953156,0.18325138,1.1143875,0.6734657,0.79551697,0.02785296,-0.03098417,0.3076296,0.034353554,0.0,0.0,0.0,0.0,0.0,0.27925587,0.26844686,0.5761056,1.06368,1.0653522,4.0576615,0.0025063076,0.0025068866,0.0025184155,0.090153635,0.0,0.0,0.0,0.0,0.0,0.013531661,0.32562396,0.5232369,0.0,0.0,0.0,0.0,0.0,0.0
301966276,2.1844063,-0.2383833,0.37427092,1.1271362,0.5135546,-0.25814056,0.008204132,-0.048903737,0.30598906,0.034353554,0.0,0.0,0.0,0.0,0.0,0.27860558,0.26813024,0.57604986,1.127105,1.1277022,4.057899,0.0025062612,0.0025065618,0.002518663,0.090153635,0.0,0.0,0.0,0.0,0.0,0.017675662,0.3669622,0.5844873,0.0,0.0,0.0,0.0,0.0,0.0
302174283,1.8580284,-0.5487976,0.38838005,1.1651917,0.384449,0.08698273,0.020995148,-0.07985751,0.3107425,0.034353554,0.0,0.0,0.0,0.0,0.0,0.27778056,0.2679543,0.5758676,1.1880361,1.1876794,4.0574894,0.0025062049,0.002506368,0.0025188057,0.090153635,0.0,0.0,0.0,0.0,0.0,0.01746308,0.34849304,0.57846606,0.0,0.0,0.0,0.0,0.0,0.0
302373471,1.5595932,-0.8535204,0.389081,1.1482544,0.21648788,0.06663895,0.02360662,-0.09468944,0.3123387,0.034353554,0.0,0.0,0.0,0.0,0.0,0.27695575,0.2679865,0.5756879,1.2483966,1.2471845,4.057607,0.0025061572,0.0025062528,0.0025188765,0.090153635,0.0,0.0,0.0,0.0,0.0,0.015142141,0.32119542,0.5568523,0.0,0.0,0.0,0.0,0.0,0.0
302572666,1.4178753,-0.8012266,0.3083191,1.1413879,0.09914398,1.014183,0.0016421527,-0.1071527,0.31770983,0.034353554,0.0,0.0,0.0,0.0,0.0,0.27604517,0.26805875,0.5755746,1.2793878,1.2774346,4.0575724,0.0025061048,0.0025061904,0.0025189111,0.090153635,0.0,0.0,0.0,0.0,0.0,0.012919463,0.2870139,0.51962346,0.0,0.0,0.0,0.0,0.0,0.0
302775864,1.2965069,-0.7575865,0.15145636,1.2772827,-0.083667755,0.668808,0.019612841,-0.123961605,0.32329935,0.034353554,0.0,0.0,0.0,0.0,0.0,0.27513936,0.26811904,0.5753753,1.293468,1.2908075,4.0576735,0.002506009,0.0025061767,0.0025189437,0.090153635,0.0,0.0,0.0,0.0,0.0,0.011187803,0.25432813,0.48456725,0.0,0.0,0.0,0.0,0.0,0.0
302975105,0.9341984,-1.1470928,0.11959767,1.1288147,-0.16078377,-0.2566681,0.0038400218,-0.12632318,0.307396,0.034353554,0.0,0.0,0.0,0.0,0.0,0.2739478,0.2679138,0.5751435,1.2779258,1.2748315,4.0577235,0.0025059192,0.0025062363,0.002518918,0.090153635,0.0,0.0,0.0,0.0,0.0,0.009047405,0.22244996,0.44706896,0.0,0.0,0.0,0.0,0.0,0.0
303183098,1.1753178,-0.78649235,0.28929925,1.1891632,-0.24057198,-0.55581665,0.004059404,-0.15296592,0.31726626,0.034353554,0.0,0.0,0.0,0.0,0.0,0.27278748,0.2678212,0.57478356,1.2602707,1.2568163,4.0578938,0.0025059183,0.0025064002,0.002518731,0.090153635,0.0,0.0,0.0,0.0,0.0,0.007834008,0.18639714,0.39880523,0.0,0.0,0.0,0.0,0.0,0.0
303382287,1.0121002,-0.6597223,0.41173553,1.4144287,-0.24066925,-0.5710373,0.021076962,-0.17219333,0.32198673,0.034353554,0.0,0.0,0.0,0.0,0.0,0.27168193,0.26816458,0.57440394,1.227392,1.2237395,4.057921,0.0025060603,0.002506647,0.0025183493,0.090153635,0.0,0.0,0.0,0.0,0.0,0.0070768707,0.16010344,0.3560341,0.0,0.0,0.0,0.0,0.0,0.0
303590279,0.70501137,-0.87520695,0.14638853,1.643158,-0.37607574,0.5918808,0.046842128,-0.17419654,0.31031236,0.034353554,0.0,0.0,0.0,0.0,0.0,0.27088594,0.2691006,0.57382566,1.1909195,1.187219,4.057944,0.0025064745,0.0025067898,0.0025178292,0.090153635,0.0,0.0,0.0,0.0,0.0,0.0062167193,0.15462251,0.3329141,0.0,0.0,0.0,0.0,0.0,0.0
303789483,0.6942711,-1.1604156,-0.020523071,1.6040344,-0.45907974,0.1927185,0.071841985,-0.17410439,0.32921708,0.034353554,0.0,0.0,0.0,0.0,0.0,0.27066192,0.27036402,0.5733104,1.1540567,1.1505903,4.0575166,0.002507008,0.0025065276,0.0025175484,0.090153635,0.0,0.0,0.0,0.0,0.0,0.0064003984,0.17558827,0.34603027,0.0,0.0,0.0,0.0,0.0,0.0
303996664,0.8210125,-1.1602163,0.2164216,1.4858704,-0.39761734,0.5285797,0.07831845,-0.13494006,0.32967296,0.034353554,0.0,0.0,0.0,0.0,0.0,0.2751101,0.2757203,0.5820011,1.1188626,1.1157945,4.057109,0.0025071844,0.0025061623,0.0025176504,0.090153635,0.0,0.0,0.0,0.0,0.0,0.0065241777,0.180668,0.32719743,0.0,0.0,0.0,0.0,0.0,0.0
304197465,0.9700241,-1.7333632,-0.068421364,1.4835205,-0.6927147,-0.5586777,0.07253739,-0.09192137,0.30816227,0.034353554,0.0,0.0,0.0,0.0,0.0,0.40871415,0.40998444,0.88084346,1.1091179,1.1064206,4.0569563,0.002506961,0.0025061197,0.0025178392,0.090153635,0.0,0.0,0.0,0.0,0.0,0.005752505,0.18270484,0.3418993,0.0,0.0,0.0,0.0,0.0,0.0
304399865,0.18068504,-0.95015335,0.19724369,1.315979,-0.60352707,-0.8433075,0.06066779,-0.07689292,0.31543958,0.034353554,0.0,0.0,0.0,0.0,0.0,0.365412,0.3671491,0.7829267,1.1097115,1.1073191,4.0569997,0.0025067339,0.0025062019,0.0025179193,0.090153635,0.0,0.0,0.0,0.0,0.0,0.0037457487,0.1550795,0.31847492,0.0,0.0,0.0,0.0,0.0,0.0
304599066,-0.11845207,-0.7688465,0.17887592,1.2444,-0.68236923,-1.0554886,0.06303633,-0.06795965,0.30178207,0.034353554,0.0,0.0,0.0,0.0,0.0,0.45190457,0.45391297,0.9785097,1.140982,1.1388929,4.057063,0.0025066552,0.0025062012,0.0025179675,0.090153635,0.0,0.0,0.0,0.0,0.0,0.0017304228,0.1467054,0.33411247,0.0,0.0,0.0,0.0,0.0,0.0
304806279,-0.18671322,-0.8836012,0.31159592,1.2234192,-0.8351059,-1.8213463,0.05288519,-0.06612848,0.30815828,0.034353554,0.0,0.0,0.0,0.0,0.0,0.5824017,0.58460873,1.2724046,1.186163,1.1843592,4.057345,0.0025066938,0.0025061243,0.0025179991,0.090153635,0.0,0.0,0.0,0.0,0.0,0.0010189875,0.14307848,0.33593637,0.0,0.0,0.0,0.0,0.0,0.0
305006271,-0.19822598,-0.7177191,0.2815523,1.1327972,-0.8692932,-1.1230469,0.054763272,-0.07760213,0.29802543,0.034353554,0.0,0.0,0.0,0.0,0.0,0.40105602,0.4034281,0.8639088,1.226234,1.2247481,4.057062,0.002506732,0.0025060722,0.0025179961,0.090153635,0.0,0.0,0.0,0.0,0.0,0.0010935771,0.14084895,0.33081883,0.0,0.0,0.0,0.0,0.0,0.0
305205465,-0.39514828,-0.44797897,0.3121748,0.9111023,-0.7331505,-1.9659348,0.047625683,-0.07159749,0.30789992,0.034353554,0.0,0.0,0.0,0.0,0.0,0.38394925,0.38635287,0.8254591,1.2419351,1.2407533,4.0571494,0.002506747,0.0025060961,0.0025179419,0.090153635,0.0,0.0,0.0,0.0,0.0,0.0008685728,0.14371167,0.33552748,0.0,0.0,0.0,0.0,0.0,0.0
305408682,-0.4844303,-0.5743704,0.16102123,0.9117584,-0.81606674,-0.71053314,0.06556526,-0.063688114,0.30340114,0.034353554,0.0,0.0,0.0,0.0,0.0,0.3708215,0.37322685,0.795818,1.2309853,1.2301108,4.057116,0.0025066652,0.0025061357,0.002517956,0.090153635,0.0,0.0,0.0,0.0,0.0,0.0009787978,0.13834876,0.31068707,0.0,0.0,0.0,0.0,0.0,0.0
305616687,-0.58785725,-0.44491196,0.057403088,0.7601166,-0.6411476,-0.97320175,0.03659872,-0.057973787,0.30435193,0.034353554,0.0,0.0,0.0,0.0,0.0,0.3725878,0.3748545,0.8010084,1.224848,1.2242361,4.057271,0.00250645,0.0025062235,0.0025180615,0.090153635,0.0,0.0,0.0,0.0,0.0,0.0008865973,0.13525383,0.3017834,0.0,0.0,0.0,0.0,0.0,0.0
305815895,-0.54238224,-0.3104353,0.15729141,0.8097687,-0.7768059,-1.1729012,0.02837862,-0.036011357,0.30479956,0.034353554,0.0,0.0,0.0,0.0,0.0,0.37074363,0.37281325,0.79816175,1.2517495,1.2514032,4.0572085,0.0025062526,0.0025063956,0.0025180718,0.090153635,0.0,0.0,0.0,0.0,0.0,0.00077296107,0.12183576,0.26482627,0.0,0.0,0.0,0.0,0.0,0.0
306023099,-0.4608221,-0.8209324,0.560235,0.6678314,-0.80369186,-1.2387848,0.021328054,-0.0044840826,0.3084005,0.034353554,0.0,0.0,0.0,0.0,0.0,0.2972447,0.2991066,0.63437563,1.2910073,1.2908733,4.0570292,0.0025060696,0.0025066894,0.0025179589,0.090153635,0.0,0.0,0.0,0.0,0.0,0.0017548716,0.11418798,0.24499127,0.0,0.0,0.0,0.0,0.0,0.0
306223116,-0.73561764,-0.57987785,0.6478963,0.4597473,-0.65979385,-0.635746,0.024178006,-0.0008476959,0.30933684,0.034353554,0.0,0.0,0.0,0.0,0.0,0.2685062,0.27009922,0.5718022,1.323073,1.3230478,4.056733,0.0025059518,0.0025069686,0.0025178033,0.090153635,0.0,0.0,0.0,0.0,0.0,0.0023037842,0.11942651,0.25498605,0.0,0.0,0.0,0.0,0.0,0.0
306430271,-0.6889267,-0.2880478,0.49165487,0.42567444,-0.58800507,-1.0067253,0.008285448,0.015289221,0.30312076,0.034353554,0.0,0.0,0.0,0.0,0.0,0.26768163,0.26906157,0.5715976,1.3469596,1.3470107,4.0562367,0.0025059113,0.002507169,0.0025176555,0.090153635,0.0,0.0,0.0,0.0,0.0,0.0016063399,0.1110562,0.2404593,0.0,0.0,0.0,0.0,0.0,0.0
306629470,-0.5752163,-0.29649162,0.4809885,0.39457703,-0.53565216,-0.55682373,0.030487858,0.0050753513,0.30602008,0.034353554,0.0,0.0,0.0,0.0,0.0,0.26715767,0.26842448,0.5715283,1.3689961,1.3691256,4.0560164,0.0025059162,0.0025072042,0.0025176231,0.090153635,0.0,0.0,0.0,0.0,0.0,0.0011473892,0.098919265,0.21492419,0.0,0.0,0.0,0.0,0.0,0.0
306828665,-0.59471226,-0.2878914,0.59865236,0.30532837,-0.52163696,-1.0548935,0.021837011,0.011983678,0.30838573,0.034353554,0.0,0.0,0.0,0.0,0.0,0.26697293,0.26822528,0.57145053,1.3891653,1.3893672,4.055581,0.0025059432,0.0025071667,0.002517638,0.090153635,0.0,0.0,0.0,0.0,0.0,0.0010853466,0.091012195,0.1984677,0.0,0.0,0.0,0.0,0.0,0.0
307036665,-0.29638195,-0.21905899,0.7401724,0.15808105,-0.3543167,-0.0743103,0.032210156,0.01640905,0.30914462,0.034353554,0.0,0.0,0.0,0.0,0.0,0.2669043,0.26818743,0.5714524,1.3908749,1.3911374,4.055458,0.002505981,0.002507132,0.0025176457,0.090153635,0.0,0.0,0.0,0.0,0.0,0.0008851606,0.07267669,0.16462637,0.0,0.0,0.0,0.0,0.0,0.0
307235911,-0.45993233,-0.16893578,0.7872863,0.19094849,-0.3752594,-0.43403244,0.034264937,-0.0055542337,0.30005372,0.034353554,0.0,0.0,0.0,0.0,0.0,0.26710802,0.26847675,0.5714645,1.3891497,1.3895023,4.0553336,0.0025060305,0.002507087,0.0025176436,0.090153635,0.0,0.0,0.0,0.0,0.0,0.000915456,0.06907329,0.15636574,0.0,0.0,0.0,0.0,0.0,0.0
308655865,-0.19309998,-0.11534119,0.30412626,0.018249512,-0.2561264,-0.29317856,0.051274687,-0.040019624,0.31065053,0.034353554,0.0,0.0,0.0,0.0,0.0,0.44432604,0.44630387,0.96573424,1.5745322,1.5757546,4.0554466,0.0025063187,0.0025068554,0.002517635,0.090153635,0.0,0.0,0.0,0.0,0.0,0.0004659498,0.03151682,0.077737555,0.0,0.0,0.0,0.0,0.0,0.0
308855865,-0.3377056,-0.22200203,-0.2208147,0.11779785,-0.41410828,-0.23133087,0.05502619,-0.018662252,0.302171,0.034353554,0.0,0.0,0.0,0.0,0.0,0.42545718,0.4273821,0.9223045,1.6286741,1.630135,4.055828,0.0025062712,0.0025071348,0.0025174308,0.090153635,0.0,0.0,0.0,0.0,0.0,0.00044453543,0.02478599,0.056861766,0.0,0.0,0.0,0.0,0.0,0.0
309055065,-0.5231552,-0.33341217,0.1898551,0.10429382,-0.39800262,-0.3895645,0.04232648,0.0023504966,0.3035198,0.034353554,0.0,0.0,0.0,0.0,0.0,0.46603158,0.46784934,1.0133326,1.6730413,1.6746737,4.055957,0.002506197,0.0025075746,0.0025171104,0.090153635,0.0,0.0,0.0,0.0,0.0,0.000842472,0.021153606,0.05450646,0.0,0.0,0.0,0.0,0.0,0.0
309262284,-0.44595194,-0.36673546,0.4567709,0.078063965,-0.3851242,-0.41095734,0.049198076,0.016064206,0.31176838,0.034353554,0.0,0.0,0.0,0.0,0.0,0.6938643,0.6955629,1.5258361,1.6981496,1.6999563,4.0562024,0.0025061558,0.0025079998,0.0025167842,0.090153635,0.0,0.0,0.0,0.0,0.0,0.00086221885,0.01663536,0.051328816,0.0,0.0,0.0,0.0,0.0,0.0
309462295,-0.35606718,-0.2980194,0.2637272,0.10462952,-0.4401245,0.06567764,0.039546385,0.03973011,0.3042032,0.034353554,0.0,0.0,0.0,0.0,0.0,0.6536817,0.6553225,1.4349065,1.686636,1.6886976,4.0560865,0.0025061618,0.0025082035,0.0025166094,0.090153635,0.0,0.0,0.0,0.0,0.0,0.00075145706,0.013321805,0.046970237,0.0,0.0,0.0,0.0,0.0,0.0
309661473,-1.0020247,0.10192108,0.37052727,0.017364502,-0.41271973,0.3166275,0.056353614,0.017324898,0.31717628,0.034353554,0.0,0.0,0.0,0.0,0.0,0.6334281,0.63503647,1.3886911,1.702292,1.7045689,4.0562882,0.0025062016,0.0025081956,0.0025165929,0.090153635,0.0,0.0,0.0,0.0,0.0,0.0007847621,0.026289012,0.06714123,0.0,0.0,0.0,0.0,0.0,0.0
309868687,-0.83189917,0.058799744,0.5418029,-0.05986023,-0.3226776,-0.1942482,0.052586928,0.028866753,0.31798613,0.034353554,0.0,0.0,0.0,0.0,0.0,0.53338104,0.5349905,1.1627798,1.7127147,1.7151796,4.0564046,0.0025062421,0.0025081586,0.0025165977,0.090153635,0.0,0.0,0.0,0.0,0.0,0.0009806886,0.032099977,0.080102496,0.0,0.0,0.0,0.0,0.0,0.0
310071870,-0.7255602,-0.05939865,0.2374978,-0.06738281,-0.29263306,0.0048675537,0.06087908,0.026587157,0.303016,0.034353554,0.0,0.0,0.0,0.0,0.0,0.39555508,0.39713368,0.8520779,1.7225285,1.7251118,4.056429,0.0025062766,0.0025081604,0.002516568,0.090153635,0.0,0.0,0.0,0.0,0.0,0.0011731422,0.034675863,0.087169304,0.0,0.0,0.0,0.0,0.0,0.0
310271871,-0.8232603,0.13581848,0.32620335,-0.06556702,-0.23582458,0.5974312,0.07348284,0.030019302,0.31565252,0.034353554,0.0,0.0,0.0,0.0,0.0,0.38708007,0.38859773,0.83286,1.7009962,1.7035707,4.0562525,0.002506302,0.0025082675,0.0025164525,0.090153635,0.0,0.0,0.0,0.0,0.0,0.0013591957,0.043742776,0.11410448,0.0,0.0,0.0,0.0,0.0,0.0
310479065,-0.43078804,-0.12895584,0.3622222,-0.021514893,-0.08639526,0.21975708,0.05756016,0.019834869,0.3160556,0.034353554,0.0,0.0,0.0,0.0,0.0,0.33796525,0.33939394,0.7224846,1.6863114,1.6888391,4.0565248,0.0025063048,0.0025083711,0.0025163577,0.090153635,0.0,0.0,0.0,0.0,0.0,0.0013852717,0.03531439,0.11234591,0.0,0.0,0.0,0.0,0.0,0.0
310678296,-0.3983147,-0.3883915,0.22128725,0.00819397,-0.25605774,0.17707443,0.06515074,0.036037974,0.31535062,0.034353554,0.0,0.0,0.0,0.0,0.0,0.3233386,0.3246287,0.6899471,1.6717814,1.6742386,4.056382,0.0025062847,0.00250847,0.002516285,0.090153635,0.0,0.0,0.0,0.0,0.0,0.0015385824,0.02286369,0.08179846,0.0,0.0,0.0,0.0,0.0,0.0
310878308,-0.5265236,-0.16382599,0.2621808,0.011581421,-0.26161194,0.2713852,0.06836116,0.029340433,0.3159958,0.034353554,0.0,0.0,0.0,0.0,0.0,0.29410747,0.29528376,0.6246817,1.6589015,1.6612474,4.056194,0.0025062456,0.0025086063,0.0025161924,0.090153635,0.0,0.0,0.0,0.0,0.0,0.0015282263,0.022264626,0.07314921,0.0,0.0,0.0,0.0,0.0,0.0
311085465,-0.62475824,-0.040058136,0.28556347,0.05369568,-0.234375,0.49817657,0.06690751,0.04010881,0.32222563,0.034353554,0.0,0.0,0.0,0.0,0.0,0.3182756,0.31933886,0.6799827,1.6601464,1.6623485,4.055855,0.002506145,0.0025089104,0.002516021,0.090153635,0.0,0.0,0.0,0.0,0.0,0.001503167,0.026283883,0.085210726,0.0,0.0,0.0,0.0,0.0,0.0
311280664,-0.738894,0.1282978,0.32085657,0.06391907,-0.3649292,-0.1059227,0.0632866,0.052251723,0.32243153,0.034353554,0.0,0.0,0.0,0.0,0.0,0.2923135,0.29324505,0.62224793,1.6748981,1.6770326,4.055736,0.0025060421,0.0025091527,0.0025158948,0.090153635,0.0,0.0,0.0,0.0,0.0,0.00160281,0.0322352,0.08728252,0.0,0.0,0.0,0.0,0.0,0.0
311487888,-0.9375733,-0.06473732,0.11324835,0.030761719,-0.20397949,0.61328125,0.056323603,0.0416511,0.33280778,0.034353554,0.0,0.0,0.0,0.0,0.0,0.36024478,0.36101642,0.7764645,1.7031797,1.7051723,4.055614,0.0025059313,0.0025094948,0.0025157107,0.090153635,0.0,0.0,0.0,0.0,0.0,0.0016863556,0.031367864,0.09125821,0.0,0.0,0.0,0.0,0.0,0.0
