timestamp,x,y,z,r,flaps,aux1,aux2,aux3,aux4,aux5,aux6,mode_switch,return_switch,rattitude_switch,posctl_switch,loiter_switch,acro_switch,offboard_switch,kill_switch,arm_switch,transition_switch,gear_switch,mode_slot,data_source,stab_switch,man_switch
273377125,0.0,0.0,0.60745126,0.0,0.0,0.0,0.0,0.0,0.0,0.0,0.0,0,0,0,0,0,0,0,1,1,1,0,3,1,0,0
273400913,0.0,0.0,0.6079664,0.0,0.0,0.0,0.0,0.0,0.0,0.0,0.0,0,0,0,0,0,0,0,1,1,1,0,3,1,0,0
273424840,0.0,0.0,0.60845345,0.0,0.0,0.0,0.0,0.0,0.0,0.0,0.0,0,0,0,0,0,0,0,1,1,1,0,3,1,0,0
273444969,0.0,0.0,0.60828364,0.0,0.0,0.0,0.0,0.0,0.0,0.0,0.0,0,0,0,0,0,0,0,1,1,1,0,3,1,0,0
273465140,0.0,0.0,0.60787666,0.0,0.0,0.0,0.0,0.0,0.0,0.0,0.0,0,0,0,0,0,0,0,1,1,1,0,3,1,0,0
273490152,0.0,0.0,0.6080084,0.0,0.0,0.0,0.0,0.0,0.0,0.0,0.0,0,0,0,0,0,0,0,1,1,1,0,3,1,0,0
273513149,0.0,0.0,0.6083856,0.0,0.0,0.0,0.0,0.0,0.0,0.0,0.0,0,0,0,0,0,0,0,1,1,1,0,3,1,0,0
273537137,0.0,0.0,0.6082504,0.0,0.0,0.0,0.0,0.0,0.0,0.0,0.0,0,0,0,0,0,0,0,1,1,1,0,3,1,0,0
273561358,0.0,0.0,0.6078777,0.0,0.0,0.0,0.0,0.0,0.0,0.0,0.0,0,0,0,0,0,0,0,1,1,1,0,3,1,0,0
273584208,0.0,0.0,0.60801524,0.0,0.0,0.0,0.0,0.0,0.0,0.0,0.0,0,0,0,0,0,0,0,1,1,1,0,3,1,0,0
273608154,0.0,0.0,0.608388,0.0,0.0,0.0,0.0,0.0,0.0,0.0,0.0,0,0,0,0,0,0,0,1,1,1,0,3,1,0,0
273633140,0.0,0.0,0.60849875,0.0,0.0,0.0,0.0,0.0,0.0,0.0,0.0,0,0,0,0,0,0,0,1,1,1,0,3,1,0,0
273656372,0.0,0.0,0.60846674,0.0,0.0,0.0,0.0,0.0,0.0,0.0,0.0,0,0,0,0,0,0,0,1,1,1,0,3,1,0,0
273680310,0.0,0.0,0.60818434,0.0,0.0,0.0,0.0,0.0,0.0,0.0,0.0,0,0,0,0,0,0,0,1,1,1,0,3,1,0,0
273705167,0.0,0.0,0.6078373,0.0,0.0,0.0,0.0,0.0,0.0,0.0,0.0,0,0,0,0,0,0,0,1,1,1,0,3,1,0,0
273724396,0.0,0.0,0.60801333,0.0,0.0,0.0,0.0,0.0,0.0,0.0,0.0,0,0,0,0,0,0,0,1,1,1,0,3,1,0,0
273748182,0.0,0.0,0.60839516,0.0,0.0,0.0,0.0,0.0,0.0,0.0,0.0,0,0,0,0,0,0,0,1,1,1,0,3,1,0,0
273772373,0.0,0.0,0.6085018,0.0,0.0,0.0,0.0,0.0,0.0,0.0,0.0,0,0,0,0,0,0,0,1,1,1,0,3,1,0,0
273796322,0.0,0.0,0.60846645,0.0,0.0,0.0,0.0,0.0,0.0,0.0,0.0,0,0,0,0,0,0,0,1,1,1,0,3,1,0,0
273816367,0.0,0.0,0.6084325,0.0,0.0,0.0,0.0,0.0,0.0,0.0,0.0,0,0,0,0,0,0,0,1,1,1,0,3,1,0,0
273840339,0.0,0.0,0.60817796,0.0,0.0,0.0,0.0,0.0,0.0,0.0,0.0,0,0,0,0,0,0,0,1,1,1,0,3,1,0,0
273864338,0.0,0.0,0.6075928,0.0,0.0,0.0,0.0,0.0,0.0,0.0,0.0,0,0,0,0,0,0,0,1,1,1,0,3,1,0,0
273888377,0.0,0.0,0.6074264,0.0,0.0,0.0,0.0,0.0,0.0,0.0,0.0,0,0,0,0,0,0,0,1,1,1,0,3,1,0,0
273911549,0.0,0.0,0.6077284,0.0,0.0,0.0,0.0,0.0,0.0,0.0,0.0,0,0,0,0,0,0,0,1,1,1,0,3,1,0,0
273935524,0.0,0.0,0.6076237,0.0,0.0,0.0,0.0,0.0,0.0,0.0,0.0,0,0,0,0,0,0,0,1,1,1,0,3,1,0,0
273959571,0.0,0.0,0.6075259,0.0,0.0,0.0,0.0,0.0,0.0,0.0,0.0,0,0,0,0,0,0,0,1,1,1,0,3,1,0,0
273983260,0.0,0.0,0.608008,0.0,0.0,0.0,0.0,0.0,0.0,0.0,0.0,0,0,0,0,0,0,0,1,1,1,0,3,1,0,0
274003528,0.0,0.0,0.60820526,0.0,0.0,0.0,0.0,0.0,0.0,0.0,0.0,0,0,0,0,0,0,0,1,1,1,0,3,1,0,0
274028336,0.0,0.0,0.60768604,0.0,0.0,0.0,0.0,0.0,0.0,0.0,0.0,0,0,0,0,0,0,0,1,1,1,0,3,1,0,0
274051552,0.0,0.0,0.60745555,0.0,0.0,0.0,0.0,0.0,0.0,0.0,0.0,0,0,0,0,0,0,0,1,1,1,0,3,1,0,0
274075512,0.0,0.0,0.6079698,0.0,0.0,0.0,0.0,0.0,0.0,0.0,0.0,0,0,0,0,0,0,0,1,1,1,0,3,1,0,0
274095386,0.0,0.0,0.60845387,0.0,0.0,0.0,0.0,0.0,0.0,0.0,0.0,0,0,0,0,0,0,0,1,1,1,0,3,1,0,0
274119338,0.0,0.0,0.608532,0.0,0.0,0.0,0.0,0.0,0.0,0.0,0.0,0,0,0,0,0,0,0,1,1,1,0,3,1,0,0
274143330,0.0,0.0,0.6084661,0.0,0.0,0.0,0.0,0.0,0.0,0.0,0.0,0,0,0,0,0,0,0,1,1,1,0,3,1,0,0
274167377,0.0,0.0,0.60842645,0.0,0.0,0.0,0.0,0.0,0.0,0.0,0.0,0,0,0,0,0,0,0,1,1,1,0,3,1,0,0
274190751,0.0,0.0,0.60842466,0.0,0.0,0.0,0.0,0.0,0.0,0.0,0.0,0,0,0,0,0,0,0,1,1,1,0,3,1,0,0
274214991,0.0,0.0,0.6084318,0.0,0.0,0.0,0.0,0.0,0.0,0.0,0.0,0,0,0,0,0,0,0,1,1,1,0,3,1,0,0
274238720,0.0,0.0,0.6084348,0.0,0.0,0.0,0.0,0.0,0.0,0.0,0.0,0,0,0,0,0,0,0,1,1,1,0,3,1,0,0
274262605,0.0,0.0,0.6084345,0.0,0.0,0.0,0.0,0.0,0.0,0.0,0.0,0,0,0,0,0,0,0,1,1,1,0,3,1,0,0
274286748,0.0,0.0,0.60843384,0.0,0.0,0.0,0.0,0.0,0.0,0.0,0.0,0,0,0,0,0,0,0,1,1,1,0,3,1,0,0
274310755,0.0,0.0,0.60818475,0.0,0.0,0.0,0.0,0.0,0.0,0.0,0.0,0,0,0,0,0,0,0,1,1,1,0,3,1,0,0
274334948,0.0,0.0,0.6075951,0.0,0.0,0.0,0.0,0.0,0.0,0.0,0.0,0,0,0,0,0,0,0,1,1,1,0,3,1,0,0
274358779,0.0,0.0,0.6074259,0.0,0.0,0.0,0.0,0.0,0.0,0.0,0.0,0,0,0,0,0,0,0,1,1,1,0,3,1,0,0
274382751,0.0,0.0,0.6079767,0.0,0.0,0.0,0.0,0.0,0.0,0.0,0.0,0,0,0,0,0,0,0,1,1,1,0,3,1,0,0
274406734,0.0,0.0,0.60846215,0.0,0.0,0.0,0.0,0.0,0.0,0.0,0.0,0,0,0,0,0,0,0,1,1,1,0,3,1,0,0
274430810,0.0,0.0,0.60853374,0.0,0.0,0.0,0.0,0.0,0.0,0.0,0.0,0,0,0,0,0,0,0,1,1,1,0,3,1,0,0
274454770,0.0,0.0,0.60846514,0.0,0.0,0.0,0.0,0.0,0.0,0.0,0.0,0,0,0,0,0,0,0,1,1,1,0,3,1,0,0
274477172,0.0,0.0,0.60842574,0.0,0.0,0.0,0.0,0.0,0.0,0.0,0.0,0,0,0,0,0,0,0,1,1,1,0,3,1,0,0
274497661,0.0,0.0,0.6084246,0.0,0.0,0.0,0.0,0.0,0.0,0.0,0.0,0,0,0,0,0,0,0,1,1,1,0,3,1,0,0
274517745,0.0,0.0,0.60843194,0.0,0.0,0.0,0.0,0.0,0.0,0.0,0.0,0,0,0,0,0,0,0,1,1,1,0,3,1,0,0
274537748,0.0,0.0,0.60843486,0.0,0.0,0.0,0.0,0.0,0.0,0.0,0.0,0,0,0,0,0,0,0,1,1,1,0,3,1,0,0
274561728,0.0,0.0,0.60843444,0.0,0.0,0.0,0.0,0.0,0.0,0.0,0.0,0,0,0,0,0,0,0,1,1,1,0,3,1,0,0
274586030,0.0,0.0,0.6081849,0.0,0.0,0.0,0.0,0.0,0.0,0.0,0.0,0,0,0,0,0,0,0,1,1,1,0,3,1,0,0
274609942,0.0,0.0,0.60759497,0.0,0.0,0.0,0.0,0.0,0.0,0.0,0.0,0,0,0,0,0,0,0,1,1,1,0,3,1,0,0
274633968,0.0,0.0,0.60742587,0.0,0.0,0.0,0.0,0.0,0.0,0.0,0.0,0,0,0,0,0,0,0,1,1,1,0,3,1,0,0
274657937,0.0,0.0,0.6079767,0.0,0.0,0.0,0.0,0.0,0.0,0.0,0.0,0,0,0,0,0,0,0,1,1,1,0,3,1,0,0
274681719,0.0,0.0,0.6084622,0.0,0.0,0.0,0.0,0.0,0.0,0.0,0.0,0,0,0,0,0,0,0,1,1,1,0,3,1,0,0
274705716,0.0,0.0,0.6082849,0.0,0.0,0.0,0.0,0.0,0.0,0.0,0.0,0,0,0,0,0,0,0,1,1,1,0,3,1,0,0
274729939,0.0,0.0,0.6078754,0.0,0.0,0.0,0.0,0.0,0.0,0.0,0.0,0,0,0,0,0,0,0,1,1,1,0,3,1,0,0
274753776,0.0,0.0,0.60800767,0.0,0.0,0.0,0.0,0.0,0.0,0.0,0.0,0,0,0,0,0,0,0,1,1,1,0,3,1,0,0
274777806,0.0,0.0,0.6083856,0.0,0.0,0.0,0.0,0.0,0.0,0.0,0.0,0,0,0,0,0,0,0,1,1,1,0,3,1,0,0
274800379,0.0,0.0,0.60849935,0.0,0.0,0.0,0.0,0.0,0.0,0.0,0.0,0,0,0,0,0,0,0,1,1,1,0,3,1,0,0
274825152,0.0,0.0,0.60821855,0.0,0.0,0.0,0.0,0.0,0.0,0.0,0.0,0,0,0,0,0,0,0,1,1,1,0,3,1,0,0
274848978,0.0,0.0,0.6078436,0.0,0.0,0.0,0.0,0.0,0.0,0.0,0.0,0,0,0,0,0,0,0,1,1,1,0,3,1,0,0
274873110,0.0,0.0,0.6080089,0.0,0.0,0.0,0.0,0.0,0.0,0.0,0.0,0,0,0,0,0,0,0,1,1,1,0,3,1,0,0
274897134,0.0,0.0,0.6083923,0.0,0.0,0.0,0.0,0.0,0.0,0.0,0.0,0,0,0,0,0,0,0,1,1,1,0,3,1,0,0
274921134,0.0,0.0,0.60850155,0.0,0.0,0.0,0.0,0.0,0.0,0.0,0.0,0,0,0,0,0,0,0,1,1,1,0,3,1,0,0
274944946,0.0,0.0,0.60846686,0.0,0.0,0.0,0.0,0.0,0.0,0.0,0.0,0,0,0,0,0,0,0,1,1,1,0,3,1,0,0
274964937,0.0,0.0,0.6084327,0.0,0.0,0.0,0.0,0.0,0.0,0.0,0.0,0,0,0,0,0,0,0,1,1,1,0,3,1,0,0
274985137,0.0,0.0,0.60842687,0.0,0.0,0.0,0.0,0.0,0.0,0.0,0.0,0,0,0,0,0,0,0,1,1,1,0,3,1,0,0
275009211,0.0,0.0,0.6084314,0.0,0.0,0.0,0.0,0.0,0.0,0.0,0.0,0,0,0,0,0,0,0,1,1,1,0,3,1,0,0
275034136,0.0,0.0,0.6084342,0.0,0.0,0.0,0.0,0.0,0.0,0.0,0.0,0,0,0,0,0,0,0,1,1,1,0,3,1,0,0
275057190,0.0,0.0,0.6084344,0.0,0.0,0.0,0.0,0.0,0.0,0.0,0.0,0,0,0,0,0,0,0,1,1,1,0,3,1,0,0
275079535,0.0,0.0,0.608185,0.0,0.0,0.0,0.0,0.0,0.0,0.0,0.0,0,0,0,0,0,0,0,1,1,1,0,3,1,0,0
275100156,0.0,0.0,0.6075951,0.0,0.0,0.0,0.0,0.0,0.0,0.0,0.0,0,0,0,0,0,0,0,1,1,1,0,3,1,0,0
275124385,0.0,0.0,0.6074259,0.0,0.0,0.0,0.0,0.0,0.0,0.0,0.0,0,0,0,0,0,0,0,1,1,1,0,3,1,0,0
275148361,0.0,0.0,0.60772777,0.0,0.0,0.0,0.0,0.0,0.0,0.0,0.0,0,0,0,0,0,0,0,1,1,1,0,3,1,0,0
275172340,0.0,0.0,0.6078725,0.0,0.0,0.0,0.0,0.0,0.0,0.0,0.0,0,0,0,0,0,0,0,1,1,1,0,3,1,0,0
275196111,0.0,0.0,0.6081157,0.0,0.0,0.0,0.0,0.0,0.0,0.0,0.0,0,0,0,0,0,0,0,1,1,1,0,3,1,0,0
275220328,0.0,0.0,0.60817724,0.0,0.0,0.0,0.0,0.0,0.0,0.0,0.0,0,0,0,0,0,0,0,1,1,1,0,3,1,0,0
275244200,0.0,0.0,0.6079035,0.0,0.0,0.0,0.0,0.0,0.0,0.0,0.0,0,0,0,0,0,0,0,1,1,1,0,3,1,0,0
275264347,0.0,0.0,0.60803914,0.0,0.0,0.0,0.0,0.0,0.0,0.0,0.0,0,0,0,0,0,0,0,1,1,1,0,3,1,0,0
275288101,0.0,0.0,0.60839176,0.0,0.0,0.0,0.0,0.0,0.0,0.0,0.0,0,0,0,0,0,0,0,1,1,1,0,3,1,0,0
275308069,0.0,0.0,0.6084955,0.0,0.0,0.0,0.0,0.0,0.0,0.0,0.0,0,0,0,0,0,0,0,1,1,1,0,3,1,0,0
275328182,0.0,0.0,0.6084648,0.0,0.0,0.0,0.0,0.0,0.0,0.0,0.0,0,0,0,0,0,0,0,1,1,1,0,3,1,0,0
275352359,0.0,0.0,0.6084331,0.0,0.0,0.0,0.0,0.0,0.0,0.0,0.0,0,0,0,0,0,0,0,1,1,1,0,3,1,0,0
275376180,0.0,0.0,0.6084274,0.0,0.0,0.0,0.0,0.0,0.0,0.0,0.0,0,0,0,0,0,0,0,1,1,1,0,3,1,0,0
275399317,0.0,0.0,0.6081826,0.0,0.0,0.0,0.0,0.0,0.0,0.0,0.0,0,0,0,0,0,0,0,1,1,1,0,3,1,0,0
275419581,0.0,0.0,0.6078444,0.0,0.0,0.0,0.0,0.0,0.0,0.0,0.0,0,0,0,0,0,0,0,1,1,1,0,3,1,0,0
275443361,0.0,0.0,0.6080162,0.0,0.0,0.0,0.0,0.0,0.0,0.0,0.0,0,0,0,0,0,0,0,1,1,1,0,3,1,0,0
275464325,0.0,0.0,0.60839486,0.0,0.0,0.0,0.0,0.0,0.0,0.0,0.0,0,0,0,0,0,0,0,1,1,1,0,3,1,0,0
275487337,0.0,0.0,0.6085011,0.0,0.0,0.0,0.0,0.0,0.0,0.0,0.0,0,0,0,0,0,0,0,1,1,1,0,3,1,0,0
275507301,0.0,0.0,0.6084662,0.0,0.0,0.0,0.0,0.0,0.0,0.0,0.0,0,0,0,0,0,0,0,1,1,1,0,3,1,0,0
275527586,0.0,0.0,0.60843253,0.0,0.0,0.0,0.0,0.0,0.0,0.0,0.0,0,0,0,0,0,0,0,1,1,1,0,3,1,0,0
275551755,0.0,0.0,0.6084269,0.0,0.0,0.0,0.0,0.0,0.0,0.0,0.0,0,0,0,0,0,0,0,1,1,1,0,3,1,0,0
275575557,0.0,0.0,0.60818255,0.0,0.0,0.0,0.0,0.0,0.0,0.0,0.0,0,0,0,0,0,0,0,1,1,1,0,3,1,0,0
275599540,0.0,0.0,0.6075956,0.0,0.0,0.0,0.0,0.0,0.0,0.0,0.0,0,0,0,0,0,0,0,1,1,1,0,3,1,0,0
275623589,0.0,0.0,0.6074266,0.0,0.0,0.0,0.0,0.0,0.0,0.0,0.0,0,0,0,0,0,0,0,1,1,1,0,3,1,0,0
275647389,0.0,0.0,0.6079768,0.0,0.0,0.0,0.0,0.0,0.0,0.0,0.0,0,0,0,0,0,0,0,1,1,1,0,3,1,0,0
275670554,0.0,0.0,0.6082132,0.0,0.0,0.0,0.0,0.0,0.0,0.0,0.0,0,0,0,0,0,0,0,1,1,1,0,3,1,0,0
275694984,0.0,0.0,0.6076951,0.0,0.0,0.0,0.0,0.0,0.0,0.0,0.0,0,0,0,0,0,0,0,1,1,1,0,3,1,0,0
275718566,0.0,0.0,0.60745734,0.0,0.0,0.0,0.0,0.0,0.0,0.0,0.0,0,0,0,0,0,0,0,1,1,1,0,3,1,0,0
275742620,0.0,0.0,0.60771984,0.0,0.0,0.0,0.0,0.0,0.0,0.0,0.0,0,0,0,0,0,0,0,1,1,1,0,3,1,0,0
275766786,0.0,0.0,0.60761446,0.0,0.0,0.0,0.0,0.0,0.0,0.0,0.0,0,0,0,0,0,0,0,1,1,1,0,3,1,0,0
275790542,0.0,0.0,0.60727525,0.0,0.0,0.0,0.0,0.0,0.0,0.0,0.0,0,0,0,0,0,0,0,1,1,1,0,3,1,0,0
275810528,0.0,0.0,0.6071705,0.0,0.0,0.0,0.0,0.0,0.0,0.0,0.0,0,0,0,0,0,0,0,1,1,1,0,3,1,0,0
275834603,0.0,0.0,0.6071983,0.0,0.0,0.0,0.0,0.0,0.0,0.0,0.0,0,0,0,0,0,0,0,1,1,1,0,3,1,0,0
275859321,0.0,0.0,0.60747796,0.0,0.0,0.0,0.0,0.0,0.0,0.0,0.0,0,0,0,0,0,0,0,1,1,1,0,3,1,0,0
275882503,0.0,0.0,0.6080736,0.014176519,0.0,0.0,0.0,0.0,0.0,0.0,0.0,0,0,0,0,0,0,0,1,1,1,0,3,1,0,0
275906703,0.053406447,0.0,0.60823894,0.09282924,0.0,0.0,0.0,0.0,0.0,0.0,0.0,0,0,0,0,0,0,0,1,1,1,0,3,1,0,0
275931294,0.19103885,0.0,0.60793453,0.23455493,0.0,0.0,0.0,0.0,0.0,0.0,0.0,0,0,0,0,0,0,0,1,1,1,0,3,1,0,0
275950709,0.3070151,0.0,0.60803854,0.33886346,0.0,0.0,0.0,0.0,0.0,0.0,0.0,0,0,0,0,0,0,0,1,1,1,0,3,1,0,0
275974752,0.36272383,0.0,0.6081366,0.3891479,0.0,0.0,0.0,0.0,0.0,0.0,0.0,0,0,0,0,0,0,0,1,1,1,0,3,1,0,0
275998752,0.42710584,0.0,0.60790354,0.43894717,0.0,0.0,0.0,0.0,0.0,0.0,0.0,0,0,0,0,0,0,0,1,1,1,0,3,1,0,0
276021738,0.49289075,0.0,0.6077982,0.4637046,0.0,0.0,0.0,0.0,0.0,0.0,0.0,0,0,0,0,0,0,0,1,1,1,0,3,1,0,0
276045957,0.52525026,0.0,0.60780495,0.45398816,0.0,0.0,0.0,0.0,0.0,0.0,0.0,0,0,0,0,0,0,0,1,1,1,0,3,1,0,0
276069932,0.5308761,0.0,0.60807693,0.44403088,0.0,0.0,0.0,0.0,0.0,0.0,0.0,0,0,0,0,0,0,0,1,1,1,0,3,1,0,0
276093814,0.50797665,0.0,0.6081761,0.41997665,0.0,0.0,0.0,0.0,0.0,0.0,0.0,0,0,0,0,0,0,0,1,1,1,0,3,1,0,0
276117736,0.44097593,0.0,0.60791063,0.3492434,0.0,0.0,0.0,0.0,0.0,0.0,0.0,0,0,0,0,0,0,0,1,1,1,0,3,1,0,0
276141743,0.33101887,0.0,0.6077931,0.23718731,0.0,0.0,0.0,0.0,0.0,0.0,0.0,0,0,0,0,0,0,0,1,1,1,0,3,1,0,0
276165776,0.18006712,0.0020055545,0.60755277,0.10887567,0.0,0.0,0.0,0.0,0.0,0.0,0.0,0,0,0,0,0,0,0,1,1,1,0,3,1,0,0
276189990,0.037997086,0.004752216,0.60748696,0.013027086,0.0,0.0,0.0,0.0,0.0,0.0,0.0,0,0,0,0,0,0,0,1,1,1,0,3,1,0,0
276213956,-0.021219013,0.0033689088,0.6080075,-0.016505703,0.0,0.0,0.0,0.0,0.0,0.0,0.0,0,0,0,0,0,0,0,1,1,1,0,3,1,0,0
276237934,-0.0152814295,0.00031434494,0.6084616,-0.008650216,0.0,0.0,0.0,0.0,0.0,0.0,0.0,0,0,0,0,0,0,0,1,1,1,0,3,1,0,0
276261813,0.0030426213,-0.0005435262,0.6085275,0.012186887,0.0,0.0,0.0,0.0,0.0,0.0,0.0,0,0,0,0,0,0,0,1,1,1,0,3,1,0,0
276284943,0.03988892,-0.00026240145,0.6084629,0.062397003,0.0,0.0,0.0,0.0,0.0,0.0,0.0,0,0,0,0,0,0,0,1,1,1,0,3,1,0,0
276308981,0.13506451,9.466492e-06,0.60817724,0.16496772,0.0,0.0,0.0,0.0,0.0,0.0,0.0,0,0,0,0,0,0,0,1,1,1,0,3,1,0,0
276332943,0.28091666,5.4880453e-05,0.6078355,0.3089821,0.0,0.0,0.0,0.0,0.0,0.0,0.0,0,0,0,0,0,0,0,1,1,1,0,3,1,0,0
276357142,0.41039318,1.8426135e-05,0.608014,0.43729958,0.0,0.0,0.0,0.0,0.0,0.0,0.0,0,0,0,0,0,0,0,1,1,1,0,3,1,0,0
276381147,0.47552708,-3.9374954e-06,0.6081469,0.50258976,0.0,0.0,0.0,0.0,0.0,0.0,0.0,0,0,0,0,0,0,0,1,1,1,0,3,1,0,0
276405109,0.4858305,-5.0631384e-06,0.6079122,0.5096906,0.0,0.0,0.0,0.0,0.0,0.0,0.0,0,0,0,0,0,0,0,1,1,1,0,3,1,0,0
276429184,0.48041046,-1.0999443e-06,0.6080483,0.49598557,0.0,0.0,0.0,0.0,0.0,0.0,0.0,0,0,0,0,0,0,0,1,1,1,0,3,1,0,0
276452942,0.48142838,5.849828e-07,0.60839343,0.48851815,0.0,0.0,0.0,0.0,0.0,0.0,0.0,0,0,0,0,0,0,0,1,1,1,0,3,1,0,0
276477362,0.46573552,4.3155345e-07,0.60824543,0.47224066,0.0,0.0,0.0,0.0,0.0,0.0,0.0,0,0,0,0,0,0,0,1,1,1,0,3,1,0,0
276500956,0.40733847,4.4921933e-08,0.6078743,0.4084503,0.0,0.0,0.0,0.0,0.0,0.0,0.0,0,0,0,0,0,0,0,1,1,1,0,3,1,0,0
276525130,0.2991495,-6.790506e-08,0.608015,0.28984243,0.0,0.0,0.0,0.0,0.0,0.0,0.0,0,0,0,0,0,0,0,1,1,1,0,3,1,0,0
276549399,0.14716639,-3.3889194e-08,0.6081397,0.14509255,0.0,0.0,0.0,0.0,0.0,0.0,0.0,0,0,0,0,0,0,0,1,1,1,0,3,1,0,0
276571565,0.020491702,7.738983e-10,0.6076605,0.026731905,0.0,0.0,0.0,0.0,0.0,0.0,0.0,0,0,0,0,0,0,0,1,1,1,0,3,1,0,0
276592156,-0.02124525,6.922013e-09,0.60721004,-0.018533235,0.0,0.0,0.0,0.0,0.0,0.0,0.0,0,0,0,0,0,0,0,1,1,1,0,3,1,0,0
276613163,-0.011863296,2.4063311e-09,0.6071375,-0.012083061,0.0,0.0,0.0,0.0,0.0,0.0,0.0,0,0,0,0,0,0,0,1,1,1,0,3,1,0,0
276632337,-0.00022365717,-4.6623394e-10,0.60719883,-0.00083592196,0.0,0.0,0.0,0.0,0.0,0.0,0.0,0,0,0,0,0,0,0,1,1,1,0,3,1,0,0
276656330,0.0022403724,-6.434836e-10,0.6072357,0.0020571575,0.0,0.0,0.0,0.0,0.0,0.0,0.0,0,0,0,0,0,0,0,1,1,1,0,3,1,0,0
276680356,0.0008716742,-1.464888e-10,0.6074862,0.0009238624,0.0,0.0,0.0,0.0,0.0,0.0,0.0,0,0,0,0,0,0,0,1,1,1,0,3,1,0,0
276704186,-0.000116592724,7.18726e-11,0.6080693,-6.143141e-05,0.0,0.0,0.0,0.0,0.0,0.0,0.0,0,0,0,0,0,0,0,1,1,1,0,3,1,0,0
276728312,-0.0002137717,5.5243688e-11,0.6084846,-0.00020360736,0.0,0.0,0.0,0.0,0.0,0.0,0.0,0,0,0,0,0,0,0,1,1,1,0,3,1,0,0
276752118,-5.616378e-05,6.3402664e-12,0.60827506,-6.3209234e-05,0.0,0.0,0.0,0.0,0.0,0.0,0.0,0,0,0,0,0,0,0,1,1,1,0,3,1,0,0
276776335,2.110581e-05,-8.474682e-12,0.60786736,1.6511984e-05,0.0,0.0,0.0,0.0,0.0,0.0,0.0,0,0,0,0,0,0,0,1,1,1,0,3,1,0,0
276800354,1.8796922e-05,-4.3731494e-12,0.6080066,1.847899e-05,0.0,0.0,0.0,0.0,0.0,0.0,0.0,0,0,0,0,0,0,0,1,1,1,0,3,1,0,0
276824333,2.8131265e-06,4.3477883e-14,0.6081379,3.5951844e-06,0.0,0.0,0.0,0.0,0.0,0.0,0.0,0,0,0,0,0,0,0,1,1,1,0,3,1,0,0
276848368,-2.641206e-06,8.723976e-13,0.6079103,-2.2899578e-06,0.0,0.0,0.0,0.0,0.0,0.0,0.0,0,0,0,0,0,0,0,1,1,1,0,3,1,0,0
276872160,-1.526852e-06,3.1386102e-13,0.60804933,-1.5501954e-06,0.0,0.0,0.0,0.0,0.0,0.0,0.0,0,0,0,0,0,0,0,1,1,1,0,3,1,0,0
276895340,-4.7023743e-08,-5.4848958e-14,0.6081453,-1.2442966e-07,0.0,0.0,0.0,0.0,0.0,0.0,0.0,0,0,0,0,0,0,0,1,1,1,0,3,1,0,0
276915340,2.8160505e-07,-8.1727106e-14,0.60765576,2.5757245e-07,0.0,0.0,0.0,0.0,0.0,0.0,0.0,0,0,0,0,0,0,0,1,1,1,0,3,1,0,0
276939325,1.1326872e-07,-1.9460106e-14,0.6074561,1.1954533e-07,0.0,0.0,0.0,0.0,0.0,0.0,0.0,0,0,0,0,0,0,0,1,1,1,0,3,1,0,0
276959330,-1.3286812e-08,8.812412e-15,0.6079759,-6.2614802e-09,0.0,0.0,0.0,0.0,0.0,0.0,0.0,0,0,0,0,0,0,0,1,1,1,0,3,1,0,0
276983397,-2.7089635e-08,7.0670208e-15,0.608456,-2.5722642e-08,0.0,0.0,0.0,0.0,0.0,0.0,0.0,0,0,0,0,0,0,0,1,1,1,0,3,1,0,0
277008105,-7.408593e-09,8.8584807e-16,0.6085316,-8.2791205e-09,0.0,0.0,0.0,0.0,0.0,0.0,0.0,0,0,0,0,0,0,0,1,1,1,0,3,1,0,0
277031314,2.5668996e-09,-1.0564887e-15,0.60821664,0.013670215,0.0,0.0,0.0,0.0,0.0,0.0,0.0,0,0,0,0,0,0,0,1,1,1,0,3,1,0,0
277055518,-0.012595858,-5.6386433e-16,0.6078366,0.044543248,0.0,0.0,0.0,0.0,0.0,0.0,0.0,0,0,0,0,0,0,0,1,1,1,0,3,1,0,0
277080138,-0.04294593,-1.486139e-18,0.6080067,0.072514385,0.0,0.0,0.0,0.0,0.0,0.0,0.0,0,0,0,0,0,0,0,1,1,1,0,3,1,0,0
277103358,-0.08343621,1.09864316e-16,0.6083929,0.12034723,0.0,0.0,0.0,0.0,0.0,0.0,0.0,0,0,0,0,0,0,0,1,1,1,0,3,1,0,0
277127510,-0.13880822,4.0888868e-17,0.60850227,0.2059597,0.0,0.0,0.0,0.0,0.0,0.0,0.0,0,0,0,0,0,0,0,1,1,1,0,3,1,0,0
277147560,-0.21734336,-6.403609e-18,0.60846704,0.3001246,0.0,0.0,0.0,0.0,0.0,0.0,0.0,0,0,0,0,0,0,0,1,1,1,0,3,1,0,0
277170578,-0.31915805,-1.0372991e-17,0.6084326,0.39308986,0.0,0.0,0.0,0.0,0.0,0.0,0.0,0,0,0,0,0,0,0,1,1,1,0,3,1,0,0
277194715,-0.41546658,-2.5791754e-18,0.6081779,0.46925429,0.0,0.0,0.0,0.0,0.0,0.0,0.0,0,0,0,0,0,0,0,1,1,1,0,3,1,0,0
277214790,-0.47192892,1.078119e-18,0.60759276,0.5055229,0.0,0.0,0.0,0.0,0.0,0.0,0.0,0,0,0,0,0,0,0,1,1,1,0,3,1,0,0
277238730,-0.48753807,9.034375e-19,0.60742646,0.5126181,0.0,0.0,0.0,0.0,0.0,0.0,0.0,0,0,0,0,0,0,0,1,1,1,0,3,1,0,0
277262746,-0.48476902,1.2273212e-19,0.6077284,0.51623887,0.0,0.0,0.0,0.0,0.0,0.0,0.0,0,0,0,0,0,0,0,1,1,1,0,3,1,0,0
277286541,-0.4796816,-1.3155438e-19,0.6078726,0.5263136,0.0,0.0,0.0,0.0,0.0,0.0,0.0,0,0,0,0,0,0,0,1,1,1,0,3,1,0,0
277310761,-0.47380936,-7.2645806e-20,0.6078667,0.5364157,0.0,0.0,0.0,0.0,0.0,0.0,0.0,0,0,0,0,0,0,0,1,1,1,0,3,1,0,0
277334733,-0.46810114,-1.0841907e-21,0.60758746,0.5417201,0.0,0.0,0.0,0.0,0.0,0.0,0.0,0,0,0,0,0,0,0,1,1,1,0,3,1,0,0
277358636,-0.46462253,1.3824552e-20,0.6074854,0.54271466,0.0,0.0,0.0,0.0,0.0,0.0,0.0,0,0,0,0,0,0,0,1,1,1,0,3,1,0,0
277382948,-0.4644548,5.3208506e-21,0.60800016,0.5420435,0.0,0.0,0.0,0.0,0.0,0.0,0.0,0,0,0,0,0,0,0,1,1,1,0,3,1,0,0
277406560,-0.46608162,-7.4086514e-22,0.60845923,0.5416007,0.0,0.0,0.0,0.0,0.0,0.0,0.0,0,0,0,0,0,0,0,1,1,1,0,3,1,0,0
277430533,-0.46822715,-1.315676e-21,0.60827917,0.54055595,0.0,0.0,0.0,0.0,0.0,0.0,0.0,0,0,0,0,0,0,0,1,1,1,0,3,1,0,0
277454617,-0.4697091,-3.4110505e-22,0.607625,0.5382313,0.0,0.0,0.0,0.0,0.0,0.0,0.0,0,0,0,0,0,0,0,1,1,1,0,3,1,0,0
277478209,-0.47034043,1.315824e-22,0.6071697,0.53656423,0.0,0.0,0.0,0.0,0.0,0.0,0.0,0,0,0,0,0,0,0,1,1,1,0,3,1,0,0
277501780,-0.47229886,1.15417e-22,0.6073783,0.53589714,0.0,0.0,0.0,0.0,0.0,0.0,0.0,0,0,0,0,0,0,0,1,1,1,0,3,1,0,0
277525949,-0.4754181,1.688383e-23,0.60804236,0.53445816,0.0,0.0,0.0,0.0,0.0,0.0,0.0,0,0,0,0,0,0,0,1,1,1,0,3,1,0,0
277549912,-0.47719494,-1.6361428e-23,0.6084958,0.53304446,0.0,0.0,0.0,0.0,0.0,0.0,0.0,0,0,0,0,0,0,0,1,1,1,0,3,1,0,0
277573725,-0.47673687,-9.352113e-24,0.60853326,0.5333101,0.0,0.0,0.0,0.0,0.0,0.0,0.0,0,0,0,0,0,0,0,1,1,1,0,3,1,0,0
277598171,-0.47621968,-2.5203588e-25,0.6082095,0.5336851,0.0,0.0,0.0,0.0,0.0,0.0,0.0,0,0,0,0,0,0,0,1,1,1,0,3,1,0,0
277621772,-0.4766221,1.7381566e-24,0.6075847,0.5327591,0.0,0.0,0.0,0.0,0.0,0.0,0.0,0,0,0,0,0,0,0,1,1,1,0,3,1,0,0
277641759,-0.47636822,6.916488e-25,0.6074173,0.53234345,0.0,0.0,0.0,0.0,0.0,0.0,0.0,0,0,0,0,0,0,0,1,1,1,0,3,1,0,0
277661789,-0.4756918,-8.477529e-26,0.6079755,0.5333838,0.0,0.0,0.0,0.0,0.0,0.0,0.0,0,0,0,0,0,0,0,1,1,1,0,3,1,0,0
277685726,-0.47549155,-1.667625e-25,0.6084634,0.5343559,0.0,0.0,0.0,0.0,0.0,0.0,0.0,0,0,0,0,0,0,0,1,1,1,0,3,1,0,0
277705730,-0.47555003,-4.5022954e-26,0.60853446,0.5345114,0.0,0.0,0.0,0.0,0.0,0.0,0.0,0,0,0,0,0,0,0,1,1,1,0,3,1,0,0
277729929,-0.47611463,1.6017508e-26,0.6082163,0.5338722,0.0,0.0,0.0,0.0,0.0,0.0,0.0,0,0,0,0,0,0,0,1,1,1,0,3,1,0,0
277749942,-0.4773195,1.4735107e-26,0.60758704,0.53259295,0.0,0.0,0.0,0.0,0.0,0.0,0.0,0,0,0,0,0,0,0,1,1,1,0,3,1,0,0
277772946,-0.47765422,2.3085437e-27,0.6071679,0.53173906,0.0,0.0,0.0,0.0,0.0,0.0,0.0,0,0,0,0,0,0,0,1,1,1,0,3,1,0,0
277792841,-0.47653425,-2.0322956e-27,0.60713625,0.531674,0.0,0.0,0.0,0.0,0.0,0.0,0.0,0,0,0,0,0,0,0,1,1,1,0,3,1,0,0
277813109,-0.475551,-1.2030377e-27,0.6074555,0.53232354,0.0,0.0,0.0,0.0,0.0,0.0,0.0,0,0,0,0,0,0,0,1,1,1,0,3,1,0,0
277836862,-0.47540703,-4.6599822e-29,0.6080774,0.5335889,0.0,0.0,0.0,0.0,0.0,0.0,0.0,0,0,0,0,0,0,0,1,1,1,0,3,1,0,0
277856980,-0.47554633,2.1835378e-28,0.60849357,0.5344356,0.0,0.0,0.0,0.0,0.0,0.0,0.0,0,0,0,0,0,0,0,1,1,1,0,3,1,0,0
277877167,-0.47612983,8.981265e-29,0.6082767,0.53399444,0.0,0.0,0.0,0.0,0.0,0.0,0.0,0,0,0,0,0,0,0,1,1,1,0,3,1,0,0
277900956,-0.47732586,-9.568879e-30,0.6076174,0.532653,0.0,0.0,0.0,0.0,0.0,0.0,0.0,0,0,0,0,0,0,0,1,1,1,0,3,1,0,0
277920989,-0.47714975,-2.112269e-29,0.6074162,0.5322436,0.0,0.0,0.0,0.0,0.0,0.0,0.0,0,0,0,0,0,0,0,1,1,1,0,3,1,0,0
277942161,-0.4748351,-5.931673e-30,0.60771984,0.53286135,0.0,0.0,0.0,0.0,0.0,0.0,0.0,0,0,0,0,0,0,0,1,1,1,0,3,1,0,0
277964918,-0.47300664,1.9442398e-30,0.6078714,0.5331698,0.0,0.0,0.0,0.0,0.0,0.0,0.0,0,0,0,0,0,0,0,1,1,1,0,3,1,0,0
277985155,-0.47278416,1.8799642e-30,0.60811687,0.5336691,0.0,0.0,0.0,0.0,0.0,0.0,0.0,0,0,0,0,0,0,0,1,1,1,0,3,1,0,0
278005141,-0.47306,3.1398529e-31,0.60842675,0.5337932,0.0,0.0,0.0,0.0,0.0,0.0,0.0,0,0,0,0,0,0,0,1,1,1,0,3,1,0,0
278028970,-0.4732055,-2.5210042e-31,0.60849315,0.533235,0.0,0.0,0.0,0.0,0.0,0.0,0.0,0,0,0,0,0,0,0,1,1,1,0,3,1,0,0
278053141,-0.4727014,-1.5464123e-31,0.6084571,0.53351074,0.0,0.0,0.0,0.0,0.0,0.0,0.0,0,0,0,0,0,0,0,1,1,1,0,3,1,0,0
278076952,-0.4719828,-7.7789264e-33,0.60818183,0.5337219,0.0,0.0,0.0,0.0,0.0,0.0,0.0,0,0,0,0,0,0,0,1,1,1,0,3,1,0,0
278100379,-0.47181597,2.740666e-32,0.6078383,0.53323966,0.0,0.0,0.0,0.0,0.0,0.0,0.0,0,0,0,0,0,0,0,1,1,1,0,3,1,0,0
278124312,-0.47189507,1.1650743e-32,0.6077653,0.5330201,0.0,0.0,0.0,0.0,0.0,0.0,0.0,0,0,0,0,0,0,0,1,1,1,0,3,1,0,0
278148253,-0.4724608,-1.0613873e-33,0.60780555,0.53303343,0.0,0.0,0.0,0.0,0.0,0.0,0.0,0,0,0,0,0,0,0,1,1,1,0,3,1,0,0
278172205,-0.47265434,-2.6736103e-33,0.6080836,0.53358763,0.0,0.0,0.0,0.0,0.0,0.0,0.0,0,0,0,0,0,0,0,1,1,1,0,3,1,0,0
278196142,-0.47160742,-7.801356e-34,0.60842735,0.53429615,0.0,0.0,0.0,0.0,0.0,0.0,0.0,0,0,0,0,0,0,0,1,1,1,0,3,1,0,0
278220183,-0.47118264,2.3525354e-34,0.60849994,0.5344494,0.0,0.0,0.0,0.0,0.0,0.0,0.0,0,0,0,0,0,0,0,1,1,1,0,3,1,0,0
278240027,-0.47173452,2.396954e-34,0.6084594,0.5343673,0.0,0.0,0.0,0.0,0.0,0.0,0.0,0,0,0,0,0,0,0,1,1,1,0,3,1,0,0
278826743,-0.00046526332,-3.27e-43,0.6082459,-4.4095534e-05,0.0,0.0,0.0,0.0,0.0,0.0,0.0,0,0,0,0,0,0,0,1,1,1,0,3,1,0,0
278850752,-7.472404e-05,-2.8e-44,0.60769385,-2.745571e-05,0.0,0.0,0.0,0.0,0.0,0.0,0.0,0,0,0,0,0,0,0,1,1,1,0,3,1,0,0
279113964,-1.0144628e-08,0.0,0.6084344,-3.5255834e-09,0.0,0.0,0.0,0.0,0.0,0.0,0.0,0,0,0,0,0,0,0,1,1,1,0,3,1,0,0
279137778,7.872023e-09,0.0,0.6084337,-2.3385463e-10,0.0,0.0,0.0,0.0,0.0,0.0,0.0,0,0,0,0,0,0,0,1,1,1,0,3,1,0,0
279162573,4.8954045e-09,0.0,0.60818475,6.0394895e-10,0.0,0.0,0.0,0.0,0.0,0.0,0.0,0,0,0,0,0,0,0,1,1,1,0,3,1,0,0
279185927,2.675194e-10,0.0,0.607844,2.68968e-10,0.0,0.0,0.0,0.0,0.0,0.0,0.0,0,0,0,0,0,0,0,1,1,1,0,3,1,0,0
279209921,-8.597414e-10,0.0,0.60801566,-1.8871685e-11,0.0,0.0,0.0,0.0,0.0,0.0,0.0,0,0,0,0,0,0,0,1,1,1,0,3,1,0,0
279234545,-3.7008235e-10,0.0,0.60814583,-5.9641764e-11,0.0,0.0,0.0,0.0,0.0,0.0,0.0,0,0,0,0,0,0,0,1,1,1,0,3,1,0,0
279257924,3.1595355e-11,0.0,0.6079114,-1.8343885e-11,0.0,0.0,0.0,0.0,0.0,0.0,0.0,0,0,0,0,0,0,0,1,1,1,0,3,1,0,0
279281758,8.414328e-11,0.0,0.60779935,4.900229e-12,0.0,0.0,0.0,0.0,0.0,0.0,0.0,0,0,0,0,0,0,0,1,1,1,0,3,1,0,0
279305788,2.490637e-11,0.0,0.6078038,5.4027893e-12,0.0,0.0,0.0,0.0,0.0,0.0,0.0,0,0,0,0,0,0,0,1,1,1,0,3,1,0,0
279325138,-7.272995e-12,0.0,0.6080763,1.0369359e-12,0.0,0.0,0.0,0.0,0.0,0.0,0.0,0,0,0,0,0,0,0,1,1,1,0,3,1,0,0
279348920,-7.564629e-12,0.0,0.60842496,-6.7477496e-13,0.0,0.0,0.0,0.0,0.0,0.0,0.0,0,0,0,0,0,0,0,1,1,1,0,3,1,0,0
279369129,-1.3711696e-12,0.0,0.60825163,-4.5239604e-13,0.0,0.0,0.0,0.0,0.0,0.0,0.0,0,0,0,0,0,0,0,1,1,1,0,3,1,0,0
279389401,9.745886e-13,0.0,0.6078704,-3.5041126e-14,0.0,0.0,0.0,0.0,0.0,0.0,0.0,0,0,0,0,0,0,0,1,1,1,0,3,1,0,0
279413929,6.286336e-13,0.0,0.6080124,7.56376e-14,0.0,0.0,0.0,0.0,0.0,0.0,0.0,0,0,0,0,0,0,0,1,1,1,0,3,1,0,0
279433027,4.145749e-14,0.0,0.6081395,3.481176e-14,0.0,0.0,0.0,0.0,0.0,0.0,0.0,0,0,0,0,0,0,0,1,1,1,0,3,1,0,0
279453110,-1.0777666e-13,0.0,0.6079098,-1.9471384e-15,0.0,0.0,0.0,0.0,0.0,0.0,0.0,0,0,0,0,0,0,0,1,1,1,0,3,1,0,0
279473128,-4.7944443e-14,0.0,0.60804886,-7.53621e-15,0.0,0.0,0.0,0.0,0.0,0.0,0.0,0,0,0,0,0,0,0,1,1,1,0,3,1,0,0
279497132,3.387586e-15,0.0,0.60839415,-2.4035549e-15,0.0,0.0,0.0,0.0,0.0,0.0,0.0,0,0,0,0,0,0,0,1,1,1,0,3,1,0,0
279521732,1.0640081e-14,0.0,0.60849446,5.875295e-16,0.0,0.0,0.0,0.0,0.0,0.0,0.0,0,0,0,0,0,0,0,1,1,1,0,3,1,0,0
279545237,3.268457e-15,0.0,0.60846394,6.8776195e-16,0.0,0.0,0.0,0.0,0.0,0.0,0.0,0,0,0,0,0,0,0,1,1,1,0,3,1,0,0
279568127,-8.7571094e-16,0.0,0.6081841,1.3909929e-16,0.0,0.0,0.0,0.0,0.0,0.0,0.0,0,0,0,0,0,0,0,1,1,1,0,3,1,0,0
279593033,-9.636143e-16,0.0,0.60758895,-8.3273616e-17,0.0,0.0,0.0,0.0,0.0,0.0,0.0,0,0,0,0,0,0,0,1,1,1,0,3,1,0,0
279616336,-1.8460382e-16,0.0,0.60742384,-5.800969e-17,0.0,0.0,0.0,0.0,0.0,0.0,0.0,0,0,0,0,0,0,0,1,1,1,0,3,1,0,0
279640558,1.2047469e-16,0.0,0.6079771,-5.1298818e-18,0.0,0.0,0.0,0.0,0.0,0.0,0.0,0,0,0,0,0,0,0,1,1,1,0,3,1,0,0
279665392,8.0667004e-17,0.0,0.6082139,9.46358e-18,0.0,0.0,0.0,0.0,0.0,0.0,0.0,0,0,0,0,0,0,0,1,1,1,0,3,1,0,0
279688302,6.2178174e-18,0.0,0.60794413,4.5015624e-18,0.0,0.0,0.0,0.0,0.0,0.0,0.0,0,0,0,0,0,0,0,1,1,1,0,3,1,0,0
279712120,-1.3498214e-17,0.0,0.608047,-1.8966767e-19,0.0,0.0,0.0,0.0,0.0,0.0,0.0,0,0,0,0,0,0,0,1,1,1,0,3,1,0,0
279732110,-6.205504e-18,0.0,0.6083867,-9.51564e-19,0.0,0.0,0.0,0.0,0.0,0.0,0.0,0,0,0,0,0,0,0,1,1,1,0,3,1,0,0
279756111,3.500596e-19,0.0,0.6082432,-3.144889e-19,0.0,0.0,0.0,0.0,0.0,0.0,0.0,0,0,0,0,0,0,0,1,1,1,0,3,1,0,0
279780594,1.3444917e-18,0.0,0.6076259,7.0118957e-20,0.0,0.0,0.0,0.0,0.0,0.0,0.0,0,0,0,0,0,0,0,1,1,1,0,3,1,0,0
279804333,4.2827925e-19,0.0,0.60742587,8.749274e-20,0.0,0.0,0.0,0.0,0.0,0.0,0.0,0,0,0,0,0,0,0,1,1,1,0,3,1,0,0
279828375,-1.0501176e-19,0.0,0.6079706,1.8600558e-20,0.0,0.0,0.0,0.0,0.0,0.0,0.0,0,0,0,0,0,0,0,1,1,1,0,3,1,0,0
279848403,-1.226685e-19,0.0,0.60845995,-1.025904e-20,0.0,0.0,0.0,0.0,0.0,0.0,0.0,0,0,0,0,0,0,0,1,1,1,0,3,1,0,0
279872359,-2.4766405e-20,0.0,0.6085341,-7.433277e-21,0.0,0.0,0.0,0.0,0.0,0.0,0.0,0,0,0,0,0,0,0,1,1,1,0,3,1,0,0
279895585,1.4868559e-20,0.0,0.6082168,-7.3791725e-22,0.0,0.0,0.0,0.0,0.0,0.0,0.0,0,0,0,0,0,0,0,1,1,1,0,3,1,0,0
279919573,1.0343989e-20,0.0,0.6078362,1.1828718e-21,0.0,0.0,0.0,0.0,0.0,0.0,0.0,0,0,0,0,0,0,0,1,1,1,0,3,1,0,0
279943512,9.108882e-22,0.0,0.60800654,5.8159915e-22,0.0,0.0,0.0,0.0,0.0,0.0,0.0,0,0,0,0,0,0,0,1,1,1,0,3,1,0,0
279967383,-1.6889174e-21,0.0,0.60839283,-1.6708151e-23,0.0,0.0,0.0,0.0,0.0,0.0,0.0,0,0,0,0,0,0,0,1,1,1,0,3,1,0,0
279988335,-8.024673e-22,0.0,0.60850227,-1.2006036e-22,0.0,0.0,0.0,0.0,0.0,0.0,0.0,0,0,0,0,0,0,0,1,1,1,0,3,1,0,0
280011294,3.4183066e-23,0.0,0.60846704,-4.109386e-23,0.0,0.0,0.0,0.0,0.0,0.0,0.0,0,0,0,0,0,0,0,1,1,1,0,3,1,0,0
280035358,1.6976727e-22,0.0,0.60818374,8.324405e-24,0.0,0.0,0.0,0.0,0.0,0.0,0.0,0,0,0,0,0,0,0,1,1,1,0,3,1,0,0
280060450,5.6040054e-23,0.0,0.6075882,1.11229175e-23,0.0,0.0,0.0,0.0,0.0,0.0,0.0,0,0,0,0,0,0,0,1,1,1,0,3,1,0,0
280083620,-1.25347726e-23,0.0,0.6074236,2.4801718e-24,0.0,0.0,0.0,0.0,0.0,0.0,0.0,0,0,0,0,0,0,0,1,1,1,0,3,1,0,0
280107397,-1.5605463e-23,0.0,0.6077283,-1.2615508e-24,0.0,0.0,0.0,0.0,0.0,0.0,0.0,0,0,0,0,0,0,0,1,1,1,0,3,1,0,0
280132333,-3.312138e-24,0.0,0.6078731,-9.51834e-25,0.0,0.0,0.0,0.0,0.0,0.0,0.0,0,0,0,0,0,0,0,1,1,1,0,3,1,0,0
280151559,1.8318695e-24,0.0,0.60811585,-1.0469714e-25,0.0,0.0,0.0,0.0,0.0,0.0,0.0,0,0,0,0,0,0,0,1,1,1,0,3,1,0,0
280174544,1.3254944e-24,0.0010027773,0.6081771,-0.0045124977,0.0,0.0,0.0,0.0,0.0,0.0,0.0,0,0,0,0,0,0,0,1,1,1,0,3,1,0,0
280198779,0.007557516,0.002376108,0.6079034,-0.028742477,0.0,0.0,0.0,0.0,0.0,0.0,0.0,0,0,0,0,0,0,0,1,1,1,0,3,1,0,0
280222580,0.045618635,0.0016844544,0.60779023,-0.087452754,0.0,0.0,0.0,0.0,0.0,0.0,0.0,0,0,0,0,0,0,0,1,1,1,0,3,1,0,0
280246568,0.111609824,0.00015717247,0.60780203,-0.17409621,0.0,0.0,0.0,0.0,0.0,0.0,0.0,0,0,0,0,0,0,0,1,1,1,0,3,1,0,0
280266529,0.15978013,-0.0002717631,0.6080774,-0.2497697,0.0,0.0,0.0,0.0,0.0,0.0,0.0,0,0,0,0,0,0,0,1,1,1,0,3,1,0,0
280290550,0.20798802,-0.00013120072,0.6081769,-0.30137944,0.0,0.0,0.0,0.0,0.0,0.0,0.0,0,0,0,0,0,0,0,1,1,1,0,3,1,0,0
280311317,0.2919448,4.733246e-06,0.60766196,-0.35075757,0.0,0.0,0.0,0.0,0.0,0.0,0.0,0,0,0,0,0,0,0,1,1,1,0,3,1,0,0
280334739,0.3825546,2.7440226e-05,0.6074522,-0.39098698,0.0,0.0,0.0,0.0,0.0,0.0,0.0,0,0,0,0,0,0,0,1,1,1,0,3,1,0,0
280359039,0.46610346,9.213068e-06,0.60772437,-0.4162394,0.0,0.0,0.0,0.0,0.0,0.0,0.0,0,0,0,0,0,0,0,1,1,1,0,3,1,0,0
280383323,0.51802945,-1.9687477e-06,0.6076172,-0.430228,0.0,0.0,0.0,0.0,0.0,0.0,0.0,0,0,0,0,0,0,0,1,1,1,0,3,1,0,0
280406814,0.5213612,-2.5315692e-06,0.60727537,-0.43546623,0.0,0.0,0.0,0.0,0.0,0.0,0.0,0,0,0,0,0,0,0,1,1,1,0,3,1,0,0
280430742,0.50688225,-5.499721e-07,0.60741895,-0.43917522,0.0,0.0,0.0,0.0,0.0,0.0,0.0,0,0,0,0,0,0,0,1,1,1,0,3,1,0,0
280455507,0.49836034,2.924914e-07,0.60803664,-0.44052282,0.0,0.0,0.0,0.0,0.0,0.0,0.0,0,0,0,0,0,0,0,1,1,1,0,3,1,0,0
280477935,0.49754262,2.1577672e-07,0.6084857,-0.43979317,0.0,0.0,0.0,0.0,0.0,0.0,0.0,0,0,0,0,0,0,0,1,1,1,0,3,1,0,0
280498451,0.4979015,2.2460966e-08,0.6085307,-0.4392596,0.0,0.0,0.0,0.0,0.0,0.0,0.0,0,0,0,0,0,0,0,1,1,1,0,3,1,0,0
280518535,0.49819425,-3.395253e-08,0.60845935,-0.43920532,0.0,0.0,0.0,0.0,0.0,0.0,0.0,0,0,0,0,0,0,0,1,1,1,0,3,1,0,0
280538742,0.49923983,-1.6944597e-08,0.6084242,-0.43878835,0.0,0.0,0.0,0.0,0.0,0.0,0.0,0,0,0,0,0,0,0,1,1,1,0,3,1,0,0
280563484,0.50158423,3.8694914e-10,0.60842514,-0.43714076,0.0,0.0,0.0,0.0,0.0,0.0,0.0,0,0,0,0,0,0,0,1,1,1,0,3,1,0,0
280585770,0.5062765,3.4610066e-09,0.6084324,-0.43410665,0.0,0.0,0.0,0.0,0.0,0.0,0.0,0,0,0,0,0,0,0,1,1,1,0,3,1,0,0
280609951,0.5105743,1.2031656e-09,0.6084349,-0.43130255,0.0,0.0,0.0,0.0,0.0,0.0,0.0,0,0,0,0,0,0,0,1,1,1,0,3,1,0,0
280634967,0.5112436,-2.3311697e-10,0.6081855,-0.4308605,0.0,0.0,0.0,0.0,0.0,0.0,0.0,0,0,0,0,0,0,0,1,1,1,0,3,1,0,0
280657778,0.51014555,-3.217418e-10,0.60759515,-0.43174762,0.0,0.0,0.0,0.0,0.0,0.0,0.0,0,0,0,0,0,0,0,1,1,1,0,3,1,0,0
280681993,0.51061636,-7.32444e-11,0.6074258,-0.4311592,0.0,0.0,0.0,0.0,0.0,0.0,0.0,0,0,0,0,0,0,0,1,1,1,0,3,1,0,0
280706746,0.51302075,3.59363e-11,0.6079766,-0.4287625,0.0,0.0,0.0,0.0,0.0,0.0,0.0,0,0,0,0,0,0,0,1,1,1,0,3,1,0,0
280730158,0.5148247,2.7621844e-11,0.6082133,-0.42749065,0.0,0.0,0.0,0.0,0.0,0.0,0.0,0,0,0,0,0,0,0,1,1,1,0,3,1,0,0
280753108,0.51703584,3.1701332e-12,0.607944,-0.4244817,0.0,0.0,0.0,0.0,0.0,0.0,0.0,0,0,0,0,0,0,0,1,1,1,0,3,1,0,0
280777942,0.52203417,-4.237341e-12,0.6077982,-0.4115855,0.0,0.0,0.0,0.0,0.0,0.0,0.0,0,0,0,0,0,0,0,1,1,1,0,3,1,0,0
280801373,0.5103485,-2.1865747e-12,0.607797,-0.38685226,0.0,0.0,0.0,0.0,0.0,0.0,0.0,0,0,0,0,0,0,0,1,1,1,0,3,1,0,0
280825118,0.45617968,2.1738941e-14,0.608074,-0.34965324,0.0,0.0,0.0,0.0,0.0,0.0,0.0,0,0,0,0,0,0,0,1,1,1,0,3,1,0,0
280849992,0.3724487,4.361988e-13,0.60693216,-0.29612672,0.0,0.0,0.0,0.0,0.0,0.0,0.0,0,0,0,0,0,0,0,1,1,1,0,3,1,0,0
280873145,0.28661647,1.5693051e-13,0.6049627,-0.22747585,0.0,0.0,0.0,0.0,0.0,0.0,0.0,0,0,0,0,0,0,0,1,1,1,0,3,1,0,0
280897189,0.19773515,-2.7424479e-14,0.60570294,-0.14690691,0.0,0.0,0.0,0.0,0.0,0.0,0.0,0,0,0,0,0,0,0,1,1,1,0,3,1,0,0
280921948,0.11116156,-4.0863553e-14,0.60760653,-0.06539689,0.0,0.0,0.0,0.0,0.0,0.0,0.0,0,0,0,0,0,0,0,1,1,1,0,3,1,0,0
280945209,0.047702674,-9.730053e-15,0.6084139,-0.010440911,0.0,0.0,0.0,0.0,0.0,0.0,0.0,0,0,0,0,0,0,0,1,1,1,0,3,1,0,0
280969179,0.008959954,4.406206e-15,0.60858834,0.0069419835,0.0,0.0,0.0,0.0,0.0,0.0,0.0,0,0,0,0,0,0,0,1,1,1,0,3,1,0,0
280994206,-0.0060299863,3.5335104e-15,0.60824585,0.0046097464,0.0,0.0,0.0,0.0,0.0,0.0,0.0,0,0,0,0,0,0,0,1,1,1,0,3,1,0,0
281017143,-0.003982744,4.4292404e-16,0.6078363,0.0003440775,0.0,0.0,0.0,0.0,0.0,0.0,0.0,0,0,0,0,0,0,0,1,1,1,0,3,1,0,0
281041129,-0.00029096642,-5.2824437e-16,0.6080009,-0.00077551475,0.0,0.0,0.0,0.0,0.0,0.0,0.0,0,0,0,0,0,0,0,1,1,1,0,3,1,0,0
281065204,0.00067236385,-2.8193216e-16,0.6081419,-0.0003539496,0.0,0.0,0.0,0.0,0.0,0.0,0.0,0,0,0,0,0,0,0,1,1,1,0,3,1,0,0
281088332,0.0003054326,-7.430695e-19,0.6079129,2.1063948e-05,0.0,0.0,0.0,0.0,0.0,0.0,0.0,0,0,0,0,0,0,0,1,1,1,0,3,1,0,0
281108337,-0.014629993,5.4932158e-17,0.60780066,7.7092605e-05,0.0,0.0,0.0,0.0,0.0,0.0,0.0,0,0,0,0,0,0,0,1,1,1,0,3,1,0,0
281132110,-0.038719065,2.0444434e-17,0.607804,0.0030621884,0.0,0.0,0.0,0.0,0.0,0.0,0.0,0,0,0,0,0,0,0,1,1,1,0,3,1,0,0
281152108,-0.036130853,-3.2018046e-18,0.6080761,0.008204725,0.0,0.0,0.0,0.0,0.0,0.0,0.0,0,0,0,0,0,0,0,1,1,1,0,3,1,0,0
281173166,-0.015846223,-5.1864956e-18,0.6084249,0.008507895,0.0,0.0,0.0,0.0,0.0,0.0,0.0,0,0,0,0,0,0,0,1,1,1,0,3,1,0,0
281196202,-0.0058343047,-0.0020252168,0.60825163,0.0045751105,0.0,0.0,0.0,0.0,0.0,0.0,0.0,0,0,0,0,0,0,0,1,1,1,0,3,1,0,0
281216360,-0.0030836705,-0.020494238,0.6078704,0.0010372568,0.0,0.0,0.0,0.0,0.0,0.0,0.0,0,0,0,0,0,0,0,1,1,1,0,3,1,0,0
281240356,-0.0010047207,-0.05983225,0.6080124,-0.0005125838,0.0,0.0,0.0,0.0,0.0,0.0,0.0,0,0,0,0,0,0,0,1,1,1,0,3,1,0,0
281264125,0.00023255948,-0.09758632,0.60838836,-0.00039252487,0.0,0.0,0.0,0.0,0.0,0.0,0.0,0,0,0,0,0,0,0,1,1,1,0,3,1,0,0
281288213,0.00028267715,-0.12408665,0.6082506,-4.4676683e-05,0.0,0.0,0.0,0.0,0.0,0.0,0.0,0,0,0,0,0,0,0,1,1,1,0,3,1,0,0
281308172,5.8918115e-05,-0.14521965,0.6078772,6.0353286e-05,0.0,0.0,0.0,0.0,0.0,0.0,0.0,0,0,0,0,0,0,0,1,1,1,0,3,1,0,0
281332115,-3.358078e-05,-0.16606665,0.6035352,3.105058e-05,0.0,0.0,0.0,0.0,0.0,0.0,0.0,0,0,0,0,0,0,0,1,1,1,0,3,1,0,0
281355248,-2.3946106e-05,-0.19595982,0.5947862,-3.4408689e-07,0.0,0.0,0.0,0.0,0.0,0.0,0.0,0,0,0,0,0,0,0,1,1,1,0,3,1,0,0
281376104,-2.2730947e-06,-0.23127703,0.58842134,-6.2073404e-06,0.0,0.0,0.0,0.0,0.0,0.0,0.0,0,0,0,0,0,0,0,1,1,1,0,3,1,0,0
281396145,3.8490534e-06,-0.26024523,0.5818094,-2.226404e-06,0.0,0.0,0.0,0.0,0.0,0.0,0.0,0,0,0,0,0,0,0,1,1,1,0,3,1,0,0
281416297,1.8674377e-06,-0.2827674,0.57339483,3.927779e-07,0.0,0.0,0.0,0.0,0.0,0.0,0.0,0,0,0,0,0,0,0,1,1,1,0,3,1,0,0
281440307,-6.363601e-08,-0.30415073,0.5693402,5.8110703e-07,0.0,0.0,0.0,0.0,0.0,0.0,0.0,0,0,0,0,0,0,0,1,1,1,0,3,1,0,0
281463591,-3.8918884e-07,-0.32890707,0.5692408,1.378228e-07,0.0,0.0,0.0,0.0,0.0,0.0,0.0,0,0,0,0,0,0,0,1,1,1,0,3,1,0,0
281487528,-1.3135495e-07,-0.35361388,0.5697491,-6.286061e-08,0.0,0.0,0.0,0.0,0.0,0.0,0.0,0,0,0,0,0,0,0,1,1,1,0,3,1,0,0
281511532,2.7670058e-08,-0.37308514,0.5697076,-5.0216578e-08,0.0,0.0,0.0,0.0,0.0,0.0,0.0,0,0,0,0,0,0,0,1,1,1,0,3,1,0,0
281535364,3.5946204e-08,-0.39063144,0.568846,-6.2472996e-09,0.0,0.0,0.0,0.0,0.0,0.0,0.0,0,0,0,0,0,0,0,1,1,1,0,3,1,0,0
281559533,7.86487e-09,-0.40798533,0.56778914,7.524648e-09,0.0,0.0,0.0,0.0,0.0,0.0,0.0,0,0,0,0,0,0,0,1,1,1,0,3,1,0,0
281583737,-4.132548e-09,-0.42463243,0.56706953,4.0038817e-09,0.0,0.0,0.0,0.0,0.0,0.0,0.0,0,0,0,0,0,0,0,1,1,1,0,3,1,0,0
281607382,-3.0671545e-09,-0.4466254,0.56526834,6.0992418e-12,0.0,0.0,0.0,0.0,0.0,0.0,0.0,0,0,0,0,0,0,0,1,1,1,0,3,1,0,0
281631508,-3.2417924e-10,-0.47275743,0.5610105,-7.8176915e-10,0.0,0.0,0.0,0.0,0.0,0.0,0.0,0,0,0,0,0,0,0,1,1,1,0,3,1,0,0
281655546,4.8080395e-10,-0.49025863,0.55605656,-2.9007935e-10,0.0,0.0,0.0,0.0,0.0,0.0,0.0,0,0,0,0,0,0,0,1,1,1,0,3,1,0,0
281678759,2.4114954e-10,-0.4976844,0.5525709,4.5890455e-11,0.0,0.0,0.0,0.0,0.0,0.0,0.0,0,0,0,0,0,0,0,1,1,1,0,3,1,0,0
281702582,-5.0376335e-12,-0.50307703,0.55100846,7.3759866e-11,0.0,0.0,0.0,0.0,0.0,0.0,0.0,0,0,0,0,0,0,0,1,1,1,0,3,1,0,0
281726600,-4.9082415e-11,-0.50817245,0.55086476,1.8270207e-11,0.0,0.0,0.0,0.0,0.0,0.0,0.0,0,0,0,0,0,0,0,1,1,1,0,3,1,0,0
281747541,-1.7150842e-11,-0.510012,0.55086875,-7.6920015e-12,0.0,0.0,0.0,0.0,0.0,0.0,0.0,0,0,0,0,0,0,0,1,1,1,0,3,1,0,0
281770532,3.2734043e-12,-0.50766873,0.5506495,-6.4199973e-12,0.0,0.0,0.0,0.0,0.0,0.0,0.0,0,0,0,0,0,0,0,1,1,1,0,3,1,0,0
281794535,4.5680165e-12,-0.50239223,0.5503188,-8.6614944e-13,0.0,0.0,0.0,0.0,0.0,0.0,0.0,0,0,0,0,0,0,0,1,1,1,0,3,1,0,0
281819335,1.0470226e-12,-0.48571208,0.549244,9.370706e-13,0.0,0.0,0.0,0.0,0.0,0.0,0.0,0,0,0,0,0,0,0,1,1,1,0,3,1,0,0
281842573,-5.075861e-13,-0.46032938,0.5474183,5.158788e-13,0.0,0.0,0.0,0.0,0.0,0.0,0.0,0,0,0,0,0,0,0,1,1,1,0,3,1,0,0
281862849,-3.9259037e-13,-0.43548274,0.5459586,7.138115e-15,0.0,0.0,0.0,0.0,0.0,0.0,0.0,0,0,0,0,0,0,0,1,1,1,0,3,1,0,0
281882748,-4.5679518e-14,-0.4059564,0.5455278,-9.837945e-14,0.0,0.0,0.0,0.0,0.0,0.0,0.0,0,0,0,0,0,0,0,1,1,1,0,3,1,0,0
281906526,5.999554e-14,-0.37257054,0.5456545,-3.7751642e-14,0.0,0.0,0.0,0.0,0.0,0.0,0.0,0,0,0,0,0,0,0,1,1,1,0,3,1,0,0
281930533,3.1114756e-14,-0.3325992,0.5457856,5.3139806e-15,0.0,0.0,0.0,0.0,0.0,0.0,0.0,0,0,0,0,0,0,0,1,1,1,0,3,1,0,0
281954789,-2.5031925e-16,-0.29449424,0.54580927,9.356025e-15,0.0,0.0,0.0,0.0,0.0,0.0,0.0,0,0,0,0,0,0,0,1,1,1,0,3,1,0,0
281978645,-6.1852578e-15,-0.26849455,0.54579234,2.4167455e-15,0.0,0.0,0.0,0.0,0.0,0.0,0.0,0,0,0,0,0,0,0,1,1,1,0,3,1,0,0
282001983,-2.236605e-15,-0.24559006,0.5452837,-9.390034e-16,0.0,0.0,0.0,0.0,0.0,0.0,0.0,0,0,0,0,0,0,0,1,1,1,0,3,1,0,0
282025921,3.8468414e-16,-0.2224715,0.54435235,-8.2022404e-16,0.0,0.0,0.0,0.0,0.0,0.0,0.0,0,0,0,0,0,0,0,1,1,1,0,3,1,0,0
282049931,5.8011365e-16,-0.19562994,0.5441078,-1.1922353e-16,0.0,0.0,0.0,0.0,0.0,0.0,0.0,0,0,0,0,0,0,0,1,1,1,0,3,1,0,0
282073932,1.3904059e-16,-0.16745454,0.5444487,1.1655642e-16,0.0,0.0,0.0,0.0,0.0,0.0,0.0,0,0,0,0,0,0,0,1,1,1,0,3,1,0,0
282097771,-6.221608e-17,-0.14052787,0.5441248,6.641661e-17,0.0,0.0,0.0,0.0,0.0,0.0,0.0,0,0,0,0,0,0,0,1,1,1,0,3,1,0,0
282121744,-5.0216864e-17,-0.1082482,0.54393834,1.7191703e-18,0.0,0.0,0.0,0.0,0.0,0.0,0.0,0,0,0,0,0,0,0,1,1,1,0,3,1,0,0
282145935,-6.373615e-18,-0.0853909,0.54293734,-1.2370136e-17,0.0,0.0,0.0,0.0,0.0,0.0,0.0,0,0,0,0,0,0,0,1,1,1,0,3,1,0,0
282169993,7.478027e-18,-0.07617711,0.5381241,-4.9077424e-18,0.0,0.0,0.0,0.0,0.0,0.0,0.0,0,0,0,0,0,0,0,1,1,1,0,3,1,0,0
282193958,4.011389e-18,-0.060033843,0.5352971,6.0872226e-19,0.0,0.0,0.0,0.0,0.0,0.0,0.0,0,0,0,0,0,0,0,1,1,1,0,3,1,0,0
282217934,1.8002172e-20,-0.036126807,0.539177,1.1859526e-18,0.0,0.0,0.0,0.0,0.0,0.0,0.0,0,0,0,0,0,0,0,1,1,1,0,3,1,0,0
282241752,-0.00050383445,-0.013239267,0.54365313,3.190444e-19,0.0,0.0,0.0,0.0,0.0,0.0,0.0,0,0,0,0,0,0,0,1,1,1,0,3,1,0,0
282265135,-0.0011938495,0.00066301407,0.5450452,-1.1433257e-19,0.0,0.0,0.0,0.0,0.0,0.0,0.0,0,0,0,0,0,0,0,1,1,1,0,3,1,0,0
282289140,-0.0149537,0.0028374586,0.54468316,-1.047229e-19,0.0,0.0,0.0,0.0,0.0,0.0,0.0,0,0,0,0,0,0,0,1,1,1,0,3,1,0,0
282312889,-0.047614116,0.00091868965,0.54377896,-1.6309851e-20,0.0,0.0,0.0,0.0,0.0,0.0,0.0,0,0,0,0,0,0,0,1,1,1,0,3,1,0,0
282336969,-0.071096,-0.00021613807,0.54351574,1.4479454e-20,0.0,0.0,0.0,0.0,0.0,0.0,0.0,0,0,0,0,0,0,0,1,1,1,0,3,1,0,0
282360948,-0.07337777,-0.00025976278,0.54409325,8.544279e-21,0.0,0.0,0.0,0.0,0.0,0.0,0.0,0,0,0,0,0,0,0,1,1,1,0,3,1,0,0
282384985,-0.06962283,-5.3666197e-05,0.5446071,3.2203935e-22,0.0,0.0,0.0,0.0,0.0,0.0,0.0,0,0,0,0,0,0,0,1,1,1,0,3,1,0,0
282405218,-0.067788474,3.1034513e-05,0.5444351,-1.5541017e-21,0.0,0.0,0.0,0.0,0.0,0.0,0.0,0,0,0,0,0,0,0,1,1,1,0,3,1,0,0
282425165,-0.0678459,2.1976783e-05,0.5437731,-6.373433e-22,0.0,0.0,0.0,0.0,0.0,0.0,0.0,0,0,0,0,0,0,0,1,1,1,0,3,1,0,0
282445387,-0.06822632,2.0439745e-06,0.5435622,6.880182e-23,0.0,0.0,0.0,0.0,0.0,0.0,0.0,0,0,0,0,0,0,0,1,1,1,0,3,1,0,0
282466198,-0.06835564,-3.5480948e-06,0.54411167,1.5022598e-22,0.0,0.0,0.0,0.0,0.0,0.0,0.0,0,0,0,0,0,0,0,1,1,1,0,3,1,0,0
282489110,-0.06832894,-1.7113603e-06,0.544356,4.2040114e-23,0.0,0.0,0.0,0.0,0.0,0.0,0.0,0,0,0,0,0,0,0,1,1,1,0,3,1,0,0
282513132,-0.06879758,6.237854e-08,0.5440898,-1.3881639e-23,0.0,0.0,0.0,0.0,0.0,0.0,0.0,0,0,0,0,0,0,0,1,1,1,0,3,1,0,0
282537956,-0.06947983,3.5816177e-07,0.5439435,-1.3361759e-23,0.0,0.0,0.0,0.0,0.0,0.0,0.0,0,0,0,0,0,0,0,1,1,1,0,3,1,0,0
282560380,-0.055028968,1.2013584e-07,0.5436927,-2.2192907e-24,0.0,0.0,0.0,0.0,0.0,0.0,0.0,0,0,0,0,0,0,0,1,1,1,0,3,1,0,0
282584332,-0.020836825,-2.5740237e-08,0.5436287,1.7963538e-24,0.0,0.0,0.0,0.0,0.0,0.0,0.0,0,0,0,0,0,0,0,1,1,1,0,3,1,0,0
282609110,0.0030757615,0.015041627,0.54415196,1.0983736e-24,0.0,0.0,0.0,0.0,0.0,0.0,0.0,0,0,0,0,0,0,0,1,1,1,0,3,1,0,0
282632177,0.0052167554,0.050181884,0.54435784,5.412471e-26,0.0,0.0,0.0,0.0,0.0,0.0,0.0,0,0,0,0,0,0,0,1,1,1,0,3,1,0,0
282656337,0.0013254508,0.07476205,0.5440826,-1.9507826e-25,0.0,0.0,0.0,0.0,0.0,0.0,0.0,0,0,0,0,0,0,0,1,1,1,0,3,1,0,0
282681341,-0.0005317324,0.08097518,0.54418945,-8.268521e-26,0.0,0.0,0.0,0.0,0.0,0.0,0.0,0,0,0,0,0,0,0,1,1,1,0,3,1,0,0
282704190,-0.00045603374,0.085978754,0.5445317,7.6449535e-27,0.0,0.0,0.0,0.0,0.0,0.0,0.0,0,0,0,0,0,0,0,1,1,1,0,3,1,0,0
282728402,-6.439533e-05,0.08610968,0.54438835,1.901608e-26,0.0,0.0,0.0,0.0,0.0,0.0,0.0,0,0,0,0,0,0,0,1,1,1,0,3,1,0,0
282753132,6.550274e-05,0.07765746,0.5440195,5.529958e-27,0.0,0.0,0.0,0.0,0.0,0.0,0.0,0,0,0,0,0,0,0,1,1,1,0,3,1,0,0
282772337,3.6814665e-05,0.07150017,0.5441601,-1.680177e-27,0.0,0.0,0.0,0.0,0.0,0.0,0.0,0,0,0,0,0,0,0,1,1,1,0,3,1,0,0
282796204,7.77556e-07,0.05633969,0.54453325,-1.7037239e-27,0.0,0.0,0.0,0.0,0.0,0.0,0.0,0,0,0,0,0,0,0,1,1,1,0,3,1,0,0
282820156,-6.9215616e-06,0.021859854,0.5446435,-3.0056727e-28,0.0,0.0,0.0,0.0,0.0,0.0,0.0,0,0,0,0,0,0,0,1,1,1,0,3,1,0,0
282844132,-2.7099634e-06,-0.0029543845,0.54436237,2.225481e-28,0.0,0.0,0.0,0.0,0.0,0.0,0.0,0,0,0,0,0,0,0,1,1,1,0,3,1,0,0
282868333,3.5394518e-07,-0.0053722286,0.543988,1.4109339e-28,0.0,0.0,0.0,0.0,0.0,0.0,0.0,0,0,0,0,0,0,0,1,1,1,0,3,1,0,0
282891341,6.6144577e-07,-0.0014066698,0.5439047,8.559435e-30,0.0,0.0,0.0,0.0,0.0,0.0,0.0,0,0,0,0,0,0,0,1,1,1,0,3,1,0,0
282915540,1.7511422e-07,0.0005321639,0.5436984,-2.4465354e-29,0.0,0.0,0.0,0.0,0.0,0.0,0.0,0,0,0,0,0,0,0,1,1,1,0,3,1,0,0
282939346,-6.4812006e-08,0.0004720971,0.5436384,-1.07166875e-29,0.0,0.0,0.0,0.0,0.0,0.0,0.0,0,0,0,0,0,0,0,1,1,1,0,3,1,0,0
282963809,-5.823992e-08,7.024669e-05,0.54415447,8.3059265e-31,0.0,0.0,0.0,0.0,0.0,0.0,0.0,0,0,0,0,0,0,0,1,1,1,0,3,1,0,0
282987341,-8.830027e-09,-6.648596e-05,0.5443569,2.4054226e-30,0.0,0.0,0.0,0.0,0.0,0.0,0.0,0,0,0,0,0,0,0,1,1,1,0,3,1,0,0
283011539,8.141355e-09,-3.8323782e-05,0.5440817,7.262261e-31,0.0,0.0,0.0,0.0,0.0,0.0,0.0,0,0,0,0,0,0,0,1,1,1,0,3,1,0,0
283035363,4.7375113e-09,-1.1426847e-06,0.5441893,-2.0265918e-31,0.0,0.0,0.0,0.0,0.0,0.0,0.0,0,0,0,0,0,0,0,1,1,1,0,3,1,0,0
283059537,1.5643414e-10,7.0821447e-06,0.5445318,-2.1709458e-31,0.0,0.0,0.0,0.0,0.0,0.0,0.0,0,0,0,0,0,0,0,1,1,1,0,3,1,0,0
283083820,-8.6987245e-10,2.8408012e-06,0.5443884,-4.053851e-32,0.0,0.0,0.0,0.0,0.0,0.0,0.0,0,0,0,0,0,0,0,1,1,1,0,3,1,0,0
283107360,-3.5207384e-10,-3.3704174e-07,0.54401946,2.7530442e-32,0.0,0.0,0.0,0.0,0.0,0.0,0.0,0,0,0,0,0,0,0,1,1,1,0,3,1,0,0
283131579,4.0233813e-11,-6.808196e-07,0.54416007,1.8111325e-32,0.0,0.0,0.0,0.0,0.0,0.0,0.0,0,0,0,0,0,0,0,1,1,1,0,3,1,0,0
283154588,8.380908e-11,-1.855833e-07,0.5445332,1.3017352e-33,0.0,0.0,0.0,0.0,0.0,0.0,0.0,0,0,0,0,0,0,0,1,1,1,0,3,1,0,0
283178987,2.3091326e-11,6.473709e-08,0.5443947,-3.0654555e-33,0.0,0.0,0.0,0.0,0.0,0.0,0.0,0,0,0,0,0,0,0,1,1,1,0,3,1,0,0
283202729,-7.8782605e-12,6.0262245e-08,0.5440215,-1.3876694e-33,0.0,0.0,0.0,0.0,0.0,0.0,0.0,0,0,0,0,0,0,0,1,1,1,0,3,1,0,0
283226468,-7.432876e-12,9.592004e-09,0.54391074,8.74827e-35,0.0,0.0,0.0,0.0,0.0,0.0,0.0,0,0,0,0,0,0,0,1,1,1,0,3,1,0,0
283250540,-1.2039633e-12,-8.255787e-09,0.54394287,3.0405472e-34,0.0,0.0,0.0,0.0,0.0,0.0,0.0,0,0,0,0,0,0,0,1,1,1,0,3,1,0,0
283274774,1.0105768e-12,-4.9290034e-09,0.54422534,9.522603e-35,0.0,0.0,0.0,0.0,0.0,0.0,0.0,0,0,0,0,0,0,0,1,1,1,0,3,1,0,0
283298549,6.091906e-13,-2.0478813e-10,0.54457235,-2.435008e-35,0.0,0.0,0.0,0.0,0.0,0.0,0.0,0,0,0,0,0,0,0,1,1,1,0,3,1,0,0
283322725,2.722569e-14,8.895016e-10,0.54439634,-2.764477e-35,0.0,0.0,0.0,0.0,0.0,0.0,0.0,0,0,0,0,0,0,0,1,1,1,0,3,1,0,0
283346794,-1.0922845e-13,3.687958e-10,0.54376554,-5.4473677e-36,0.0,0.0,0.0,0.0,0.0,0.0,0.0,0,0,0,0,0,0,0,1,1,1,0,3,1,0,0
283370757,-4.5694107e-14,-3.789827e-11,0.54356694,3.4003298e-36,0.0,0.0,0.0,0.0,0.0,0.0,0.0,0,0,0,0,0,0,0,1,1,1,0,3,1,0,0
283394788,4.5034302e-15,-8.622046e-11,0.5438659,2.3231947e-36,0.0,0.0,0.0,0.0,0.0,0.0,0.0,0,0,0,0,0,0,0,1,1,1,0,3,1,0,0
283418614,1.0611764e-14,-2.4439735e-11,0.54401535,1.9264578e-37,0.0,0.0,0.0,0.0,0.0,0.0,0.0,0,0,0,0,0,0,0,1,1,1,0,3,1,0,0
283441744,3.0394937e-15,7.852173e-12,0.54426086,-3.8373014e-37,0.0,0.0,0.0,0.0,0.0,0.0,0.0,0,0,0,0,0,0,0,1,1,1,0,3,1,0,0
283462411,-9.547744e-16,7.687276e-12,0.5445712,-1.7952181e-37,0.0,0.0,0.0,0.0,0.0,0.0,0.0,0,0,0,0,0,0,0,1,1,1,0,3,1,0,0
283482554,-9.479958e-16,1.3030791e-12,0.54463786,8.802189e-39,0.0,0.0,0.0,0.0,0.0,0.0,0.0,0,0,0,0,0,0,0,1,1,1,0,3,1,0,0
283502621,-1.6335041e-16,-1.0237662e-12,0.5446017,3.840584e-38,0.0,0.0,0.0,0.0,0.0,0.0,0.0,0,0,0,0,0,0,0,1,1,1,0,3,1,0,0
283525741,1.2527002e-16,-6.334728e-13,0.54432636,1.2468396e-38,0.0,0.0,0.0,0.0,0.0,0.0,0.0,0,0,0,0,0,0,0,1,1,1,0,3,1,0,0
283550052,7.827726e-17,-3.361598e-14,0.54373395,-2.913054e-39,0.0,0.0,0.0,0.0,0.0,0.0,0.0,0,0,0,0,0,0,0,1,1,1,0,3,1,0,0
283573914,4.395744e-18,1.11621914e-13,0.54332006,-3.517963e-39,0.0,0.0,0.0,0.0,0.0,0.0,0.0,0,0,0,0,0,0,0,1,1,1,0,3,1,0,0
283597783,-1.3703571e-17,4.7829877e-14,0.54328316,-7.2956e-40,0.0,0.0,0.0,0.0,0.0,0.0,0.0,0,0,0,0,0,0,0,1,1,1,0,3,1,0,0
283621937,-5.9245984e-18,-4.182882e-15,0.5435994,4.1928e-40,0.0,0.0,0.0,0.0,0.0,0.0,0.0,0,0,0,0,0,0,0,1,1,1,0,3,1,0,0
283645968,4.940739e-19,-1.0911531e-14,0.54422134,2.97796e-40,0.0,0.0,0.0,0.0,0.0,0.0,0.0,0,0,0,0,0,0,0,1,1,1,0,3,1,0,0
283669948,1.3427032e-18,-3.2130342e-15,0.5443892,2.7942e-41,0.0,0.0,0.0,0.0,0.0,0.0,0.0,0,0,0,0,0,0,0,1,1,1,0,3,1,0,0
283693928,3.9941796e-19,9.493454e-16,0.54408056,-4.7987e-41,0.0,0.0,0.0,0.0,0.0,0.0,0.0,0,0,0,0,0,0,0,1,1,1,0,3,1,0,0
283717965,-1.1532655e-19,9.799716e-16,0.54418254,-2.3204e-41,0.0,0.0,0.0,0.0,0.0,0.0,0.0,0,0,0,0,0,0,0,1,1,1,0,3,1,0,0
283741929,-1.2082861e-19,1.7622944e-16,0.54428065,8.23e-43,0.0,0.0,0.0,0.0,0.0,0.0,0.0,0,0,0,0,0,0,0,1,1,1,0,3,1,0,0
283765172,-2.2066715e-20,-1.2677226e-16,0.544048,4.847e-42,0.0,0.0,0.0,0.0,0.0,0.0,0.0,0,0,0,0,0,0,0,1,1,1,0,3,1,0,0
283789170,1.5505888e-20,-8.13543e-17,0.5441917,1.63e-42,0.0,0.0,0.0,0.0,0.0,0.0,0.0,0,0,0,0,0,0,0,1,1,1,0,3,1,0,0
283813011,1.00508576e-20,-5.2386304e-18,0.54429036,-3.46e-43,0.0,0.0,0.0,0.0,0.0,0.0,0.0,0,0,0,0,0,0,0,1,1,1,0,3,1,0,0
283837142,6.7776915e-22,1.3994634e-17,0.5440498,-4.47e-43,0.0,0.0,0.0,0.0,0.0,0.0,0.0,0,0,0,0,0,0,0,1,1,1,0,3,1,0,0
283861160,-1.7176617e-21,6.1972053e-18,0.54419047,-9.7e-44,0.0,0.0,0.0,0.0,0.0,0.0,0.0,0,0,0,0,0,0,0,1,1,1,0,3,1,0,0
283885170,-7.674407e-22,-4.50333e-19,0.5442896,5.2e-44,0.0,0.0,0.0,0.0,0.0,0.0,0.0,0,0,0,0,0,0,0,1,1,1,0,3,1,0,0
283908971,5.2754925e-23,-1.3799205e-18,0.54404974,3.8e-44,0.0,0.0,0.0,0.0,0.0,0.0,0.0,0,0,0,0,0,0,0,1,1,1,0,3,1,0,0
283933006,1.6977132e-22,-4.2173594e-19,0.54419065,4e-45,0.0,0.0,0.0,0.0,0.0,0.0,0.0,0,0,0,0,0,0,0,1,1,1,0,3,1,0,0
283957140,5.2404885e-23,1.1436717e-19,0.54428965,-6e-45,0.0,0.0,0.0,0.0,0.0,0.0,0.0,0,0,0,0,0,0,0,1,1,1,0,3,1,0,0
283980964,-1.3878859e-23,1.248443e-19,0.5440498,-3e-45,0.0,0.0,0.0,0.0,0.0,0.0,0.0,0,0,0,0,0,0,0,1,1,1,0,3,1,0,0
284005170,-1.5390317e-23,2.3738484e-20,0.5439418,0.0,0.0,0.0,0.0,0.0,0.0,0.0,0.0,0,0,0,0,0,0,0,1,1,1,0,3,1,0,0
284029137,-2.9694422e-24,-1.567446e-20,0.5439488,0.0,0.0,0.0,0.0,0.0,0.0,0.0,0.0,0,0,0,0,0,0,0,1,1,1,0,3,1,0,0
284052172,1.916376e-24,-1.0440509e-20,0.54422146,0.0,0.0,0.0,0.0,0.0,0.0,0.0,0.0,0,0,0,0,0,0,0,1,1,1,0,3,1,0,0
284072331,1.2896167e-24,-7.887468e-22,0.5443208,0.0,0.0,0.0,0.0,0.0,0.0,0.0,0.0,0,0,0,0,0,0,0,1,1,1,0,3,1,0,0
284096307,1.0129198e-25,1.7529522e-21,0.5440553,0.0,0.0,0.0,0.0,0.0,0.0,0.0,0.0,0,0,0,0,0,0,0,1,1,1,0,3,1,0,0
284120317,-2.1509705e-25,8.0221257e-22,0.54418653,0.0,0.0,0.0,0.0,0.0,0.0,0.0,0.0,0,0,0,0,0,0,0,1,1,1,0,3,1,0,0
284144315,-9.931879e-26,-4.6816156e-23,0.544536,0.0,0.0,0.0,0.0,0.0,0.0,0.0,0.0,0,0,0,0,0,0,0,1,1,1,0,3,1,0,0
284168350,5.4183847e-27,-1.7438568e-22,0.5443905,0.0,0.0,0.0,0.0,0.0,0.0,0.0,0.0,0,0,0,0,0,0,0,1,1,1,0,3,1,0,0
284192205,2.1450419e-26,-5.5272915e-23,0.54401946,0.0,0.0,0.0,0.0,0.0,0.0,0.0,0.0,0,0,0,0,0,0,0,1,1,1,0,3,1,0,0
284216237,6.86551e-27,1.3722606e-23,0.54415965,0.0,0.0,0.0,0.0,0.0,0.0,0.0,0.0,0,0,0,0,0,0,0,1,1,1,0,3,1,0,0
284240353,-1.6633361e-27,1.5894184e-23,0.544533,0.0,0.0,0.0,0.0,0.0,0.0,0.0,0.0,0,0,0,0,0,0,0,1,1,1,0,3,1,0,0
284264352,-1.9590228e-27,3.186232e-24,0.5446436,0.0,0.0,0.0,0.0,0.0,0.0,0.0,0.0,0,0,0,0,0,0,0,1,1,1,0,3,1,0,0
284288336,-3.9820494e-28,-1.9349314e-24,0.5446113,0.0,0.0,0.0,0.0,0.0,0.0,0.0,0.0,0,0,0,0,0,0,0,1,1,1,0,3,1,0,0
284312161,2.3645988e-28,-1.3389241e-24,0.5443288,0.0,0.0,0.0,0.0,0.0,0.0,0.0,0.0,0,0,0,0,0,0,0,1,1,1,0,3,1,0,0
284336385,1.6535315e-28,-1.1587898e-25,0.54398185,0.0,0.0,0.0,0.0,0.0,0.0,0.0,0.0,0,0,0,0,0,0,0,1,1,1,0,3,1,0,0
284359754,1.4799937e-29,2.1936195e-25,0.543909,0.0,0.0,0.0,0.0,0.0,0.0,0.0,0.0,0,0,0,0,0,0,0,1,1,1,0,3,1,0,0
284383626,-2.6909767e-29,1.0375115e-25,0.54394996,0.0,0.0,0.0,0.0,0.0,0.0,0.0,0.0,0,0,0,0,0,0,0,1,1,1,0,3,1,0,0
284407321,-1.284195e-29,-4.61564e-27,0.5442283,0.0,0.0,0.0,0.0,0.0,0.0,0.0,0.0,0,0,0,0,0,0,0,1,1,1,0,3,1,0,0
284431549,5.239039e-31,-2.202171e-26,0.544572,0.0,0.0,0.0,0.0,0.0,0.0,0.0,0.0,0,0,0,0,0,0,0,1,1,1,0,3,1,0,0
284455553,2.7082523e-30,-7.233806e-27,0.54464453,0.0,0.0,0.0,0.0,0.0,0.0,0.0,0.0,0,0,0,0,0,0,0,1,1,1,0,3,1,0,0
284479554,8.981844e-31,1.6391083e-27,0.544604,0.0,0.0,0.0,0.0,0.0,0.0,0.0,0.0,0,0,0,0,0,0,0,1,1,1,0,3,1,0,0
284503534,-1.9841477e-31,2.022188e-27,0.5443259,0.0,0.0,0.0,0.0,0.0,0.0,0.0,0.0,0,0,0,0,0,0,0,1,1,1,0,3,1,0,0
284527212,-2.491983e-31,4.262905e-28,0.5437333,0.0,0.0,0.0,0.0,0.0,0.0,0.0,0.0,0,0,0,0,0,0,0,1,1,1,0,3,1,0,0
284548111,-5.3232826e-32,-2.3845028e-28,0.5435688,0.0,0.0,0.0,0.0,0.0,0.0,0.0,0.0,0,0,0,0,0,0,0,1,1,1,0,3,1,0,0
284571369,2.9125958e-32,-1.7158826e-28,0.54412186,0.0,0.0,0.0,0.0,0.0,0.0,0.0,0.0,0,0,0,0,0,0,0,1,1,1,0,3,1,0,0
284595311,2.118666e-32,-1.6714225e-29,0.5446073,0.0,0.0,0.0,0.0,0.0,0.0,0.0,0.0,0,0,0,0,0,0,0,1,1,1,0,3,1,0,0
284620049,2.1257282e-33,2.7423313e-29,0.5446784,0.0,0.0,0.0,0.0,0.0,0.0,0.0,0.0,0,0,0,0,0,0,0,1,1,1,0,3,1,0,0
284642524,-3.3631665e-33,1.3406568e-29,0.54460967,0.0,0.0,0.0,0.0,0.0,0.0,0.0,0.0,0,0,0,0,0,0,0,1,1,1,0,3,1,0,0
284662537,-1.6590327e-33,-4.1582304e-31,0.5445703,0.0,0.0,0.0,0.0,0.0,0.0,0.0,0.0,0,0,0,0,0,0,0,1,1,1,0,3,1,0,0
284682711,4.550309e-35,-2.7788749e-30,0.5445692,0.0,0.0,0.0,0.0,0.0,0.0,0.0,0.0,0,0,0,0,0,0,0,1,1,1,0,3,1,0,0
284706746,3.416793e-34,-9.454453e-31,0.5445765,0.0,0.0,0.0,0.0,0.0,0.0,0.0,0.0,0,0,0,0,0,0,0,1,1,1,0,3,1,0,0
284730642,1.173496e-34,1.9477952e-31,0.5443305,0.0,0.0,0.0,0.0,0.0,0.0,0.0,0.0,0,0,0,0,0,0,0,1,1,1,0,3,1,0,0
284754735,-2.3542304e-35,2.571094e-31,0.5437404,0.0,0.0,0.0,0.0,0.0,0.0,0.0,0.0,0,0,0,0,0,0,0,1,1,1,0,3,1,0,0
284778737,-3.1678416e-35,5.686803e-32,0.5435705,0.0,0.0,0.0,0.0,0.0,0.0,0.0,0.0,0,0,0,0,0,0,0,1,1,1,0,3,1,0,0
284802535,-7.096085e-36,-2.933177e-32,0.5441211,0.0,0.0,0.0,0.0,0.0,0.0,0.0,0.0,0,0,0,0,0,0,0,1,1,1,0,3,1,0,0
284826552,3.580935e-36,-2.1974542e-32,0.5446067,0.0,0.0,0.0,0.0,0.0,0.0,0.0,0.0,0,0,0,0,0,0,0,1,1,1,0,3,1,0,0
284850543,2.7127782e-36,-2.376571e-33,0.54467833,0.0,0.0,0.0,0.0,0.0,0.0,0.0,0.0,0,0,0,0,0,0,0,1,1,1,0,3,1,0,0
284874770,3.0124206e-37,3.4247532e-33,0.5446097,0.0,0.0,0.0,0.0,0.0,0.0,0.0,0.0,0,0,0,0,0,0,0,1,1,1,0,3,1,0,0
284898554,-4.198874e-37,1.7309096e-33,0.5443215,0.0,0.0,0.0,0.0,0.0,0.0,0.0,0.0,0,0,0,0,0,0,0,1,1,1,0,3,1,0,0
284922740,-2.1414778e-37,-3.1002274e-35,0.54397947,0.0,0.0,0.0,0.0,0.0,0.0,0.0,0.0,0,0,0,0,0,0,0,1,1,1,0,3,1,0,0
284945141,3.087111e-39,-3.5039547e-34,0.54415846,0.0,0.0,0.0,0.0,0.0,0.0,0.0,0.0,0,0,0,0,0,0,0,1,1,1,0,3,1,0,0
284969958,4.307427e-38,-1.2340994e-34,0.54429156,0.0,0.0,0.0,0.0,0.0,0.0,0.0,0.0,0,0,0,0,0,0,0,1,1,1,0,3,1,0,0
284993934,1.5312612e-38,2.3009602e-35,0.54380786,0.0,0.0,0.0,0.0,0.0,0.0,0.0,0.0,0,0,0,0,0,0,0,1,1,1,0,3,1,0,0
285017767,-2.776191e-39,3.2668282e-35,0.5436031,0.0,0.0,0.0,0.0,0.0,0.0,0.0,0.0,0,0,0,0,0,0,0,1,1,1,0,3,1,0,0
285041935,-4.02433e-39,7.5661794e-36,0.54411995,0.0,0.0,0.0,0.0,0.0,0.0,0.0,0.0,0,0,0,0,0,0,0,1,1,1,0,3,1,0,0
285065943,-9.43476e-40,-3.6010535e-36,0.5445999,0.0,0.0,0.0,0.0,0.0,0.0,0.0,0.0,0,0,0,0,0,0,0,1,1,1,0,3,1,0,0
285089979,4.39386e-40,-2.8122642e-36,0.54467607,0.0,0.0,0.0,0.0,0.0,0.0,0.0,0.0,0,0,0,0,0,0,0,1,1,1,0,3,1,0,0
285113744,3.47113e-40,-3.3406538e-37,0.5446102,0.0,0.0,0.0,0.0,0.0,0.0,0.0,0.0,0,0,0,0,0,0,0,1,1,1,0,3,1,0,0
285137802,4.223e-41,4.2723927e-37,0.54432213,0.0,0.0,0.0,0.0,0.0,0.0,0.0,0.0,0,0,0,0,0,0,0,1,1,1,0,3,1,0,0
285161747,-5.2365e-41,2.232918e-37,0.54397964,0.0,0.0,0.0,0.0,0.0,0.0,0.0,0.0,0,0,0,0,0,0,0,1,1,1,0,3,1,0,0
285186162,-2.762e-41,-1.147755e-39,0.5441584,0.0,0.0,0.0,0.0,0.0,0.0,0.0,0.0,0,0,0,0,0,0,0,1,1,1,0,3,1,0,0
285209939,4.9e-44,-4.4148172e-38,0.54454035,0.0,0.0,0.0,0.0,0.0,0.0,0.0,0.0,0,0,0,0,0,0,0,1,1,1,0,3,1,0,0
285233708,5.426e-42,-1.6089203e-38,0.5443976,0.0,0.0,0.0,0.0,0.0,0.0,0.0,0.0,0,0,0,0,0,0,0,1,1,1,0,3,1,0,0
285256914,1.995e-42,2.699506e-39,0.5440212,0.0,0.0,0.0,0.0,0.0,0.0,0.0,0.0,0,0,0,0,0,0,0,1,1,1,0,3,1,0,0
285280141,-3.24e-43,4.148059e-39,0.54415894,0.0,0.0,0.0,0.0,0.0,0.0,0.0,0.0,0,0,0,0,0,0,0,1,1,1,0,3,1,0,0
285301766,-5.11e-43,1.004215e-39,0.5445324,0.0,0.0,0.0,0.0,0.0,0.0,0.0,0.0,0,0,0,0,0,0,0,1,1,1,0,3,1,0,0
285320938,-1.25e-43,-4.41171e-40,0.54464346,0.0060756505,0.0,0.0,0.0,0.0,0.0,0.0,0.0,0,0,0,0,0,0,0,1,1,1,0,3,1,0,0
285345395,5.3e-44,-3.59666e-40,0.5443625,0.028572937,0.0,0.0,0.0,0.0,0.0,0.0,0.0,0,0,0,0,0,0,0,1,1,1,0,3,1,0,0
285369180,4.3e-44,-4.6519e-41,0.54398805,0.06202441,0.0,0.0,0.0,0.0,0.0,0.0,0.0,0,0,0,0,0,0,0,1,1,1,0,3,1,0,0
285393201,-0.012595861,5.3238e-41,0.5441536,0.101371184,0.0,0.0,0.0,0.0,0.0,0.0,0.0,0,0,0,0,0,0,0,1,1,1,0,3,1,0,0
285417125,-0.0424421,2.8781e-41,0.54453695,0.15037121,0.0,0.0,0.0,0.0,0.0,0.0,0.0,0,0,0,0,0,0,0,1,1,1,0,3,1,0,0
285440835,-0.08979987,2.1e-43,0.5443973,0.21899831,0.0,0.0,0.0,0.0,0.0,0.0,0.0,0,0,0,0,0,0,0,1,1,1,0,3,1,0,0
285460867,-0.15385428,-5.559e-42,0.5437729,0.30108878,0.0,0.0,0.0,0.0,0.0,0.0,0.0,0,0,0,0,0,0,0,1,1,1,0,3,1,0,0
285481933,-0.19948846,-2.095e-42,0.54356945,0.35241386,0.0,0.0,0.0,0.0,0.0,0.0,0.0,0,0,0,0,0,0,0,1,1,1,0,3,1,0,0
285505134,-0.23303108,3.12e-43,0.54411435,0.37657002,0.0,0.0,0.0,0.0,0.0,0.0,0.0,0,0,0,0,0,0,0,1,1,1,0,3,1,0,0
285528264,-0.2919119,5.27e-43,0.5446044,0.41341895,0.0,0.0,0.0,0.0,0.0,0.0,0.0,0,0,0,0,0,0,0,1,1,1,0,3,1,0,0
285548375,-0.36101207,1.33e-43,0.5446788,0.4607846,0.0,0.0,0.0,0.0,0.0,0.0,0.0,0,0,0,0,0,0,0,1,1,1,0,3,1,0,0
285572184,-0.41784263,-5.5e-44,0.5443614,0.49993128,0.0,0.0,0.0,0.0,0.0,0.0,0.0,0,0,0,0,0,0,0,1,1,1,0,3,1,0,0
285596167,-0.45906904,-4.5e-44,0.5439807,0.52183014,0.0,0.0,0.0,0.0,0.0,0.0,0.0,0,0,0,0,0,0,0,1,1,1,0,3,1,0,0
285620471,-0.48030534,-7e-45,0.54415107,0.52934504,0.0,0.0,0.0,0.0,0.0,0.0,0.0,0,0,0,0,0,0,0,1,1,1,0,3,1,0,0
285644204,-0.47957614,6e-45,0.5442886,0.53390956,0.0,0.0,0.0,0.0,0.0,0.0,0.0,0,0,0,0,0,0,0,1,1,1,0,3,1,0,0
285668410,-0.46557546,4e-45,0.54405713,0.5442508,0.0,0.0,0.0,0.0,0.0,0.0,0.0,0,0,0,0,0,0,0,1,1,1,0,3,1,0,0
285692166,-0.4514756,-0.0,0.54419357,0.55578554,0.0,0.0,0.0,0.0,0.0,0.0,0.0,0,0,0,0,0,0,0,1,1,1,0,3,1,0,0
285716124,-0.4439685,0.0,0.5442893,0.5610608,0.0,0.0,0.0,0.0,0.0,0.0,0.0,0,0,0,0,0,0,0,1,1,1,0,3,1,0,0
285740201,-0.44294775,0.0,0.5440491,0.56176406,0.0,0.0,0.0,0.0,0.0,0.0,0.0,0,0,0,0,0,0,0,1,1,1,0,3,1,0,0
285764187,-0.44454437,0.0,0.5439416,0.5614973,0.0,0.0,0.0,0.0,0.0,0.0,0.0,0,0,0,0,0,0,0,1,1,1,0,3,1,0,0
285788161,-0.44533426,0.0,0.5439489,0.561261,0.0,0.0,0.0,0.0,0.0,0.0,0.0,0,0,0,0,0,0,0,1,1,1,0,3,1,0,0
285812305,-0.44581732,0.0,0.5439726,0.56021327,0.0,0.0,0.0,0.0,0.0,0.0,0.0,0,0,0,0,0,0,0,1,1,1,0,3,1,0,0
285836162,-0.44735268,0.0,0.5437311,0.5578472,0.0,0.0,0.0,0.0,0.0,0.0,0.0,0,0,0,0,0,0,0,1,1,1,0,3,1,0,0
285856161,-0.44984078,0.0,0.54363716,0.5566717,0.0,0.0,0.0,0.0,0.0,0.0,0.0,0,0,0,0,0,0,0,1,1,1,0,3,1,0,0
285880372,-0.45146722,0.0,0.54414755,0.55771327,0.0,0.0,0.0,0.0,0.0,0.0,0.0,0,0,0,0,0,0,0,1,1,1,0,3,1,0,0
285903339,-0.45057333,0.0,0.5446034,0.5588346,0.0,0.0,0.0,0.0,0.0,0.0,0.0,0,0,0,0,0,0,0,1,1,1,0,3,1,0,0
285927330,-0.4479092,0.0,0.54467195,0.55955136,0.0,0.0,0.0,0.0,0.0,0.0,0.0,0,0,0,0,0,0,0,1,1,1,0,3,1,0,0
285951222,-0.4460921,0.0,0.544608,0.5606092,0.0,0.0,0.0,0.0,0.0,0.0,0.0,0,0,0,0,0,0,0,1,1,1,0,3,1,0,0
285975365,-0.4459423,0.0,0.5443221,0.56136614,0.0,0.0,0.0,0.0,0.0,0.0,0.0,0,0,0,0,0,0,0,1,1,1,0,3,1,0,0
285999542,-0.4472505,0.0,0.54398006,0.560426,0.0,0.0,0.0,0.0,0.0,0.0,0.0,0,0,0,0,0,0,0,1,1,1,0,3,1,0,0
286023345,-0.44927472,0.0,0.5441585,0.55841154,0.0,0.0,0.0,0.0,0.0,0.0,0.0,0,0,0,0,0,0,0,1,1,1,0,3,1,0,0
286047330,-0.45027035,0.0,0.54454035,0.5573449,0.0,0.0,0.0,0.0,0.0,0.0,0.0,0,0,0,0,0,0,0,1,1,1,0,3,1,0,0
286071343,-0.4502419,0.0,0.54464644,0.5573452,0.0,0.0,0.0,0.0,0.0,0.0,0.0,0,0,0,0,0,0,0,1,1,1,0,3,1,0,0
286095353,-0.45003644,0.0,0.5446109,0.5575542,0.0,0.0,0.0,0.0,0.0,0.0,0.0,0,0,0,0,0,0,0,1,1,1,0,3,1,0,0
286118527,-0.4499661,0.0,0.5443281,0.55712503,0.0,0.0,0.0,0.0,0.0,0.0,0.0,0,0,0,0,0,0,0,1,1,1,0,3,1,0,0
286142555,-0.45048422,0.0,0.5439817,0.5559129,0.0,0.0,0.0,0.0,0.0,0.0,0.0,0,0,0,0,0,0,0,1,1,1,0,3,1,0,0
286166964,-0.45270476,0.0,0.5441579,0.5540301,0.0,0.0,0.0,0.0,0.0,0.0,0.0,0,0,0,0,0,0,0,1,1,1,0,3,1,0,0
286190522,-0.45594302,0.0,0.5445398,0.5515465,0.0,0.0,0.0,0.0,0.0,0.0,0.0,0,0,0,0,0,0,0,1,1,1,0,3,1,0,0
286214791,-0.4577125,0.0,0.5446464,0.5499848,0.0,0.0,0.0,0.0,0.0,0.0,0.0,0,0,0,0,0,0,0,1,1,1,0,3,1,0,0
286238546,-0.45773223,0.0,0.54461104,0.5498941,0.0,0.0,0.0,0.0,0.0,0.0,0.0,0,0,0,0,0,0,0,1,1,1,0,3,1,0,0
286262737,-0.45739305,0.0,0.54457706,0.5501663,0.0,0.0,0.0,0.0,0.0,0.0,0.0,0,0,0,0,0,0,0,1,1,1,0,3,1,0,0
286286988,-0.45726383,0.0,0.54432255,0.55028474,0.0,0.0,0.0,0.0,0.0,0.0,0.0,0,0,0,0,0,0,0,1,1,1,0,3,1,0,0
286310555,-0.45778638,0.0,0.5439863,0.54976887,0.0,0.0,0.0,0.0,0.0,0.0,0.0,0,0,0,0,0,0,0,1,1,1,0,3,1,0,0
286334741,-0.45800477,0.0,0.5439118,0.5490488,0.0,0.0,0.0,0.0,0.0,0.0,0.0,0,0,0,0,0,0,0,1,1,1,0,3,1,0,0
286358596,-0.45747933,0.0,0.5439502,0.5488837,0.0,0.0,0.0,0.0,0.0,0.0,0.0,0,0,0,0,0,0,0,1,1,1,0,3,1,0,0
286382631,-0.4572424,0.0,0.5439789,0.54896367,0.0,0.0,0.0,0.0,0.0,0.0,0.0,0,0,0,0,0,0,0,1,1,1,0,3,1,0,0
286406993,-0.45725772,0.0,0.543982,0.5490256,0.0,0.0,0.0,0.0,0.0,0.0,0.0,0,0,0,0,0,0,0,1,1,1,0,3,1,0,0
286426884,-0.45730978,0.0,0.54422647,0.54852647,0.0,0.0,0.0,0.0,0.0,0.0,0.0,0,0,0,0,0,0,0,1,1,1,0,3,1,0,0
286450715,-0.4568222,0.0,0.5445651,0.5473173,0.0,0.0,0.0,0.0,0.0,0.0,0.0,0,0,0,0,0,0,0,1,1,1,0,3,1,0,0
286473747,-0.45713565,0.0,0.5446423,0.54646194,0.0,0.0,0.0,0.0,0.0,0.0,0.0,0,0,0,0,0,0,0,1,1,1,0,3,1,0,0
286497806,-0.45936227,0.0,0.5446046,0.5463826,0.0,0.0,0.0,0.0,0.0,0.0,0.0,0,0,0,0,0,0,0,1,1,1,0,3,1,0,0
286522554,-0.46113136,0.0,0.5445755,0.54652077,0.0,0.0,0.0,0.0,0.0,0.0,0.0,0,0,0,0,0,0,0,1,1,1,0,3,1,0,0
286545730,-0.46134907,0.0,0.5443232,0.54608107,0.0,0.0,0.0,0.0,0.0,0.0,0.0,0,0,0,0,0,0,0,1,1,1,0,3,1,0,0
286569961,-0.4610831,0.0,0.5439868,0.54538524,0.0,0.0,0.0,0.0,0.0,0.0,0.0,0,0,0,0,0,0,0,1,1,1,0,3,1,0,0
286594519,-0.4609422,0.0,0.5441608,0.5457205,0.0,0.0,0.0,0.0,0.0,0.0,0.0,0,0,0,0,0,0,0,1,1,1,0,3,1,0,0
286617734,-0.4609422,0.0,0.5445398,0.546487,0.0,0.0,0.0,0.0,0.0,0.0,0.0,0,0,0,0,0,0,0,1,1,1,0,3,1,0,0
286641702,-0.4609698,0.0,0.54464585,0.5467046,0.0,0.0,0.0,0.0,0.0,0.0,0.0,0,0,0,0,0,0,0,1,1,1,0,3,1,0,0
286661702,-0.46148387,0.0,0.5443619,0.5461286,0.0,0.0,0.0,0.0,0.0,0.0,0.0,0,0,0,0,0,0,0,1,1,1,0,3,1,0,0
286681934,-0.46217224,0.0,0.54398733,0.54536676,0.0,0.0,0.0,0.0,0.0,0.0,0.0,0,0,0,0,0,0,0,1,1,1,0,3,1,0,0
286705953,-0.46232593,0.0,0.5441534,0.5451981,0.0,0.0,0.0,0.0,0.0,0.0,0.0,0,0,0,0,0,0,0,1,1,1,0,3,1,0,0
286730056,-0.46224794,0.0,0.544537,0.5452849,0.0,0.0,0.0,0.0,0.0,0.0,0.0,0,0,0,0,0,0,0,1,1,1,0,3,1,0,0
286752936,-0.46269283,0.0,0.54464626,0.54585636,0.0,0.0,0.0,0.0,0.0,0.0,0.0,0,0,0,0,0,0,0,1,1,1,0,3,1,0,0
286773950,-0.46438405,0.0,0.5446115,0.5465568,0.0,0.0,0.0,0.0,0.0,0.0,0.0,0,0,0,0,0,0,0,1,1,1,0,3,1,0,0
286797176,-0.4669372,0.0,0.5445773,0.5446785,0.0,0.0,0.0,0.0,0.0,0.0,0.0,0,0,0,0,0,0,0,1,1,1,0,3,1,0,0
286817157,-0.47006866,0.0,0.54457146,0.5397968,0.0,0.0,0.0,0.0,0.0,0.0,0.0,0,0,0,0,0,0,0,1,1,1,0,3,1,0,0
286841162,-0.47324502,0.0,0.5443271,0.53481656,0.0,0.0,0.0,0.0,0.0,0.0,0.0,0,0,0,0,0,0,0,1,1,1,0,3,1,0,0
286865131,-0.47582096,0.0,0.54374015,0.53089434,0.0,0.0,0.0,0.0,0.0,0.0,0.0,0,0,0,0,0,0,0,1,1,1,0,3,1,0,0
286888918,-0.47766235,0.0,0.5435711,0.528395,0.0,0.0,0.0,0.0,0.0,0.0,0.0,0,0,0,0,0,0,0,1,1,1,0,3,1,0,0
286913167,-0.4793499,0.0,0.5441214,0.5272268,0.0,0.0,0.0,0.0,0.0,0.0,0.0,0,0,0,0,0,0,0,1,1,1,0,3,1,0,0
