timestamp,lat,lon,alt,alt_ellipsoid,delta_alt,vel_n,vel_e,vel_d,yaw,eph,epv,terrain_alt,lat_lon_reset_counter,alt_reset_counter,terrain_alt_valid,dead_reckoning
273391065,49.089678033571666,2.110410362475929,85.88915,131.86128,-0.0,-0.013557944,0.019432588,-0.02001964,0.7603405,0.9985934,2.9292755,0.0,2,0,0,0
273590271,49.08967802300507,2.110410285730483,85.885345,131.85614,-0.0,-0.011427858,0.016484478,-0.019520408,0.7603031,0.9986512,2.9291968,0.0,2,0,0,0
273798319,49.089678042422285,2.1104102162403016,85.87962,131.84912,-0.0,-0.009082749,0.0142119,-0.016236039,0.75997424,0.99902505,2.9292877,0.0,2,0,0,0
273997465,49.08967804955783,2.110410152329312,85.87698,131.8453,-0.0,-0.006748997,0.013704794,-0.014542041,0.75980026,0.9991574,2.9292133,0.0,2,0,0,0
274204671,49.08967804255919,2.110410101541115,85.868835,131.83604,-0.0,-0.0066210018,0.01188276,-0.00940265,0.75939655,0.9995366,2.929183,0.0,2,0,0,0
274404665,49.089678056350316,2.110410084148865,85.86063,131.82735,-0.0,-0.004822842,0.011815505,-0.0068178386,0.7591875,0.9995657,2.9292352,0.0,2,0,0,0
274607865,49.08967807295451,2.110410050909826,85.853485,131.8199,-0.0,-0.0023377647,0.01180576,-0.005073178,0.75918627,0.9996715,2.9291673,0.0,2,0,0,0
274807083,49.089678075081366,2.110409997554653,85.8477,131.8139,-0.0,-0.0032754291,0.009667639,-0.002935771,0.75916296,0.999872,2.9292376,0.0,2,0,0,0
275007091,49.08967809480735,2.1104099316267186,85.84446,131.81079,-0.0,-0.0010715001,0.006791874,-0.0007486913,0.7592314,0.99992,2.9292846,0.0,2,0,0,0
275210265,49.089678106951595,2.1104098533619267,85.84818,131.81427,-0.0,-0.0006904572,0.0046943882,-0.0008647179,0.75928134,1.0000049,2.9292102,0.0,2,0,0,0
275409465,49.08967808722519,2.110409773840083,85.85919,131.82452,-0.0,-0.0013475217,0.0024352623,-0.002371549,0.7594184,1.0002048,2.9292793,0.0,2,0,0,0
275617501,49.08967807261038,2.110409675537818,85.867355,131.83171,-0.0,-0.0024977473,0.0011462036,-0.0037588398,0.75947696,1.000588,2.9292462,0.0,2,0,0,0
275816669,49.089678073570774,2.1104096082479713,85.86729,131.83037,-0.0,-0.0012670751,-0.0024574588,-0.0038717634,0.7593397,1.000624,2.9292924,0.0,2,0,0,0
276023888,49.08967805768675,2.1104095522736173,85.86837,131.8306,-0.0,-0.0011315264,-0.0006775629,-0.001600604,0.75938797,1.0010188,2.9292624,0.0,2,0,0,0
276223865,49.08967802451228,2.110409490510723,85.876144,131.83774,-0.0,-0.0023597803,-0.0029154527,-0.0030386262,0.7593852,1.001048,2.929307,0.0,2,0,0,0
276431064,49.089678011235556,2.1104094345625444,85.88384,131.84474,-0.0,-0.0022508567,-0.0011793377,-0.007970265,0.75909185,1.0014043,2.9292753,0.0,2,0,0,0
276630286,49.089678019057246,2.110409377514119,85.8889,131.84895,-0.0,-0.0005161426,-0.0038367282,-0.008272508,0.7586525,1.0014577,2.9293196,0.0,2,0,0,0
276838357,49.08967800564324,2.110409306924049,85.89458,131.8534,-0.0,-0.0007060286,-0.0071656215,-0.01052591,0.7582545,1.0018026,2.9292822,0.0,2,0,0,0
277033512,49.089677981662845,2.1104092290785865,85.899,131.85641,-0.0,-0.0019808668,-0.0074599087,-0.011084311,0.7579566,1.0015758,2.9292839,0.0,2,0,0,0
277240705,49.089677958025526,2.110409152333228,85.90556,131.86143,-0.0,-0.0016869027,-0.009076539,-0.011503875,0.7577449,1.0021007,2.9292707,0.0,2,0,0,0
277440665,49.08967793812761,2.1104090840743797,85.89838,131.85245,-0.0,-0.0015825205,-0.010689039,-0.008249606,0.7576344,1.0021452,2.9293149,0.0,2,0,0,0
277643865,49.08967790903557,2.1104090080362687,85.89537,131.84763,-0.0,-0.0017732638,-0.011791533,-0.0076485532,0.7574042,1.0023589,2.9292548,0.0,2,0,0,0
277843092,49.08967789472962,2.1104089418990166,85.89082,131.8417,-0.0,-0.0016904767,-0.012805994,-0.005987414,0.7572893,1.0024137,2.9292998,0.0,2,0,0,0
278051107,49.08967787411127,2.1104088690563967,85.89523,131.84459,-0.0,-0.0014205702,-0.013708144,-0.005368489,0.756942,1.0027732,2.9292598,0.0,2,0,0,0
279263870,49.089677672388646,2.110408517652337,85.925835,131.86621,-0.0,-0.0047629056,-0.019249024,-0.01438541,0.7563874,1.0037509,2.9293408,0.0,2,0,0,0
279467071,49.0896776154742,2.110408469614739,85.934265,131.87277,-0.0,-0.0065198746,-0.019778218,-0.01573202,0.7565923,1.0039239,2.929273,0.0,2,0,0,0
279666299,49.089677591356626,2.110408410078192,85.942505,131.87909,-0.0,-0.0054380447,-0.018736796,-0.01735342,0.75694454,1.0039569,2.9293163,0.0,2,0,0,0
279873486,49.08967756960621,2.110408350279698,85.94548,131.87988,-0.0,-0.007068965,-0.01916903,-0.015295559,0.7568996,1.0042908,2.9292743,0.0,2,0,0,0
280073464,49.08967751951864,2.110408271805779,85.94568,131.878,-0.0,-0.007946825,-0.018155098,-0.016427264,0.75695765,1.0042814,2.9293153,0.0,2,0,0,0
280280671,49.08967745083701,2.1104081950345295,85.939964,131.86821,-0.0,-0.011580691,-0.017479455,-0.011660156,0.7569061,1.0046601,2.929284,0.0,2,0,0,0
280479903,49.089677384522545,2.110408122611304,85.93162,131.85806,-0.0,-0.01375108,-0.017095702,-0.0081956405,0.75671434,1.00466,2.9293323,0.0,2,0,0,0
280687904,49.08967732578971,2.110408024990354,85.93049,131.85535,-0.0,-0.014929775,-0.01819509,-0.00852555,0.7564035,1.0050325,2.929299,0.0,2,0,0,0
280887087,49.08967728136273,2.1104079568626357,85.92608,131.84918,-0.0,-0.017715134,-0.016311908,-0.004686181,0.756139,1.0050415,2.929342,0.0,2,0,0,0
281090271,49.0896772395773,2.1104078713165495,85.91609,131.8379,-0.0,-0.01978488,-0.016517615,-0.0006651347,0.7560998,1.0050558,2.9292586,0.0,2,0,0,0
281290287,49.08967721566551,2.1104077893325925,85.91299,131.83374,-0.0,-0.018776273,-0.019074854,0.0006209168,0.7561319,1.0052309,2.9293244,0.0,2,0,0,0
281497500,49.08967718341728,2.1104077155471037,85.90947,131.82962,-0.0,-0.017226346,-0.018650321,0.0017014235,0.7558044,1.0056063,2.9292939,0.0,2,0,0,0
281696740,49.08967714935081,2.110407644276156,85.90832,131.828,-0.0,-0.019646622,-0.018852895,0.000114494294,0.7554466,1.0055988,2.9292157,0.0,2,0,0,0
281904664,49.08967714046526,2.110407571957319,85.90908,131.82834,-0.0,-0.018335147,-0.018136509,8.7297114e-05,0.75488716,1.0059943,2.9293096,0.0,2,0,0,0
282103871,49.08967709432296,2.110407506815616,85.91169,131.83057,-0.0,-0.021439701,-0.017152969,-0.00063999253,0.7547826,1.0060312,2.9292357,0.0,2,0,0,0
282311065,49.08967707816441,2.1104074202740244,85.91702,131.83517,-0.0,-0.022848895,-0.013550348,-0.0025441202,0.75479585,1.0063751,2.9293284,0.0,2,0,0,0
282511083,49.0896770653336,2.110407346566985,85.91832,131.8358,-0.0,-0.021403454,-0.012903426,-0.0031703697,0.7547537,1.0063881,2.9292486,0.0,2,0,0,0
282710281,49.089677056036315,2.1104072570131516,85.922226,131.83893,-0.0,-0.018252537,-0.013494163,-0.00478198,0.7546088,1.0064324,2.9292989,0.0,2,0,0,0
282917465,49.089677010408586,2.1104071828086646,85.92192,131.83763,-0.0,-0.019020867,-0.015649257,-0.0007141381,0.75459886,1.0067868,2.9292634,0.0,2,0,0,0
283117517,49.08967695201881,2.110407081573079,85.918625,131.8332,-0.0,-0.021018915,-0.01654709,-0.0013783203,0.7545166,1.006805,2.9293127,0.0,2,0,0,0
283320665,49.089676919770554,2.110406999693951,85.91191,131.82582,-0.0,-0.022820322,-0.015228111,0.003825284,0.75444645,1.0069935,2.9292576,0.0,2,0,0,0
283519871,49.08967689798584,2.110406943274357,85.90897,131.82217,-0.0,-0.02050963,-0.015599934,0.0054232604,0.7543231,1.0070204,2.9293075,0.0,2,0,0,0
283727865,49.089676881484344,2.110406902177638,85.911545,131.82405,-0.0,-0.017231647,-0.010753108,0.00028251682,0.7544668,0.9991869,2.929187,0.0,2,0,0,0
283931075,49.08967685506825,2.1104068463081287,85.91916,131.83076,-0.0,-0.018246373,-0.0099042645,0.0012829005,0.7547364,0.9992035,2.929235,0.0,2,0,0,0
284130271,49.08967680937198,2.110406793817647,85.92758,131.83797,-0.0,-0.019342344,-0.008207704,0.0020549393,0.7549421,0.9993213,2.9291778,0.0,2,0,0,0
284338296,49.089676784774106,2.110406728099554,85.923325,131.83212,-0.0,-0.017904293,-0.010493459,0.0047261864,0.7549006,0.99963033,2.9292674,0.0,2,0,0,0
284537465,49.0896767643616,2.1104066569856736,85.91278,131.81992,-0.0,-0.017803645,-0.010710383,0.0070351367,0.7549131,0.9995704,2.9291825,0.0,2,0,0,0
284744708,49.0896767587695,2.1104066039710627,85.90198,131.80762,-0.0,-0.016619712,-0.0082562165,0.013129908,0.7546997,0.99990606,2.9292808,0.0,2,0,0,0
284943115,49.08967677067368,2.110406554309039,85.888855,131.79268,-0.0,-0.014233254,-0.006736387,0.015348851,0.75452745,0.9997121,2.9291985,0.0,2,0,0,0
285143920,49.08967683331699,2.110406492886014,85.87851,131.78085,-0.0,-0.010719777,-0.008075939,0.018619588,0.7547009,0.9994495,2.9292412,0.0,2,0,0,0
285351068,49.08967692066092,2.11040644110185,85.88116,131.78174,-0.0,-0.00750928,-0.005122615,0.017498042,0.7548268,0.9994382,2.9292083,0.0,2,0,0,0
285550265,49.08967701613551,2.1104064019164674,85.89197,131.79073,-0.0,-0.0043089106,-0.004332293,0.018686378,0.7545912,0.99903905,2.9292507,0.0,2,0,0,0
285758296,49.089677142623025,2.110406341095452,85.907196,131.80386,-0.0,0.0014484839,-0.00086796324,0.010959571,0.7541704,0.9989129,2.9292123,0.0,2,0,0,0
285957464,49.08967726519964,2.110406293213809,85.917274,131.81192,-0.0,0.006374515,-0.0004912202,0.009280228,0.7540462,0.99843454,2.9292583,0.0,2,0,0,0
286164665,49.08967741062431,2.1104062442580984,85.92508,131.81775,-0.0,0.008784149,-0.0009922766,0.009330333,0.75406164,0.9982166,2.9292195,0.0,2,0,0,0
286364665,49.089677560062825,2.110406192971183,85.93369,131.82452,-0.0,0.014742859,-0.0005135945,0.004306515,0.7539,0.9977405,2.9292605,0.0,2,0,0,0
286567889,49.08967773138883,2.1104061427580336,85.93943,131.82806,-0.0,0.01983865,-0.0025795265,0.0033365742,0.7536455,0.99728215,2.9293065,0.0,2,0,0,0
286767087,49.089677928787715,2.1104061029171395,85.945724,131.83176,-0.0,0.02407848,-0.000404156,0.004387022,0.7535632,0.99692994,2.9292455,0.0,2,0,0,0
286967083,49.08967814224206,2.1104060816993666,85.952934,131.83592,-0.0,0.030105272,0.002012324,0.00036390923,0.75368965,0.9964956,2.929287,0.0,2,0,0,0
287174265,49.08967833120162,2.1104060548764547,85.95711,131.83679,-0.0,0.03343465,0.00400554,-0.00069839065,0.7539783,0.99634856,2.9292488,0.0,2,0,0,0
287374265,49.089678489216766,2.1104060173146166,85.96503,131.84084,-0.0,0.037694637,0.0050433385,-0.0073644496,0.75396997,0.9958648,2.9292903,0.0,2,0,0,0
287581471,49.08967863625388,2.1104059804600634,85.98038,131.85233,-0.0,0.041980334,0.0026847846,-0.009884766,0.75398767,0.99573404,2.9292529,0.0,2,0,0,0
287780691,49.08967876805898,2.1104059570164333,85.99573,131.86372,-0.0,0.042625483,0.00486158,-0.012000505,0.753992,0.9953214,2.9292998,0.0,2,0,0,0
287983865,49.089678908440746,2.110405949786218,86.00507,131.86935,-0.0,0.046750158,0.0059792423,-0.015290436,0.7542791,0.99490035,2.9292164,0.0,2,0,0,0
288191865,49.08967906968084,2.11040596220062,86.004295,131.86534,-0.0,0.049960263,0.009207279,-0.011987912,0.75439155,0.9949534,2.9293256,0.0,2,0,0,0
288395065,49.089679224883035,2.110405981713368,85.998245,131.85664,-0.0,0.055453625,0.010171678,-0.010260907,0.75451684,0.9947424,2.9292607,0.0,2,0,0,0
288594308,49.08967938715237,2.1104060064384775,85.99401,131.8501,-0.0,0.055894848,0.012835333,-0.006301349,0.7547721,0.9944427,2.9293072,0.0,2,0,0,0
288793465,49.089679552028954,2.11040602437958,85.9941,131.84818,-0.0,0.060078744,0.014435761,-0.0073357993,0.7547214,0.9940998,2.929222,0.0,2,0,0,0
289001513,49.08967971553326,2.1104060307433814,85.99527,131.8476,-0.0,0.06377132,0.01550016,-0.008834976,0.754786,0.99413526,2.9293137,0.0,2,0,0,0
289200677,49.089679872622256,2.110406033597363,85.99842,131.84929,-0.0,0.06575767,0.016272798,-0.00752754,0.7544974,0.9938668,2.9292293,0.0,2,0,0,0
289408673,49.08968004408565,2.110406037001301,86.003235,131.85287,-0.0,0.06751236,0.020466292,-0.00906024,0.75437266,0.9939049,2.9293163,0.0,2,0,0,0
289607864,49.08968020151771,2.1104060385456296,86.00451,131.85233,-0.0,0.0693287,0.020509042,-0.008123937,0.75422573,0.9936944,2.9292321,0.0,2,0,0,0
289807064,49.08968033301413,2.1104060421069946,86.00588,131.85144,-0.0,0.06869008,0.023150781,-0.0063642403,0.75430214,0.9934831,2.9292781,0.0,2,0,0,0
290014289,49.0896804317823,2.1104060604676302,86.00871,131.85213,-0.0,0.06870227,0.024499478,-0.006678624,0.7542301,0.99350333,2.9292388,0.0,2,0,0,0
290214278,49.08968049281342,2.1104060760520604,86.002846,131.8441,-0.0,0.064854056,0.028497702,-0.005016481,0.7540161,0.9932944,2.9292803,0.0,2,0,0,0
290421464,49.08968054118546,2.11040608079267,85.992485,131.83148,-0.0,0.058725197,0.032264058,-0.0007611064,0.7537331,0.9933694,2.9292452,0.0,2,0,0,0
290620708,49.089680592302045,2.110406103030192,85.98529,131.82208,-0.0,0.05885256,0.03307722,0.003939939,0.75369406,0.99312985,2.9292886,0.0,2,0,0,0
291231064,49.08968068791419,2.1104061754794157,85.9793,131.80829,-0.0,0.046970636,0.037749592,0.0003533681,0.7536495,0.992772,2.9292228,0.0,2,0,0,0
291431065,49.089680724690666,2.110406178962839,85.97469,131.80109,-0.0,0.04690915,0.03488516,0.0056011076,0.75355065,0.99273473,2.9292908,0.0,2,0,0,0
291638303,49.089680775704224,2.110406162329934,85.968506,131.79237,-0.0,0.04610072,0.03403565,0.010420783,0.7533868,0.99281794,2.9292562,0.0,2,0,0,0
291838320,49.08968081323528,2.1104061139773846,85.971306,131.79277,-0.0,0.04512046,0.030450085,0.009765201,0.7533929,0.9926551,2.9293065,0.0,2,0,0,0
292037472,49.089680834916706,2.1104060387771058,85.98319,131.80199,-0.0,0.041827496,0.024017494,0.0023549395,0.7534642,0.9924524,2.929225,0.0,2,0,0,0
292240665,49.089680858965295,2.1104059720895396,85.98631,131.8026,-0.0,0.043841,0.02557437,-0.0030586515,0.7534916,0.9924331,2.929292,0.0,2,0,0,0
292441471,49.08968088270516,2.110405919074727,85.99555,131.80894,-0.0,0.041478083,0.024388757,-0.005622083,0.75360155,0.99225134,2.929338,0.0,2,0,0,0
292643864,49.08968090840053,2.1104058753060335,86.001175,131.8116,-0.0,0.039141923,0.022708027,-0.006749586,0.7535942,0.99221593,2.9292748,0.0,2,0,0,0
292843115,49.08968091574196,2.110405825015404,86.00967,131.81671,-0.0,0.0380247,0.022967052,-0.010139761,0.7534584,0.9920562,2.9293175,0.0,2,0,0,0
293050330,49.089680913992204,2.1104057788633317,86.01532,131.81873,-0.0,0.035281096,0.031271372,-0.013813156,0.75351626,0.99213403,2.929275,0.0,2,0,0,0
293250265,49.08968091450667,2.110405736142528,86.021675,131.8208,-0.0,0.031195644,0.025772799,-0.014449016,0.7541249,0.99189824,2.9293137,0.0,2,0,0,0
293449471,49.089680912928365,2.1104056653690244,86.02869,131.82277,-0.0,0.023472998,0.025047526,-0.010927357,0.7541798,0.99168855,2.929234,0.0,2,0,0,0
293656671,49.08968090496899,2.1104055611732826,86.035706,131.82503,-0.0,0.016000569,0.02279005,-0.010261915,0.75368005,0.99170405,2.929323,0.0,2,0,0,0
293855865,49.08968089083445,2.1104054543844746,86.04466,131.82979,-0.0,0.03227554,0.030138372,-0.015975432,0.7536312,0.9913574,2.9292405,0.0,2,0,0,0
294063864,49.089680940166936,2.110405419495052,86.05051,131.83134,-0.0,0.08053326,0.0750478,-0.019556582,0.7557438,0.9911603,2.929329,0.0,2,0,0,0
294263109,49.089681138080714,2.110405477301693,86.0606,131.83723,-0.0,0.18645538,0.15979841,-0.018708572,0.7565299,0.99064606,2.92925,0.0,2,0,0,0
294469512,49.08968163401563,2.1104060504014277,86.07359,131.84167,-0.0,0.43273458,0.44730073,0.008210364,0.7548213,0.99039835,2.9293354,0.0,2,0,0,0
294670271,49.08968273504884,2.1104073373090575,86.079094,131.84247,-0.0,0.7709729,0.74756676,0.10677417,0.7626965,0.98979497,2.9293728,0.0,2,0,0,0
294869465,49.08968438635866,2.11040933323172,86.089966,131.85333,-0.0,0.99017835,0.9298468,-0.09860034,0.7584434,0.9892424,2.9292917,0.0,2,0,0,0
295076686,49.08968690874431,2.1104120908415847,86.08082,131.83539,-0.0,1.4068643,1.2515715,-0.1302345,0.75964713,0.98894185,2.9292533,0.0,2,0,0,0
295276689,49.08969019129251,2.1104153695829835,86.07193,131.8228,-0.0,1.7743804,1.5549177,-0.07169138,0.76727605,0.98843926,2.9292946,0.0,2,0,0,0
295479882,49.08969428687004,2.1104194135485597,86.078926,131.8269,-0.0,2.1625721,1.9627872,0.039353468,0.77923477,0.9879788,2.929336,0.0,2,0,0,0
295687088,49.08969926419315,2.1104244558561422,86.071495,131.81693,-0.0,2.5584247,2.4482403,4.1571315e-05,0.7981091,0.9879823,2.9294393,0.0,2,0,0,0
295719072,49.089700107206696,2.110425357597903,86.06605,131.8115,-0.0,2.6646752,2.5231755,0.11937385,0.8020133,0.9822073,2.9292798,0.0,2,0,0,0
296094304,49.08971198088905,2.110437600876794,86.04039,131.78004,-0.0,3.607667,3.5241807,0.0061096502,0.8654493,0.98765564,2.9292996,0.0,2,0,0,0
296126287,49.0897131341363,2.1104389136643045,86.04334,131.78299,-0.0,3.6405597,3.6178443,-0.13455828,0.8697822,0.98192585,2.9292703,0.0,2,0,0,0
304327878,49.090901646660356,2.1101265157996427,113.08606,158.00635,-0.0,16.204363,-12.401066,-9.0236025,-0.7150111,1.0323989,2.9296668,0.0,2,0,0,0
304527096,49.09092863752838,2.1100952528510475,114.747055,159.64728,-0.0,15.795517,-12.633994,-8.616432,-0.6861945,1.0339587,2.9296281,0.0,2,0,0,0
304735066,49.09095665276253,2.110061523195338,116.35592,161.2355,-0.0,15.430472,-12.774532,-8.389144,-0.6794586,1.0364056,2.9296274,0.0,2,0,0,0
304934320,49.0909831456117,2.1100286922815488,117.85411,162.71732,-0.0,15.056554,-12.831061,-8.420475,-0.686574,1.0377164,2.929681,0.0,2,0,0,0
305141465,49.09101022110156,2.109994326791579,119.40694,164.25674,-0.0,14.68407,-12.9218025,-8.398127,-0.69769543,1.039442,2.9296467,0.0,2,0,0,0
305341465,49.091036152808584,2.1099603550261774,120.85394,165.69206,-0.0,14.470521,-13.142263,-7.9534845,-0.708325,1.040267,2.9296913,0.0,2,0,0,0
305544664,49.091062456103224,2.1099250584970264,122.20119,167.02882,-0.0,14.392732,-13.476365,-7.167796,-0.7181568,1.0412343,2.9296224,0.0,2,0,0,0
305743871,49.09108835099989,2.109889236647947,123.36354,168.18823,-0.0,14.376498,-13.875894,-6.293579,-0.7218313,1.0419681,2.9296634,0.0,2,0,0,0
305951873,49.091115462643096,2.109850591575535,124.4026,169.23393,-0.0,14.414094,-14.342099,-5.285085,-0.71754235,1.0425423,2.9295876,0.0,2,0,0,0
306151064,49.09114165034041,2.1098128051103306,125.23977,170.08203,-0.0,14.397141,-14.812434,-4.4879932,-0.71988976,1.0424312,2.929588,0.0,2,0,0,0
306358299,49.091169065894015,2.1097719135688737,125.98698,170.84203,-0.0,14.254792,-15.360247,-3.9703612,-0.73174095,1.0428842,2.9295092,0.0,2,0,0,0
306558323,49.09119521703184,2.109730472985708,126.66073,171.52994,-0.0,13.924793,-15.955135,-3.9072933,-0.75761026,1.0428898,2.9295142,0.0,2,0,0,0
306765473,49.091221554887575,2.1096855935250414,127.38835,172.27516,-0.0,13.4512615,-16.56564,-4.0922666,-0.7914078,1.0433995,2.9294388,0.0,2,0,0,0
306964665,49.09124594631784,2.1096406772837093,128.1564,173.06258,-0.0,12.915711,-17.104254,-4.3976064,-0.8268778,1.0435197,2.9293299,0.0,2,0,0,0
307171865,49.09127007943697,2.1095922082800898,129.06201,173.98872,-0.0,12.223234,-17.612871,-4.8817673,-0.86655563,1.0439699,2.929395,0.0,2,0,0,0
308584665,49.09139981665959,2.109235906397395,137.67836,182.74573,-0.0,7.861255,-19.183441,-6.638546,-1.0785596,1.051404,2.9293163,0.0,2,0,0,0
308791887,49.09141438600251,2.10918139755065,139.00378,184.09123,-0.0,7.397995,-19.429619,-6.2994704,-1.0921093,1.053983,2.929429,0.0,2,0,0,0
308991072,49.091427602570846,2.1091283908854757,140.18478,185.2921,-0.0,7.011361,-19.72176,-5.7587833,-1.0957611,1.0564014,2.9294987,0.0,2,0,0,0
309198328,49.091440619134914,2.109072445029297,141.30826,186.43561,-0.0,6.5749044,-20.056355,-5.2298403,-1.1003721,1.0600902,2.9294941,0.0,2,0,0,0
309398301,49.09145226686306,2.109017595355509,142.31038,187.4576,-0.0,6.0770984,-20.364513,-4.8874726,-1.1081069,1.0628628,2.9294367,0.0,2,0,0,0
309525465,49.09145914737146,2.1089822382106553,142.92111,188.08838,-0.0,5.706024,-20.549797,-4.790216,-1.1162971,1.0605618,2.929486,0.0,2,0,0,0
309804678,49.091473184874786,2.108903445351003,144.24664,189.43416,-0.0,4.8815975,-20.893494,-4.6876955,-1.1411096,1.0680845,2.9294906,0.0,2,0,0,0
310004677,49.09148207671856,2.1088461447900615,145.198,190.40544,-0.0,4.242841,-21.090992,-4.7206545,-1.1617675,1.069002,2.9295332,0.0,2,0,0,0
310207865,49.09149011194599,2.108787310742777,146.17326,191.40088,-0.0,3.643632,-21.266972,-4.6977925,-1.1848825,1.0698526,2.929465,0.0,2,0,0,0
310407065,49.09149702766916,2.1087291657279543,147.14883,192.39589,-0.0,3.0839517,-21.415619,-4.6420894,-1.2113247,1.0697626,2.929502,0.0,2,0,0,0
310615067,49.09150297367834,2.1086682915350417,148.16806,193.43558,-0.0,2.4343092,-21.56157,-4.5973773,-1.2456968,1.0698066,2.9295738,0.0,2,0,0,0
310814300,49.09150750751124,2.1086098211568234,149.12292,194.41054,-0.0,1.8282197,-21.701845,-4.456616,-1.2782924,1.0687677,2.929457,0.0,2,0,0,0
311021465,49.09151121818129,2.1085484835068162,150.06802,195.37575,-0.0,1.306331,-21.886368,-4.0989957,-1.310391,1.0687815,2.929404,0.0,2,0,0,0
311224672,49.09151404879932,2.108487564781663,150.91754,196.24545,-0.0,0.8432233,-22.106785,-3.610793,-1.3427888,1.067874,2.9294262,0.0,2,0,0,0
311424665,49.09151614742913,2.108426902365557,151.65027,196.99771,-0.0,0.3650996,-22.343441,-3.0908751,-1.375674,1.0683296,2.9293597,0.0,2,0,0,0
311623898,49.09151733826149,2.108365342477219,152.28494,197.65263,-0.0,-0.25481132,-22.605894,-2.6358027,-1.4097046,1.0673711,2.9293804,0.0,2,0,0,0
311831088,49.09151713615323,2.108300544240243,152.84203,198.2296,-0.0,-1.0115316,-22.866566,-2.1959367,-1.4483825,1.0678716,2.9293325,0.0,2,0,0,0
312031064,49.091515243839325,2.10823751156318,153.29752,198.7031,-0.0,-1.8739303,-23.089231,-1.8093256,-1.492666,1.0680763,2.9293702,0.0,2,0,0,0
312230265,49.09151145543884,2.1081741944175443,153.69066,199.11371,-0.0,-3.0152018,-23.23949,-1.6127671,-1.5443423,1.0674464,2.9293876,0.0,2,0,0,0
312437521,49.09150494273581,2.108107990430938,154.08301,199.52051,-0.0,-4.3234982,-23.300764,-1.5533844,-1.5995024,1.0678552,2.9293404,0.0,2,0,0,0
312637471,49.09149614730156,2.10804411722027,154.47841,199.92812,-0.0,-5.716554,-23.230906,-1.7498642,-1.6664919,1.0678588,2.9293795,0.0,2,0,0,0
312844665,49.09148425310017,2.1079785273474503,154.9602,200.42007,-0.0,-7.266918,-22.979347,-2.2354946,-1.7470322,1.0681916,2.9293404,0.0,2,0,0,0
313047871,49.09146979101149,2.10791507947953,155.53879,201.00713,-0.0,-8.734638,-22.581886,-2.8076181,-1.8249832,1.069256,2.929291,0.0,2,0,0,0
313247111,49.09145324051199,2.107854043499023,156.2044,201.67657,-0.0,-9.971676,-22.152845,-3.1657295,-1.8856264,1.0699055,2.9293768,0.0,2,0,0,0
313447078,49.09143464918231,2.1077938303794825,156.9051,202.37706,-0.0,-11.063836,-21.71906,-3.2984045,-1.9361145,1.07013,2.9294343,0.0,2,0,0,0
313654265,49.09141368983447,2.1077327654124534,157.64514,203.11252,-0.0,-12.100597,-21.234798,-3.36821,-1.9808539,1.0709813,2.929426,0.0,2,0,0,0
313857478,49.09139155216714,2.1076742985868657,158.36502,203.82178,-0.0,-13.013089,-20.741903,-3.3911235,-2.0196705,1.0711794,2.929489,0.0,2,0,0,0
314057465,49.091368141898926,2.1076180097591712,159.0661,204.506,-0.0,-13.840047,-20.246677,-3.3980997,-2.0555062,1.0720707,2.9294589,0.0,2,0,0,0
314256685,49.09134308699776,2.1075632904180255,159.76059,205.18034,-0.0,-14.586437,-19.78178,-3.3210592,-2.0900137,1.0737029,2.9295647,0.0,2,0,0,0
314463865,49.09131517472948,2.107507492759188,160.44931,205.84964,-0.0,-15.341602,-19.297825,-3.1812415,-2.1261177,1.0751522,2.9295635,0.0,2,0,0,0
314663865,49.09128654867453,2.1074547856664556,161.07565,206.4557,-0.0,-16.139463,-18.73901,-3.1252658,-2.1735346,1.0774889,2.929677,0.0,2,0,0,0
314871096,49.09125529362537,2.1074019947814153,161.73679,207.0772,-0.0,-17.044125,-17.990633,-3.2018676,-2.2309353,1.0795484,2.9296792,0.0,2,0,0,0
315070265,49.09122346260885,2.107353635997245,162.38766,207.70822,-0.0,-17.951717,-17.132347,-3.3240516,-2.2878058,1.081673,2.9297817,0.0,2,0,0,0
315278337,49.0911883753598,2.1073057362062846,163.06451,208.36517,-0.0,-18.85159,-16.208307,-3.3407524,-2.344286,1.0843627,2.9297903,0.0,2,0,0,0
315481511,49.09115253853636,2.1072614567264942,163.71362,208.99432,-0.0,-19.670942,-15.287202,-3.297326,-2.3980453,1.0857699,2.929872,0.0,2,0,0,0
315680673,49.091115925115346,2.1072209968361384,164.3557,209.61604,-0.0,-20.44689,-14.305931,-3.332342,-2.4543214,1.086583,2.9298165,0.0,2,0,0,0
315879864,49.091077915633186,2.107183339207878,164.99826,210.23871,-0.0,-21.12298,-13.363825,-3.3862164,-2.5098605,1.0874177,2.9297493,0.0,2,0,0,0
316087865,49.091037152459,2.107146522131365,165.65634,210.8764,-0.0,-21.695766,-12.535203,-3.3083396,-2.5671654,1.0893447,2.9298933,0.0,2,0,0,0
316287074,49.09099729988125,2.107113417430138,166.25539,211.45554,-0.0,-22.186821,-11.768636,-3.2949038,-2.6293674,1.0909102,2.9298508,0.0,2,0,0,0
316494264,49.09095501294304,2.107081291138387,166.87381,212.05356,-0.0,-22.637877,-11.001257,-3.3268397,-2.701329,1.0923994,2.9299796,0.0,2,0,0,0
316694279,49.09091340756444,2.1070525000371214,167.47263,212.63237,-0.0,-23.056347,-10.236266,-3.2750242,-2.76652,1.0924087,2.9300249,0.0,2,0,0,0
316901465,49.0908693350378,2.1070248910257043,168.0481,213.18793,-0.0,-23.497244,-9.448526,-2.9725895,-2.8233337,1.0937454,2.93,0.0,2,0,0,0
317104671,49.09082508845469,2.1070000481220728,168.52406,213.64351,-0.0,-23.924849,-8.686045,-2.44313,-2.8705704,1.0935751,2.9298892,0.0,2,0,0,0
317304664,49.09078105478896,2.106977845141436,168.88858,213.98804,-0.0,-24.051037,-7.7730093,-1.9395431,-2.9159636,1.0935618,2.9299438,0.0,2,0,0,0
317503889,49.090737201667565,2.1069586089746752,169.17345,214.25267,-0.0,-23.912476,-6.6390023,-1.6154134,-2.963908,1.0930417,2.9299688,0.0,2,0,0,0
317711065,49.090691909137526,2.1069421448576664,169.44318,214.50253,-0.0,-23.682665,-5.296617,-1.5031091,-3.0114326,1.0928303,2.9299045,0.0,2,0,0,0
317911065,49.090648674857675,2.106930028737055,169.67682,214.71614,-0.0,-23.391129,-3.9539242,-1.449049,-3.054866,1.091729,2.9299293,0.0,2,0,0,0
318110265,49.090606178020984,2.106921893573465,169.88635,214.90657,-0.0,-23.06066,-2.6505222,-1.335959,-3.096449,1.0903679,2.9299612,0.0,2,0,0,0
318317478,49.090562436123165,2.10691752451289,170.05765,215.05746,-0.0,-22.681879,-1.3922813,-1.1307002,-3.1378458,1.0890754,2.9299057,0.0,2,0,0,0
318516665,49.09052071991611,2.1069163043856296,170.15508,215.13492,-0.0,-22.315481,-0.31325325,-0.84579986,3.1082575,1.0869838,2.9299426,0.0,2,0,0,0
318724671,49.09047747172534,2.1069172452317013,170.15361,215.11383,-0.0,-21.972628,0.50659823,-0.2684074,3.0720038,1.0710363,2.9297202,0.0,2,0,0,0
318927871,49.09043581858035,2.106920391228816,170.00772,214.94806,-0.0,-21.678244,1.1011215,0.4781865,3.02148,1.0687964,2.9297564,0.0,2,0,0,0
319127069,49.090395320848955,2.106924837162036,169.71712,214.63701,-0.0,-21.441341,1.602448,1.2177392,2.9568632,1.0667734,2.9298077,0.0,2,0,0,0
319334294,49.09035349591752,2.106930681286935,169.25731,214.15742,-0.0,-21.243422,2.1014097,1.9497769,2.8818173,1.0651112,2.9297392,0.0,2,0,0,0
319534271,49.090313397455226,2.1069375704889293,168.68317,213.56299,-0.0,-21.082693,2.6101942,2.6218297,2.8142376,1.0631279,2.9297519,0.0,2,0,0,0
319733465,49.09027410435212,2.1069460228357664,167.99457,212.85393,-0.0,-20.905106,3.2027693,3.2704008,2.76848,1.0613916,2.9297667,0.0,2,0,0,0
319940695,49.09023382370482,2.106956585376942,167.16399,212.00331,-0.0,-20.70674,3.8922622,3.9337544,2.7478874,1.0601366,2.9296858,0.0,2,0,0,0
320140665,49.09019531468396,2.10696853077163,166.26082,211.0804,-0.0,-20.536766,4.63406,4.3804383,2.7342832,1.0585548,2.929691,0.0,2,0,0,0
320343883,49.090156562370076,2.1069828725353075,165.30138,210.10114,-0.0,-20.402533,5.467032,4.3799906,2.7105694,1.0571145,2.9297013,0.0,2,0,0,0
320543114,49.09011883849571,2.106999465560559,164.40439,209.18393,-0.0,-20.286366,6.291288,3.9222748,2.674098,1.0559162,2.9297316,0.0,2,0,0,0
320751065,49.090079844009765,2.1070191599332535,163.63171,208.39177,-0.0,-20.117495,7.0890007,2.9825463,2.6231737,1.0550399,2.9296453,0.0,2,0,0,0
320954265,49.09004222614831,2.1070403985235227,163.07886,207.8185,-0.0,-19.851547,7.6887383,2.1548643,2.5696764,1.0540411,2.9296675,0.0,2,0,0,0
321153465,49.09000586070905,2.1070627949370024,162.6495,207.36887,-0.0,-19.526245,8.150347,1.7716401,2.5158901,1.052836,2.9296734,0.0,2,0,0,0
321353499,49.089970322434446,2.107086514325839,162.26727,206.96701,-0.0,-19.144308,8.561461,1.6558173,2.464048,1.051584,2.9296694,0.0,2,0,0,0
321560665,49.08993420218848,2.107112653131597,161.859,206.53867,-0.0,-18.733881,8.994979,1.8664694,2.4218652,1.0506374,2.9295743,0.0,2,0,0,0
321759865,49.08990053666981,2.1071390360507536,161.3851,206.04448,-0.0,-18.32349,9.406976,2.3885136,2.3993168,1.049209,2.929575,0.0,2,0,0,0
321959865,49.08986775947755,2.1071666136950347,160.79755,205.4421,-0.0,-17.926273,9.819886,2.9998674,2.3920784,1.0477732,2.929575,0.0,2,0,0,0
322167081,49.089834709712974,2.10719638567481,160.06033,204.69102,-0.0,-17.545517,10.251926,3.5897195,2.39247,1.04677,2.9294918,0.0,2,0,0,0
322366294,49.08980360329355,2.1072261027862687,159.24634,203.86588,-0.0,-17.241886,10.652929,4.0132666,2.391755,1.0454665,2.9295015,0.0,2,0,0,0
322573472,49.089771718794644,2.1072580090261375,158.34344,202.95168,-0.0,-17.015259,11.032572,4.2203846,2.3849623,1.0444877,2.9294271,0.0,2,0,0,0
322773470,49.0897413098992,2.1072896202936016,157.47794,202.07512,-0.0,-16.878586,11.330023,4.1691694,2.3710256,1.0431519,2.929436,0.0,2,0,0,0
322976671,49.08971051350661,2.107322468698032,156.63385,201.21951,-0.0,-16.810347,11.557917,3.906362,2.3487923,1.0419114,2.929456,0.0,2,0,0,0
323183879,49.08967908813412,2.107356590294395,155.85278,200.42805,-0.0,-16.770123,11.719935,3.4614658,2.3227499,1.0410273,2.9294107,0.0,2,0,0,0
323383865,49.08964883220397,2.1073900770600535,155.203,199.76828,-0.0,-16.674086,11.874351,2.889338,2.3027394,1.0394477,2.9293005,0.0,2,0,0,0
323591078,49.08961768462702,2.1074254755126978,154.66167,199.21375,-0.0,-16.432323,12.107224,2.2660012,2.296993,1.0381215,2.929369,0.0,2,0,0,0
323794287,49.089587762879056,2.1074610029188783,154.24002,198.77472,-0.0,-16.086687,12.406464,1.7434846,2.3038826,1.0362258,2.9293857,0.0,2,0,0,0
323993464,49.08955930783114,2.107496871323353,153.91566,198.43326,-0.0,-15.684791,12.732254,1.3231047,2.316317,1.0344925,2.9293005,0.0,2,0,0,0
324201472,49.08953050863197,2.1075353793277687,153.63937,198.14194,-0.0,-15.243184,13.037093,1.0392016,2.33082,1.0332103,2.9292417,0.0,2,0,0,0
324400665,49.08950367525467,2.1075729815158546,153.39676,197.87956,-0.0,-14.861234,13.258394,1.0020671,2.3403244,1.0317625,2.9292724,0.0,2,0,0,0
324608665,49.08947625159563,2.1076127227176884,153.11371,197.57657,-0.0,-14.528459,13.43616,1.1952008,2.340954,1.0309185,2.9292197,0.0,2,0,0,0
324807865,49.08945037269685,2.1076511677554173,152.78911,197.2317,-0.0,-14.269277,13.583876,1.4957262,2.3340747,1.0299011,2.9292486,0.0,2,0,0,0
325015071,49.08942379062498,2.1076915942348613,152.37244,196.79478,-0.0,-14.044491,13.734937,1.8813937,2.3211024,1.0295203,2.929326,0.0,2,0,0,0
325214265,49.08939865441408,2.107730777574983,151.88211,196.28592,-0.0,-13.85107,13.876429,2.357564,2.3063955,1.0288769,2.9292269,0.0,2,0,0,0
325414271,49.089373714314966,2.1077701980661323,151.29765,195.69131,-0.0,-13.68787,14.022978,2.8617907,2.2909622,1.0283216,2.9292545,0.0,2,0,0,0
325617465,49.08934858079666,2.1078105407264323,150.61328,194.99861,-0.0,-13.547575,14.185033,3.405958,2.2742724,1.0280904,2.9291813,0.0,2,0,0,0
325816682,49.08932419960374,2.1078507607197006,149.83788,194.21701,-0.0,-13.418427,14.366157,4.0117607,2.2558708,1.0277393,2.9292138,0.0,2,0,0,0
326016685,49.089299889655194,2.107891796627778,148.94937,193.32372,-0.0,-13.296233,14.587467,4.596268,2.2378004,1.0274783,2.929244,0.0,2,0,0,0
326223871,49.08927483489169,2.1079350002535953,147.93616,192.30956,-0.0,-13.180156,14.8816805,4.9819264,2.2181108,1.0276566,2.9292004,0.0,2,0,0,0
326423115,49.08925096608584,2.1079771948238135,146.9199,191.29623,-0.0,-13.063085,15.214834,5.177126,2.197135,1.0279188,2.9292517,0.0,2,0,0,0
326622278,49.08922738779488,2.10802021493369,145.87999,190.26021,-0.0,-12.926237,15.600652,5.2736,2.1748977,1.0281487,2.9292958,0.0,2,0,0,0
326830265,49.08920315981217,2.108066275074043,144.79005,189.17532,-0.0,-12.712839,16.04085,5.339291,2.1542354,1.029066,2.9292624,0.0,2,0,0,0
327029465,49.08918033274927,2.108111672523589,143.7501,188.14279,-0.0,-12.416405,16.537977,5.2235436,2.13826,1.0293181,2.9293005,0.0,2,0,0,0
327232665,49.08915760220179,2.108159539167823,142.74423,187.14215,-0.0,-11.988215,17.122845,4.8782053,2.1279128,1.0296756,2.9293356,0.0,2,0,0,0
327432671,49.08913609433418,2.1082083048496556,141.8396,186.23988,-0.0,-11.457201,17.700974,4.4254484,2.1218371,1.0304332,2.9292653,0.0,2,0,0,0
327635911,49.08911527034174,2.1082593640984455,141.01991,185.42075,-0.0,-10.864647,18.220268,3.9155254,2.1176786,1.0313728,2.9293215,0.0,2,0,0,0
327835065,49.08909588291502,2.1083107983135965,140.31853,184.7171,-0.0,-10.282077,18.637901,3.377651,2.1121721,1.0322932,2.9293559,0.0,2,0,0,0
328042279,49.0890768493539,2.1083656155197,139.7054,184.09734,-0.0,-9.66951,18.986177,2.7216635,2.103399,1.0336831,2.9293056,0.0,2,0,0,0
328242275,49.08905955341679,2.1084194104593474,139.24072,183.62077,-0.0,-9.13226,19.202486,2.1036677,2.091241,1.0346248,2.929335,0.0,2,0,0,0
328441465,49.08904326804221,2.108473554830419,138.90503,183.27103,-0.0,-8.650825,19.32278,1.5054235,2.0745916,1.0355849,2.9293723,0.0,2,0,0,0
328648681,49.089027252921134,2.1085301778182592,138.66797,183.01685,-0.0,-8.184147,19.363281,0.9224307,2.0534759,1.0369291,2.9293256,0.0,2,0,0,0
328848665,49.089012652319006,2.1085844731238748,138.54645,182.87471,-0.0,-7.7645736,19.322447,0.47256878,2.0323486,1.0377141,2.9293575,0.0,2,0,0,0
329055900,49.08899818839825,2.108640429843963,138.46713,182.77554,-0.0,-7.3993707,19.238714,0.3599822,2.0131216,1.0388968,2.9294384,0.0,2,0,0,0
329255080,49.08898485771991,2.1086939895436365,138.37004,182.65797,-0.0,-7.062737,19.170326,0.5025809,1.9961789,1.0395156,2.929464,0.0,2,0,0,0
329458300,49.08897181760855,2.1087485128823644,138.23317,182.50168,-0.0,-6.689564,19.135988,0.7585934,1.978574,1.040114,2.9293573,0.0,2,0,0,0
329658297,49.08895965322814,2.1088020154838842,138.03241,182.28087,-0.0,-6.2661157,19.137749,1.083132,1.9602165,1.0408723,2.9294002,0.0,2,0,0,0
329865473,49.08894790852068,2.108857209248587,137.75085,181.97925,-0.0,-5.741405,19.177961,1.445691,1.9391482,1.0418396,2.9293535,0.0,2,0,0,0
330064665,49.08893768006479,2.1089104697065904,137.40819,181.61635,-0.0,-5.1401205,19.260654,1.8032086,1.9174922,1.0419245,2.9293818,0.0,2,0,0,0
330264665,49.08892855886682,2.1089643283423287,136.96858,181.15717,-0.0,-4.454943,19.3704,2.1919363,1.8882848,1.0417298,2.9294078,0.0,2,0,0,0
330471871,49.08892069065176,2.109020570127968,136.44777,180.61594,-0.0,-3.4988084,19.54402,2.3899612,1.8421174,1.0418369,2.9293563,0.0,2,0,0,0
330675065,49.08891495251621,2.109076002891973,135.94562,180.09396,-0.0,-2.3075914,19.724985,2.2768354,1.7907364,1.040963,2.9293349,0.0,2,0,0,0
330875071,49.088911311701175,2.109130801085566,135.49164,179.62006,-0.0,-1.1085616,19.838676,2.0968108,1.7352368,1.0412934,2.9294286,0.0,2,0,0,0
331074265,49.08890982461302,2.109185392282126,135.09453,179.1834,-0.0,0.15029891,19.879736,1.8558009,1.6760265,1.0410273,2.9293292,0.0,2,0,0,0
331281464,49.08891089462333,2.109242171318776,134.74634,178.81459,-0.0,1.5096081,19.867678,1.5497439,1.6154772,1.041395,2.9294143,0.0,2,0,0,0
331480671,49.08891452606271,2.1092965267340706,134.4602,178.50847,-0.0,2.8169153,19.78639,1.2188137,1.5575622,1.0413216,2.9293253,0.0,2,0,0,0
331688664,49.088920883520345,2.1093528153051673,134.234,178.26233,-0.0,4.1266427,19.583906,0.8648202,1.4943414,1.0418375,2.9294112,0.0,2,0,0,0
331887878,49.08892893640207,2.10940569230968,134.09549,178.10384,-0.0,5.3227816,19.273872,0.42791668,1.4282056,1.0420508,2.9294605,0.0,2,0,0,0
332295125,49.08895225757159,2.1095100932901016,134.12347,178.09195,-0.0,7.5006795,18.347057,-0.64469665,1.282896,1.0432014,2.9294806,0.0,2,0,0,0
332494271,49.088966224930324,2.1095585037407067,134.29002,178.2385,-0.0,8.395021,17.755827,-1.0998031,1.2114608,1.0437956,2.9295373,0.0,2,0,0,0
332526267,49.08896861060621,2.1095661396751013,134.32579,178.27426,-0.0,8.530769,17.654217,-1.164345,1.200666,1.0352417,2.9293792,0.0,2,0,0,0
332893471,49.088998225157596,2.1096504045026125,134.80121,178.70969,-0.0,9.885774,16.502068,-1.4865404,1.0972215,1.0479096,2.929575,0.0,2,0,0,0
333100699,49.089017112483084,2.109695879260974,135.04984,178.93849,-0.0,10.50591,15.985807,-1.1308258,1.0491177,1.0516261,2.9297156,0.0,2,0,0,0
333299865,49.08903628848648,2.1097382456067804,135.20786,179.07613,-0.0,11.100123,15.5142355,-0.66620564,1.0038162,1.0545262,2.9298007,0.0,2,0,0,0
333503114,49.08905684435952,2.109780139756992,135.2863,179.13467,-0.0,11.746546,15.005586,-0.21422076,0.95642394,1.0560684,2.9297051,0.0,2,0,0,0
333711065,49.08907897746235,2.1098209266952184,135.30064,179.13,-0.0,12.510416,14.370795,0.08124085,0.90844554,1.0577691,2.9296715,0.0,2,0,0,0
334923082,49.08923717637673,2.110016880622523,134.7597,178.46808,-0.0,16.862196,9.650852,0.64706427,0.6726056,1.0621758,2.9298124,0.0,2,0,0,0
335123103,49.0892674869745,2.110041327223781,134.68053,178.36897,-0.0,17.437595,8.729854,0.49551383,0.6340306,1.0619819,2.9298356,0.0,2,0,0,0
335330276,49.089299498131666,2.110063699885161,134.64027,178.31122,-0.0,17.894732,7.8021474,0.32409793,0.5953984,1.0491916,2.9296608,0.0,2,0,0,0
335529465,49.08933103167967,2.110082701198295,134.64194,178.29579,-0.0,18.234898,6.9279647,0.079523996,0.5561057,1.048149,2.9296787,0.0,2,0,0,0
335737465,49.08936424791027,2.11010012439512,134.70343,178.34282,-0.0,18.43817,6.1040483,-0.20199616,0.5102254,1.0472579,2.9296083,0.0,2,0,0,0
335936702,49.08939622530472,2.1101148497137983,134.82726,178.44778,-0.0,18.51296,5.4040837,-0.51964235,0.45685583,1.0458434,2.9296284,0.0,2,0,0,0
336144681,49.08942944355786,2.110128421239923,135.0347,178.63522,-0.0,18.486275,4.742559,-0.8659896,0.3921701,1.0447763,2.9296927,0.0,2,0,0,0
336343123,49.08946083534342,2.1101399460934442,135.30182,178.88748,-0.0,18.409046,4.1689606,-1.0833588,0.32671365,1.0432769,2.9295726,0.0,2,0,0,0
336551071,49.08949366790515,2.110150376185526,135.60272,179.17076,-0.0,18.323584,3.5684352,-1.1891915,0.2573188,1.0418426,2.929626,0.0,2,0,0,0
336750277,49.08952496800697,2.110158933410144,135.92422,179.47803,-0.0,18.242214,2.9610374,-1.2515376,0.19156443,1.0400579,2.929506,0.0,2,0,0,0
336954265,49.08955700373251,2.1101659310567347,136.25804,179.80383,-0.0,18.171732,2.3041856,-1.1604748,0.13174613,1.038091,2.9295125,0.0,2,0,0,0
337352664,49.08962015351744,2.1101750874441927,136.7897,180.33751,-0.0,18.159817,0.9920314,-0.5534677,0.043628953,1.0342412,2.9295545,0.0,2,0,0,0
337551864,49.08965194138974,2.11017736686842,136.95592,180.50888,-0.0,18.205233,0.32549143,-0.099405594,0.01103963,1.0322771,2.9294288,0.0,2,0,0,0
337759875,49.08968539252995,2.110177772690589,137.01646,180.5759,-0.0,18.2895,-0.37115863,0.43763018,-0.018044848,1.0307959,2.9294841,0.0,2,0,0,0
337963079,49.089718472122414,2.1101762280273197,136.9651,180.52992,-0.0,18.396925,-1.0542674,0.96962076,-0.045306742,1.0292312,2.9294984,0.0,2,0,0,0
338162265,49.0897508662989,2.1101729588195597,136.82918,180.39851,-0.0,18.49757,-1.7422731,1.3787533,-0.07671055,1.0281032,2.929404,0.0,2,0,0,0
338369465,49.08978485447665,2.110167445053075,136.61855,180.19077,-0.0,18.635242,-2.4877818,1.6113626,-0.11642604,1.0272263,2.929335,0.0,2,0,0,0
338569471,49.089817794002066,2.110160245242522,136.38461,179.95746,-0.0,18.74148,-3.19957,1.7375854,-0.16193704,1.0261669,2.9293513,0.0,2,0,0,0
338776664,49.089852026591025,2.1101505417657913,136.13087,179.70406,-0.0,18.83121,-3.9228826,1.8444455,-0.21143861,1.0257453,2.9294183,0.0,2,0,0,0
338979865,49.08988578961817,2.1101390333659356,135.83673,179.4092,-0.0,18.926601,-4.602547,2.0826302,-0.2593318,1.0251381,2.9294348,0.0,2,0,0,0
339179911,49.08991933876958,2.1101259187899535,135.48164,179.05412,-0.0,19.079456,-5.248651,2.4620457,-0.30226207,1.0248555,2.929347,0.0,2,0,0,0
339379083,49.089953256120815,2.110111101688966,135.06215,178.63376,-0.0,19.416914,-5.936971,2.7925038,-0.33695254,1.024432,2.9293745,0.0,2,0,0,0
339586276,49.08998929235463,2.110093446771886,134.54752,178.11801,-0.0,19.931541,-6.7352085,3.220253,-0.3655981,1.0244052,2.9293194,0.0,2,0,0,0
339786265,49.090024974670634,2.1100739902137846,133.94691,177.51535,-0.0,20.420183,-7.5440836,3.7619593,-0.3862133,1.0238993,2.9293487,0.0,2,0,0,0
339985465,49.09006126515317,2.11005217874487,133.24173,176.80643,-0.0,20.833694,-8.3671,4.2969136,-0.39825642,1.0232961,2.929389,0.0,2,0,0,0
340192665,49.09009970442473,2.1100267310165917,132.41353,175.97495,-0.0,21.209793,-9.286503,4.6546154,-0.40654302,1.0229174,2.929351,0.0,2,0,0,0
340391877,49.09013724135195,2.1099994203983115,131.59447,175.15297,-0.0,21.511026,-10.300723,4.600213,-0.41615984,1.0221077,2.9292731,0.0,2,0,0,0
340599882,49.09017681151472,2.109967671414499,130.77661,174.32907,-0.0,21.694403,-11.471156,4.3029447,-0.4294408,1.0216867,2.9293718,0.0,2,0,0,0
340799074,49.09021473467397,2.10993400694369,130.06607,173.60806,-0.0,21.72662,-12.610313,3.9730453,-0.4457887,1.0210192,2.9293036,0.0,2,0,0,0
341006265,49.090254037317315,2.1098955371825054,129.3988,172.92654,-0.0,21.627665,-13.793937,3.5245419,-0.4682088,1.0207629,2.9294086,0.0,2,0,0,0
341206289,49.090291727256954,2.109854996858532,128.8428,172.35333,-0.0,21.400383,-14.942478,2.9571757,-0.49540302,1.0202866,2.9293385,0.0,2,0,0,0
341409464,49.0903294451453,2.1098105714220456,128.42087,171.91135,-0.0,21.017172,-16.113943,2.0889297,-0.5289442,1.0199001,2.9294004,0.0,2,0,0,0
341608721,49.09036545700961,2.109763948432421,128.1973,171.66867,-0.0,20.538177,-17.088095,1.1544553,-0.5714903,1.0198389,2.9293501,0.0,2,0,0,0
341808677,49.09040070860287,2.1097147816983157,128.15762,171.60829,-0.0,20.006502,-17.867188,0.14901271,-0.6241032,1.0196748,2.9294071,0.0,2,0,0,0
342015864,49.090436100934255,2.1096619066380673,128.34598,171.77664,-0.0,19.332619,-18.552183,-1.0137814,-0.682218,1.0200678,2.9293826,0.0,2,0,0,0
342219072,49.090469469157775,2.109608387190251,128.75963,172.17038,-0.0,18.452372,-19.21265,-2.2414987,-0.73279876,1.0201675,2.9294302,0.0,2,0,0,0
342418338,49.09050049024453,2.1095543243697437,129.39824,172.78911,-0.0,17.40393,-19.85404,-3.2937806,-0.774573,1.0206794,2.929495,0.0,2,0,0,0
342626271,49.09053077971331,2.1094962380799003,130.23442,173.60489,-0.0,16.210802,-20.497423,-4.082008,-0.8134924,1.0216734,2.9294493,0.0,2,0,0,0
342825474,49.09055795181211,2.1094392926838395,131.15158,174.50233,-0.0,15.090567,-21.055527,-4.474767,-0.84327096,1.0224609,2.9294841,0.0,2,0,0,0
343032665,49.09058443099111,2.109378958121485,132.13159,175.46207,-0.0,14.006423,-21.565441,-4.6085215,-0.87094706,1.0239226,2.9294446,0.0,2,0,0,0
343231909,49.09060804296173,2.1093198023891118,133.08313,176.3942,-0.0,12.9363,-22.034132,-4.740913,-0.900247,1.0250525,2.9293532,0.0,2,0,0,0
343431864,49.09062993942824,2.109259332261199,134.04436,177.33504,-0.0,11.882747,-22.450739,-4.7879443,-0.9315517,1.0261719,2.9293904,0.0,2,0,0,0
343639074,49.090650683812264,2.1091957011862412,135.0334,178.30415,-0.0,10.803112,-22.823944,-4.7905393,-0.9684632,1.0278001,2.9293506,0.0,2,0,0,0
343838296,49.09066873760309,2.1091337884409187,135.98111,179.23149,-0.0,9.690208,-23.155428,-4.884772,-1.0112858,1.0289109,2.9293883,0.0,2,0,0,0
344038380,49.09068489131983,2.109070801988813,136.95546,180.186,-0.0,8.53625,-23.450792,-5.0032535,-1.0585146,1.0309519,2.9294527,0.0,2,0,0,0
344241465,49.09069915702602,2.1090060333526095,137.96268,181.17435,-0.0,7.33941,-23.72206,-5.0873237,-1.1079085,1.0330486,2.9293914,0.0,2,0,0,0
344448716,49.09071155982596,2.1089391633949868,139.00626,182.19724,-0.0,6.075111,-23.965405,-5.1746545,-1.1597253,1.0356951,2.9293976,0.0,2,0,0,0
344647865,49.09072131458048,2.108874485694936,140.02754,183.19862,-0.0,4.8325586,-24.153837,-5.2440367,-1.2098335,1.0375429,2.9294622,0.0,2,0,0,0
344855864,49.09072899234206,2.108806959028716,141.11511,184.2659,-0.0,3.449781,-24.267227,-5.36933,-1.265644,1.0394903,2.9295657,0.0,2,0,0,0
344927872,49.09073103743297,2.1087835228335554,141.49728,184.62837,-0.0,2.9650855,-24.292078,-5.413289,-1.2853048,1.0330877,2.9295084,0.0,2,0,0,0
345262265,49.09073625631896,2.108676310890482,143.3132,186.42445,-0.0,0.665588,-24.217947,-5.5799556,-1.3801425,1.0422224,2.9295862,0.0,2,0,0,0
345462271,49.09073617721877,2.108612445738309,144.42947,187.52084,-0.0,-0.69924915,-24.094118,-5.620394,-1.433068,1.0435379,2.9295146,0.0,2,0,0,0
345661482,49.09073382124523,2.108549046094117,145.5521,188.62268,-0.0,-1.971732,-23.93817,-5.5505557,-1.4802141,1.0459765,2.929617,0.0,2,0,0,0
345864665,49.09072927070809,2.1084847576508174,146.679,189.72998,-0.0,-3.1673183,-23.761208,-5.400037,-1.5253639,1.04817,2.929576,0.0,2,0,0,0
346064702,49.09072278336724,2.1084221643474494,147.76465,190.79602,-0.0,-4.2667184,-23.544678,-5.224434,-1.5693048,1.0504603,2.9296935,0.0,2,0,0,0
346271925,49.090714137951835,2.1083580563382056,148.86209,191.85464,-0.0,-5.3647766,-23.277245,-5.077734,-1.6149343,1.0527802,2.9296877,0.0,2,0,0,0
346471075,49.090704111524445,2.108296876020051,149.89085,192.86664,-0.0,-6.3825836,-22.978462,-4.989609,-1.6571833,1.0546458,2.929778,0.0,2,0,0,0
346678327,49.09069192578026,2.1082338551628133,150.95088,193.92667,-0.0,-7.370041,-22.645216,-4.9207854,-1.7007185,1.0563589,2.9297528,0.0,2,0,0,0
346878318,49.09067860082442,2.108173966094721,151.96594,194.92355,-0.0,-8.232994,-22.294481,-4.89087,-1.7431585,1.057477,2.929676,0.0,2,0,0,0
347085477,49.09066331677044,2.1081125480889584,153.01373,195.94385,-0.0,-8.950712,-21.994932,-4.7479486,-1.788381,1.0588934,2.9296515,0.0,2,0,0,0
347284664,49.09064751499472,2.108053843588214,153.9708,196.88585,-0.0,-9.48765,-21.814085,-4.392011,-1.8408502,1.058988,2.9296913,0.0,2,0,0,0
347492699,49.090630081531664,2.1079932279269213,154.88815,197.78899,-0.0,-10.06768,-21.635515,-3.9668365,-1.9004273,1.059446,2.9296381,0.0,2,0,0,0
347687865,49.090612905299146,2.1079368011585125,155.6702,198.55437,-0.0,-10.685172,-21.459585,-3.4984272,-1.9483086,1.0590235,2.9296384,0.0,2,0,0,0
347895085,49.09059335674255,2.1078772248507813,156.39557,199.26286,-0.0,-11.384982,-21.311373,-2.794768,-1.983797,1.0594962,2.929593,0.0,2,0,0,0
348094265,49.090573496578756,2.1078201359412936,156.93048,199.77878,-0.0,-11.977549,-21.263002,-1.7738451,-2.006732,1.059277,2.929623,0.0,2,0,0,0
348294265,49.090552371299495,2.1077628671518087,157.26778,200.0976,-0.0,-12.715382,-21.135181,-0.9658323,-2.0419655,1.0589685,2.929651,0.0,2,0,0,0
348497465,49.09052910292973,2.1077052100406712,157.4976,200.30801,-0.0,-13.715897,-20.825783,-0.6677553,-2.0915809,1.0587302,2.9295487,0.0,2,0,0,0
348704665,49.09050331410541,2.1076474230115365,157.71582,200.50609,-0.0,-14.826737,-20.346146,-0.79516727,-2.1629257,1.0593185,2.9296503,0.0,2,0,0,0
348904671,49.090476362633105,2.1075930636836966,157.99463,200.76332,-0.0,-15.901114,-19.719599,-1.2656636,-2.2476757,1.0593523,2.9295478,0.0,2,0,0,0
349111928,49.090446404049175,2.1075389512459592,158.4162,201.167,-0.0,-17.041693,-18.856318,-1.8786445,-2.342858,1.0615067,2.9296396,0.0,2,0,0,0
349315087,49.09041465064686,2.1074890234388453,158.94821,201.67981,-0.0,-18.27398,-17.688217,-2.4692626,-2.4219136,1.0631187,2.929551,0.0,2,0,0,0
349514265,49.09038088122713,2.1074433921725473,159.55267,202.26318,-0.0,-19.497723,-16.416939,-2.6354902,-2.475037,1.0648919,2.9296253,0.0,2,0,0,0
349714271,49.090345117790164,2.1074010319199137,160.12354,202.81424,-0.0,-20.54851,-15.266898,-2.230537,-2.5207775,1.0661948,2.9295454,0.0,2,0,0,0
349921495,49.09030614948063,2.1073602645016645,160.59625,203.26767,-0.0,-21.498507,-14.142512,-1.770228,-2.5846276,1.0570024,2.9295382,0.0,2,0,0,0
350120665,49.090267030619266,2.107324110115695,160.96881,203.62045,-0.0,-22.291656,-13.068432,-1.5333192,-2.6650305,1.057904,2.9294658,0.0,2,0,0,0
350320699,49.09022625084806,2.1072906387245496,161.27545,203.90697,-0.0,-22.92563,-12.113199,-1.2351966,-2.7544916,1.0591527,2.9295416,0.0,2,0,0,0
350527865,49.090182731752456,2.1072588646952357,161.51718,204.12839,-0.0,-23.478577,-11.215321,-0.8130482,-2.8471408,1.0615304,2.9295597,0.0,2,0,0,0
350727090,49.090139932288515,2.1072303229180784,161.68558,204.27686,-0.0,-23.948385,-10.375127,-0.5308111,-2.919671,1.0637325,2.9296746,0.0,2,0,0,0
350934264,49.09009452776087,2.1072028898732142,161.83482,204.40608,-0.0,-24.394266,-9.501879,-0.4028875,-2.9626985,1.0653694,2.9296668,0.0,2,0,0,0
351134265,49.09005004898331,2.1071787508695454,161.9905,204.54141,-0.0,-24.767801,-8.67814,-0.44468197,-2.9729385,1.066176,2.9297323,0.0,2,0,0,0
351341471,49.09000328434459,2.107156152652305,162.14832,204.67981,-0.0,-25.132483,-7.812669,-0.568763,-2.9643455,1.0684614,2.9297466,0.0,2,0,0,0
351540670,49.08995760107125,2.1071367910350363,162.30936,204.82079,-0.0,-25.479044,-6.8989854,-0.7956123,-2.9488828,1.0684615,2.9297843,0.0,2,0,0,0
351748699,49.08990883970965,2.107119233022648,162.49448,204.9856,-0.0,-25.815517,-5.8920584,-1.1033694,-2.939919,1.0692993,2.929745,0.0,2,0,0,0
351947893,49.089861438946556,2.107105253132822,162.71404,205.18567,-0.0,-26.075962,-4.908427,-1.5108134,-2.9408138,1.0691459,2.929776,0.0,2,0,0,0
352147074,49.089813556086,2.1070938322643036,162.9796,205.43082,-0.0,-26.270138,-4.034911,-1.7212678,-2.9500515,1.0702052,2.929852,0.0,2,0,0,0
352350300,49.08976427893439,2.1070842877814036,163.2755,205.70642,-0.0,-26.40236,-3.1743293,-1.9828831,-2.9723556,1.0698996,2.9297357,0.0,2,0,0,0
352550272,49.08971559182155,2.107077032754146,163.61221,206.02362,-0.0,-26.482828,-2.3475692,-2.2148483,-3.0018268,1.0698092,2.9297848,0.0,2,0,0,0
352753465,49.089666213917695,2.1070720387721735,163.99725,206.38828,-0.0,-26.5153,-1.5325603,-2.3672535,-3.036562,1.069496,2.9296734,0.0,2,0,0,0
352958297,49.08961635923698,2.1070690975265784,164.4049,206.77551,-0.0,-26.529823,-0.7201484,-2.467362,-3.0745447,1.0698229,2.9296334,0.0,2,0,0,0
353159865,49.089567445611664,2.1070682151927143,164.83469,207.1855,-0.0,-26.473707,0.07891123,-2.47984,-3.1121979,1.0692693,2.9296372,0.0,2,0,0,0
353359872,49.08951934248651,2.1070698607322313,165.2697,207.60062,-0.0,-26.246567,0.94107664,-2.4932237,3.1326065,1.0689542,2.9296725,0.0,2,0,0,0
353567096,49.08947013487551,2.1070744856352994,165.7408,208.052,-0.0,-25.958424,1.8986391,-2.5435576,3.0953867,1.0689123,2.9296088,0.0,2,0,0,0
353766265,49.0894233584683,2.1070814073602633,166.19264,208.48386,-0.0,-25.698654,2.7580414,-2.3670268,3.0633588,1.0681319,2.9296246,0.0,2,0,0,0
353974272,49.089374971792424,2.1070909476373507,166.58751,208.85843,-0.0,-25.474276,3.5625107,-1.8617464,3.0309107,1.067615,2.9295564,0.0,2,0,0,0
354173464,49.08932889465162,2.1071021347313645,166.85834,209.10936,-0.0,-25.287249,4.3051295,-1.2281164,2.999257,1.0664995,2.9295783,0.0,2,0,0,0
354376665,49.08928219451574,2.107115768886276,166.99512,209.22641,-0.0,-25.105473,5.108238,-0.56515485,2.9663432,1.0653273,2.9295938,0.0,2,0,0,0
354576685,49.0892364294355,2.1071315679376292,167.00708,209.2189,-0.0,-24.925913,5.9846144,-0.0022216407,2.9351022,1.0644231,2.9296348,0.0,2,0,0,0
354783871,49.08918927418915,2.107150680338689,166.91812,209.10953,-0.0,-24.705791,6.9767303,0.43169177,2.9035716,1.0636706,2.9295702,0.0,2,0,0,0
354983112,49.08914440258941,2.10717179073002,166.7688,208.9399,-0.0,-24.45275,7.980966,0.7095691,2.8719316,1.0624154,2.9295897,0.0,2,0,0,0
355189504,49.089098485986725,2.1071965253898037,166.57153,208.72272,-0.0,-24.106878,9.12673,0.6883397,2.832071,1.0616583,2.9295242,0.0,2,0,0,0
355390265,49.08905459740942,2.107223782319968,166.43222,208.56581,-0.0,-23.62526,10.375387,0.2672538,2.7881541,1.0605979,2.9295456,0.0,2,0,0,0
355593465,49.08901116794057,2.1072547715185515,166.4027,208.5235,-0.0,-23.020699,11.590956,-0.3139491,2.7422578,1.059811,2.9295745,0.0,2,0,0,0
355792664,49.088969827677,2.107288245046186,166.51233,208.62221,-0.0,-22.288393,12.7046585,-1.0444326,2.6964273,1.0593736,2.9294932,0.0,2,0,0,0
355999891,49.08892834261373,2.1073257909555827,166.7927,208.90044,-0.0,-21.454903,13.683343,-1.7510738,2.6502073,1.0592912,2.9295716,0.0,2,0,0,0
356199870,49.088889748767556,2.1073641395657408,167.19131,209.29947,-0.0,-20.634283,14.458424,-2.316811,2.6058683,1.0589224,2.9296,0.0,2,0,0,0
356399072,49.08885273658133,2.1074040436392876,167.68071,209.79607,-0.0,-19.83127,15.109813,-2.7321718,2.5605679,1.0587094,2.9295022,0.0,2,0,0,0
356606271,49.08881579185108,2.107447179600492,168.2663,210.3883,-0.0,-18.998001,15.711217,-3.0453515,2.512106,1.0589814,2.9295828,0.0,2,0,0,0
356806287,49.08878170692058,2.1074903251587167,168.8825,211.00899,-0.0,-18.150314,16.267014,-3.3094656,2.4636278,1.0587319,2.9296124,0.0,2,0,0,0
357005495,49.088749415239555,2.1075347669668116,169.55649,211.68698,-0.0,-17.26019,16.803457,-3.5482621,2.4165936,1.0584531,2.9295108,0.0,2,0,0,0
357212670,49.088717628861424,2.1075824940628745,170.29208,212.4266,-0.0,-16.3541,17.334074,-3.5960581,2.3717637,1.0585561,2.9295835,0.0,2,0,0,0
357412664,49.08868851664194,2.1076300237532934,170.99054,213.12975,-0.0,-15.489382,17.838715,-3.5223687,2.331734,1.0579793,2.9296086,0.0,2,0,0,0
357619871,49.0886600195321,2.1076807333256595,171.69223,213.83772,-0.0,-14.572714,18.365408,-3.4542584,2.2927659,1.0576036,2.9295447,0.0,2,0,0,0
357819083,49.0886342653858,2.1077308079779566,172.35954,214.51855,-0.0,-13.697641,18.84227,-3.343269,2.2573533,1.0566493,2.929569,0.0,2,0,0,0
358026266,49.088609130256934,2.1077841341763084,173.03203,215.20862,-0.0,-12.818137,19.296408,-3.16437,2.2219973,1.0560206,2.9296386,0.0,2,0,0,0
358632665,49.08854507095223,2.1079472085896613,174.78821,217.02505,-0.0,-10.365774,20.486746,-2.4623294,2.122151,1.0533029,2.9295912,0.0,2,0,0,0
358736672,49.08853547450043,2.107976129108027,175.04727,217.30441,-0.0,-9.957204,20.6716,-2.3213346,2.1041217,1.0473815,2.929588,0.0,2,0,0,0
359031878,49.08851005568683,2.10805913379657,175.73624,218.01237,-0.0,-8.783456,21.16073,-2.0146966,2.0526614,1.0516646,2.9295185,0.0,2,0,0,0
359119865,49.088503152176585,2.1080844498467894,175.92276,218.21887,-0.0,-8.416885,21.304125,-1.9394268,2.0375462,1.0449678,2.9295356,0.0,2,0,0,0
359438307,49.088480033537444,2.1081771054641703,176.5829,218.89935,-0.0,-7.1241856,21.758112,-1.701173,1.9845966,1.0503908,2.9296114,0.0,2,0,0,0
359526271,49.08847437726105,2.1082031648632755,176.75,219.08646,-0.0,-6.776988,21.875694,-1.6275097,1.9701806,1.0437411,2.9294953,0.0,2,0,0,0
359849465,49.0884555241928,2.108299477453864,177.35803,219.71463,-0.0,-5.451187,22.22249,-1.5850518,1.9165975,1.0493914,2.9294677,0.0,2,0,0,0
360048706,49.08844579169096,2.1083596120260237,177.73419,220.11064,-0.0,-4.622671,22.39166,-1.5993268,1.8874733,1.0485878,2.9294977,0.0,2,0,0,0
360128700,49.08844235448206,2.1083839513862084,177.88266,220.27904,-0.0,-4.277851,22.45881,-1.593778,1.8782009,1.0415971,2.9294627,0.0,2,0,0,0
361130273,49.08841891822209,2.1086875825393636,180.05605,222.5524,-0.0,0.114441246,22.447605,-1.7666031,1.8249655,1.0379276,2.9293845,0.0,2,0,0,0
361329465,49.088418294132126,2.1087471766442523,180.53833,223.05469,-0.0,0.71265507,22.285414,-1.8198992,1.7909049,1.0372703,2.9292912,0.0,2,0,0,0
361536665,49.088418661496654,2.108808586781439,181.0565,223.59273,-0.0,1.2981366,22.094374,-1.9167682,1.7433645,1.0371616,2.92926,0.0,2,0,0,0
361735865,49.08842025400582,2.108867433585703,181.5698,224.12646,-0.0,1.9074703,21.913626,-2.042175,1.6972125,1.0364882,2.929287,0.0,2,0,0,0
361943103,49.08842342873021,2.1089284589106017,182.11041,224.68927,-0.0,2.6146135,21.705402,-2.1467693,1.6566304,1.0473194,2.9294655,0.0,2,0,0,0
362143093,49.088427815769215,2.1089867554816046,182.64224,225.23923,-0.0,3.3784792,21.47523,-2.2372262,1.6287282,1.0379364,2.929393,0.0,2,0,0,0
362342280,49.088433722888645,2.109044599302397,183.18951,225.80548,-0.0,4.1777616,21.23528,-2.2564788,1.6115278,1.0383222,2.9292989,0.0,2,0,0,0
362549464,49.08844151425037,2.109104328819712,183.75385,226.3908,-0.0,4.989162,20.962198,-2.2095995,1.597723,1.0388441,2.929249,0.0,2,0,0,0
362749467,49.08845032052996,2.109161095548425,184.29684,226.95352,-0.0,5.7392845,20.662903,-2.1949472,1.5778873,1.0388392,2.929285,0.0,2,0,0,0
362932665,49.08845947670328,2.1092123736238526,184.7933,227.47006,-0.0,6.3705344,20.378958,-2.1445887,1.5486954,1.0379114,2.9292345,0.0,2,0,0,0
363155865,49.088471914184886,2.109273880475522,185.39304,228.0896,-0.0,7.1923313,19.984482,-2.173736,1.5013423,1.0389186,2.9292831,0.0,2,0,0,0
363355872,49.08848456554887,2.109328132167657,185.91318,228.62976,-0.0,7.8949475,19.625742,-2.121623,1.4540877,1.0386075,2.9292,0.0,2,0,0,0
363563087,49.08849903150012,2.109383249339056,186.44838,229.18483,-0.0,8.707002,19.207127,-2.0939856,1.4018362,1.038719,2.9292874,0.0,2,0,0,0
363766271,49.088514815453635,2.109436299928033,186.96124,229.71808,-0.0,9.519457,18.775389,-2.021446,1.3515588,1.0383962,2.9293308,0.0,2,0,0,0
363969473,49.08853212202506,2.1094881584436767,187.45761,230.23447,-0.0,10.348412,18.307371,-1.9357092,1.3028142,1.0382669,2.9292707,0.0,2,0,0,0
364169465,49.088550728353184,2.109538009263126,187.92812,230.7252,-0.0,11.17585,17.822908,-1.8245432,1.2547286,1.0381936,2.9292169,0.0,2,0,0,0
