timestamp,rollspeed,pitchspeed,yawspeed,q[0],q[1],q[2],q[3],delta_q_reset[0],delta_q_reset[1],delta_q_reset[2],delta_q_reset[3],quat_reset_counter
273391065,0.006993679,-0.0025961571,-0.0018319797,0.92628473,-0.040081773,0.049594406,0.3713899,0.99829745,-0.005564258,-0.00022398953,0.058062054,3
273395072,0.013424503,-0.0029935618,-0.0026353938,0.9262881,-0.040055957,0.049598616,0.37138367,0.99829745,-0.005564258,-0.00022398953,0.058062054,3
273399083,0.015366906,-0.00035211595,-0.0031581805,0.9262919,-0.040028535,0.04960915,0.37137607,0.99829745,-0.005564258,-0.00022398953,0.058062054,3
273403074,-0.0005076104,-0.00062947255,-0.00233835,0.9262938,-0.04003022,0.049607426,0.37137106,0.99829745,-0.005564258,-0.00022398953,0.058062054,3
273407104,-0.0059172832,-0.0036597284,-0.0031654376,0.9262964,-0.040039912,0.04959592,0.3713653,0.99829745,-0.005564258,-0.00022398953,0.058062054,3
273411091,-0.00035111792,0.0012208951,-0.0018015106,0.9262978,-0.040042587,0.049597774,0.37136114,0.99829745,-0.005564258,-0.00022398953,0.058062054,3
273415071,0.0039623315,0.002371407,0.0010470273,0.92629737,-0.040037867,0.049605172,0.37136173,0.99829745,-0.005564258,-0.00022398953,0.058062054,3
273419065,0.009189888,0.00017382856,-0.0018069411,0.9262997,-0.04002211,0.049612172,0.3713567,0.99829745,-0.005564258,-0.00022398953,0.058062054,3
273423069,0.003276941,0.0066163284,-0.0030283467,0.92630184,-0.040022217,0.04962664,0.37134945,0.99829745,-0.005564258,-0.00022398953,0.058062054,3
273427077,-0.005364656,0.0003901805,-0.002974215,0.92630386,-0.040033717,0.04962315,0.37134364,0.99829745,-0.005564258,-0.00022398953,0.058062054,3
273431076,-0.01380763,0.004757615,-0.0009630419,0.92630327,-0.04006385,0.04962165,0.37134206,0.99829745,-0.005564258,-0.00022398953,0.058062054,3
273435064,0.0061341505,0.00096988387,0.0010044373,0.9263032,-0.040054023,0.049628083,0.37134245,0.99829745,-0.005564258,-0.00022398953,0.058062054,3
273439064,0.010087903,0.0013708851,-0.00040831516,0.92630446,-0.040037308,0.049638096,0.3713398,0.99829745,-0.005564258,-0.00022398953,0.058062054,3
273443093,0.017552694,-0.0014069788,0.00029305444,0.92630607,-0.040004414,0.04964863,0.3713379,0.99829745,-0.005564258,-0.00022398953,0.058062054,3
273447107,-0.004124175,0.0031085054,-0.00082049944,0.9263063,-0.040015385,0.049651284,0.37133574,0.99829745,-0.005564258,-0.00022398953,0.058062054,3
273451065,-0.008700563,-0.0010327714,0.00059200823,0.92630553,-0.040031288,0.049643084,0.371337,0.99829745,-0.005564258,-0.00022398953,0.058062054,3
273455066,-0.009222401,0.0016947568,0.0010906942,0.9263041,-0.04005041,0.049639482,0.37133902,0.99829745,-0.005564258,-0.00022398953,0.058062054,3
273459065,-0.0017182264,-0.0019319982,0.00042029363,0.9263041,-0.04005299,0.049634684,0.37133935,0.99829745,-0.005564258,-0.00022398953,0.058062054,3
273463097,0.0030265136,-0.0037127712,0.00075160793,0.92630446,-0.040045418,0.04963009,0.37133995,0.99829745,-0.005564258,-0.00022398953,0.058062054,3
273467107,-0.001221614,0.0037997975,0.0019776963,0.9263027,-0.04005119,0.049636405,0.3713429,0.99829745,-0.005564258,-0.00022398953,0.058062054,3
273471069,-0.013830456,0.00096351875,0.001316278,0.92630076,-0.040077917,0.04962814,0.37134612,0.99829745,-0.005564258,-0.00022398953,0.058062054,3
273475064,-0.022462467,0.0022312258,0.0033510085,0.9262963,-0.04012164,0.049615882,0.3713538,0.99829745,-0.005564258,-0.00022398953,0.058062054,3
273479066,-0.0039608344,-0.00019628438,0.0047281226,0.9262928,-0.040129226,0.049612973,0.37136245,0.99829745,-0.005564258,-0.00022398953,0.058062054,3
273483092,0.0042922506,0.0030047996,0.0055369046,0.92628884,-0.040123805,0.049622234,0.37137157,0.99829745,-0.005564258,-0.00022398953,0.058062054,3
273487111,0.011397771,-0.0012577361,0.003685269,0.92628723,-0.04010214,0.049628694,0.3713768,0.99829745,-0.005564258,-0.00022398953,0.058062054,3
273491065,-0.0015113694,0.003832865,0.0033729505,0.92628455,-0.040108096,0.04963491,0.3713823,0.99829745,-0.005564258,-0.00022398953,0.058062054,3
273495136,-0.0068186373,-0.0027409755,0.0035099736,0.9262817,-0.04011949,0.049624857,0.37138924,0.99829745,-0.005564258,-0.00022398953,0.058062054,3
273499064,-0.014930215,1.9001192e-05,0.0057832533,0.9262765,-0.040146716,0.049614504,0.37140065,0.99829745,-0.005564258,-0.00022398953,0.058062054,3
273503093,0.0024878785,-0.004036524,0.0068162214,0.9262723,-0.040139236,0.049609397,0.3714129,0.99829745,-0.005564258,-0.00022398953,0.058062054,3
273507079,0.012407068,-0.0029008104,0.004122762,0.9262707,-0.0401145,0.04961358,0.37141895,0.99829745,-0.005564258,-0.00022398953,0.058062054,3
273511064,0.01481243,0.0011536145,0.0028878788,0.9262698,-0.040088456,0.049626924,0.37142217,0.99829745,-0.005564258,-0.00022398953,0.058062054,3
273515115,-0.0015863813,-5.8470177e-05,0.003272888,0.92626756,-0.04009188,0.0496259,0.37142757,0.99829745,-0.005564258,-0.00022398953,0.058062054,3
273519083,-0.0107063595,0.0013266373,0.0027722837,0.9262649,-0.040112883,0.049620714,0.37143272,0.99829745,-0.005564258,-0.00022398953,0.058062054,3
273523091,0.0029489745,-0.00256848,0.0045666047,0.9262622,-0.040105734,0.049618527,0.3714402,0.99829745,-0.005564258,-0.00022398953,0.058062054,3
273527066,0.010918712,-0.0013777972,0.0022788295,0.92626196,-0.040085014,0.049624275,0.3714426,0.99829745,-0.005564258,-0.00022398953,0.058062054,3
273531064,0.017278256,-0.003973727,0.0024297002,0.9262622,-0.04005114,0.049629588,0.3714448,0.99829745,-0.005564258,-0.00022398953,0.058062054,3
273535089,0.0036075339,0.0035060167,0.002201674,0.9262608,-0.040048167,0.049638644,0.37144732,0.99829745,-0.005564258,-0.00022398953,0.058062054,3
273539071,-0.004981356,-0.004935937,-0.00049175136,0.92626166,-0.040054973,0.04962548,0.3714464,0.99829745,-0.005564258,-0.00022398953,0.058062054,3
273543096,-0.019043902,0.0025259445,-8.540426e-05,0.9262602,-0.040093686,0.04961558,0.371447,0.99829745,-0.005564258,-0.00022398953,0.058062054,3
273547065,-0.0034233658,-0.00088644546,0.0001583333,0.92626035,-0.04010047,0.049611114,0.37144667,0.99829745,-0.005564258,-0.00022398953,0.058062054,3
273551066,0.008113834,-0.0016705536,0.0008674214,0.9262608,-0.04008534,0.049613763,0.37144652,0.99829745,-0.005564258,-0.00022398953,0.058062054,3
273554315,0.013517115,0.0012700952,-0.0014223317,0.92626286,-0.040065512,0.049623653,0.37144226,0.99829745,-0.005564258,-0.00022398953,0.058062054,3
273558331,-0.006147321,0.005162111,-0.0026818644,0.92626435,-0.040082615,0.049628057,0.37143642,0.99829745,-0.005564258,-0.00022398953,0.058062054,3
273562302,-0.010182186,-0.0027781944,-0.0031577563,0.9262665,-0.04010093,0.04961482,0.3714308,0.99829745,-0.005564258,-0.00022398953,0.058062054,3
273566265,-0.010441459,0.0025142306,-0.0022554465,0.92626745,-0.040123437,0.04961121,0.3714265,0.99829745,-0.005564258,-0.00022398953,0.058062054,3
273570265,0.004864342,-0.0012484461,-0.00092730136,0.9262692,-0.040114857,0.04961209,0.3714227,0.99829745,-0.005564258,-0.00022398953,0.058062054,3
273574283,0.014438254,-0.0018685374,-0.004245542,0.92627436,-0.040088292,0.049618702,0.37141186,0.99829745,-0.005564258,-0.00022398953,0.058062054,3
273578296,0.012139921,0.003473256,-0.004876077,0.9262793,-0.040070016,0.049633477,0.37139964,0.99829745,-0.005564258,-0.00022398953,0.058062054,3
273582300,-0.0053427676,-0.0006047141,-0.0063721132,0.9262843,-0.040081277,0.049627542,0.37138674,0.99829745,-0.005564258,-0.00022398953,0.058062054,3
273586266,-0.01623739,-0.0004901362,-0.0029834332,0.9262859,-0.040112082,0.049614135,0.37138122,0.99829745,-0.005564258,-0.00022398953,0.058062054,3
273590271,-0.0044072066,-0.0015031913,-0.003265461,0.9262887,-0.040120598,0.049607478,0.37137404,0.99829745,-0.005564258,-0.00022398953,0.058062054,3
273594265,0.00897719,-0.0032266234,-0.0017939066,0.9262917,-0.040102843,0.049607698,0.37136847,0.99829745,-0.005564258,-0.00022398953,0.058062054,3
273598296,0.016866297,-0.0035689208,-0.00324601,0.9262966,-0.040070146,0.049613066,0.37135938,0.99829745,-0.005564258,-0.00022398953,0.058062054,3
273602266,0.0016092968,0.00430715,-0.005305366,0.92630094,-0.040071826,0.049621448,0.37134695,0.99829745,-0.005564258,-0.00022398953,0.058062054,3
273606265,-0.005899799,-0.0022500828,-0.004673354,0.926305,-0.040082555,0.049612217,0.3713369,0.99829745,-0.005564258,-0.00022398953,0.058062054,3
273610272,-0.011644546,0.0038769892,-0.0048310976,0.9263081,-0.040108528,0.049610052,0.37132666,0.99829745,-0.005564258,-0.00022398953,0.058062054,3
273614264,1.6824342e-05,-0.00048836664,-0.0024320318,0.9263108,-0.040109336,0.049608663,0.37132007,0.99829745,-0.005564258,-0.00022398953,0.058062054,3
273618306,0.008138682,0.0027165948,-0.002809621,0.92631406,-0.040097468,0.049619313,0.37131166,0.99829745,-0.005564258,-0.00022398953,0.058062054,3
273622302,0.0084940735,0.0033793324,-0.003483504,0.9263178,-0.040085528,0.049631294,0.37130198,0.99829745,-0.005564258,-0.00022398953,0.058062054,3
273626264,-0.010631528,-0.00060901017,-0.001678853,0.9263192,-0.040105596,0.049621943,0.37129793,0.99829745,-0.005564258,-0.00022398953,0.058062054,3
273630271,-0.019674905,0.0013606722,-0.000733659,0.92631876,-0.04014414,0.04960946,0.3712963,0.99829745,-0.005564258,-0.00022398953,0.058062054,3
273634265,-0.010617407,-0.00055151636,-0.0010671418,0.92631936,-0.040164396,0.04960016,0.3712938,0.99829745,-0.005564258,-0.00022398953,0.058062054,3
273638296,0.0020893659,0.00061693846,0.00079933606,0.9263196,-0.040161874,0.049602613,0.3712935,0.99829745,-0.005564258,-0.00022398953,0.058062054,3
273642305,0.0121090915,-0.0013925943,-0.0014221498,0.9263223,-0.040139414,0.0496086,0.37128812,0.99829745,-0.005564258,-0.00022398953,0.058062054,3
273646291,0.0019358175,0.0057458817,-0.0016669191,0.92632383,-0.04014113,0.049620204,0.37128282,0.99829745,-0.005564258,-0.00022398953,0.058062054,3
273650264,-0.0066697267,-0.00092520844,-0.00044990378,0.92632425,-0.04015359,0.04961323,0.3712811,0.99829745,-0.005564258,-0.00022398953,0.058062054,3
273654265,-0.016151877,0.004671564,0.0020821071,0.92632157,-0.040187683,0.04960974,0.37128457,0.99829745,-0.005564258,-0.00022398953,0.058062054,3
273658306,-0.005477895,0.0006537187,0.003722333,0.92631894,-0.040199008,0.049606826,0.37129036,0.99829745,-0.005564258,-0.00022398953,0.058062054,3
273662286,0.005775301,0.0019068104,0.003095495,0.9263176,-0.040190272,0.049614552,0.37129366,0.99829745,-0.005564258,-0.00022398953,0.058062054,3
273666273,0.0109016225,0.004689795,0.0035186643,0.926316,-0.04017408,0.049631257,0.37129703,0.99829745,-0.005564258,-0.00022398953,0.058062054,3
273670280,-0.0057120593,0.003401198,0.0024213148,0.92631406,-0.040187832,0.0496332,0.37130013,0.99829745,-0.005564258,-0.00022398953,0.058062054,3
273674265,-0.017992537,-0.0022231354,0.0025177451,0.9263116,-0.040219937,0.04961568,0.37130508,0.99829745,-0.005564258,-0.00022398953,0.058062054,3
273678296,-0.011788593,-0.0031844394,0.004364625,0.92630833,-0.04024002,0.049600944,0.371313,0.99829745,-0.005564258,-0.00022398953,0.058062054,3
273682320,0.00054650195,-0.0008705921,0.004695348,0.9263059,-0.040238697,0.04959982,0.37131962,0.99829745,-0.005564258,-0.00022398953,0.058062054,3
273686273,0.012502245,-0.0038026865,0.0024249388,0.9263063,-0.04021344,0.049601953,0.37132096,0.99829745,-0.005564258,-0.00022398953,0.058062054,3
273690265,0.009474832,-0.00023056346,0.0018168653,0.92630655,-0.04019632,0.049608413,0.37132126,0.99829745,-0.005564258,-0.00022398953,0.058062054,3
273694265,-0.0035638716,-0.0029859336,0.0015514067,0.92630625,-0.040201314,0.04960007,0.37132257,0.99829745,-0.005564258,-0.00022398953,0.058062054,3
273698296,-0.016720802,0.0015074254,0.0029488374,0.9263034,-0.04023417,0.04959031,0.37132746,0.99829745,-0.005564258,-0.00022398953,0.058062054,3
273702283,-0.00817035,-0.0019115745,0.004429559,0.9263005,-0.040248107,0.0495808,0.37133446,0.99829745,-0.005564258,-0.00022398953,0.058062054,3
273706264,0.0045862286,-0.0005429524,0.0031988006,0.9262995,-0.04023957,0.04958318,0.37133738,0.99829745,-0.005564258,-0.00022398953,0.058062054,3
273710265,0.015584629,-0.0005426294,0.0021557903,0.92630035,-0.040210765,0.049593672,0.37133735,0.99829745,-0.005564258,-0.00022398953,0.058062054,3
273714264,-0.002214023,0.002985171,0.0036604577,0.9262981,-0.040217362,0.04959758,0.37134156,0.99829745,-0.005564258,-0.00022398953,0.058062054,3
273718296,-0.012461752,-0.0029706713,0.005407279,0.9262943,-0.040238585,0.04958287,0.37135062,0.99829745,-0.005564258,-0.00022398953,0.058062054,3
273722306,-0.010696278,-0.00088663725,0.0023383545,0.9262928,-0.040258184,0.049573187,0.3713536,0.99829745,-0.005564258,-0.00022398953,0.058062054,3
273726279,0.005961097,-0.003800465,0.0032381448,0.92629224,-0.04024464,0.049570605,0.3713568,0.99829745,-0.005564258,-0.00022398953,0.058062054,3
273730327,0.01768168,-0.0034656278,0.0014733442,0.92629415,-0.04020962,0.049576975,0.37135512,0.99829745,-0.005564258,-0.00022398953,0.058062054,3
273734267,0.015738355,0.0031080968,-0.0007656897,0.92629683,-0.040183894,0.0495936,0.371349,0.99829745,-0.005564258,-0.00022398953,0.058062054,3
273738296,0.0016080758,-0.00014780601,-0.0014476585,0.9262992,-0.040181745,0.049593884,0.37134326,0.99829745,-0.005564258,-0.00022398953,0.058062054,3
273742265,-0.014776889,0.0033165473,-0.0018267722,0.9263002,-0.04021221,0.04958844,0.3713382,0.99829745,-0.005564258,-0.00022398953,0.058062054,3
273746265,-0.008206157,-0.0010807874,-0.0003729572,0.92630106,-0.040227376,0.049579803,0.3713355,0.99829745,-0.005564258,-0.00022398953,0.058062054,3
273750310,0.0065699145,-0.0006916595,-0.0022943134,0.9263045,-0.040215597,0.049582727,0.37132773,0.99829745,-0.005564258,-0.00022398953,0.058062054,3
273754271,0.014397586,-0.00044248195,-0.002672409,0.9263088,-0.040189717,0.0495918,0.37131864,0.99829745,-0.005564258,-0.00022398953,0.058062054,3
273758307,-0.0037425947,0.0040041595,-0.0036057099,0.92631197,-0.04020085,0.049595673,0.37130916,0.99829745,-0.005564258,-0.00022398953,0.058062054,3
273762265,-0.013857171,0.00026154937,-0.0027370844,0.9263139,-0.04022727,0.049585257,0.37130266,0.99829745,-0.005564258,-0.00022398953,0.058062054,3
273766265,-0.014857624,0.003270857,-0.0018341434,0.9263149,-0.040258076,0.04957963,0.3712977,0.99829745,-0.005564258,-0.00022398953,0.058062054,3
273770314,0.00046223728,-0.0012101359,-0.0018905838,0.9263175,-0.040257227,0.04957704,0.3712915,0.99829745,-0.005564258,-0.00022398953,0.058062054,3
273774271,0.011679823,0.00079030823,-0.0040192814,0.9263224,-0.040237315,0.049586266,0.3712802,0.99829745,-0.005564258,-0.00022398953,0.058062054,3
273778301,0.014210813,0.0033312365,-0.007272118,0.92632943,-0.04021472,0.049601994,0.37126303,0.99829745,-0.005564258,-0.00022398953,0.058062054,3
273782265,0.00020543719,-0.0009166601,-0.0050824247,0.9263341,-0.04021473,0.049599554,0.37125182,0.99829745,-0.005564258,-0.00022398953,0.058062054,3
273786265,-0.01273462,-0.0009698479,-0.0039933296,0.9263369,-0.040238626,0.04958747,0.3712439,0.99829745,-0.005564258,-0.00022398953,0.058062054,3
273790286,-0.007311891,0.00017751066,-0.0021685464,0.92633855,-0.040253263,0.04958164,0.37123868,0.99829745,-0.005564258,-0.00022398953,0.058062054,3
273794271,0.007820874,-0.0032132678,-0.0009701331,0.926341,-0.040237106,0.04958091,0.37123457,0.99829745,-0.005564258,-0.00022398953,0.058062054,3
273798319,0.015988186,-0.00054166967,-0.0025250404,0.92634505,-0.04020768,0.049591187,0.37122646,0.99829745,-0.005564258,-0.00022398953,0.058062054,3
273802267,0.0030761429,0.0027935584,-0.001956301,0.9263472,-0.040204726,0.049597915,0.37122038,0.99829745,-0.005564258,-0.00022398953,0.058062054,3
273806265,-0.008792546,-0.0017470128,-0.00080926873,0.9263481,-0.040220357,0.049587596,0.3712179,0.99829745,-0.005564258,-0.00022398953,0.058062054,3
273810277,-0.012040824,0.0029523568,0.00026062608,0.9263474,-0.04024548,0.04958366,0.3712174,0.99829745,-0.005564258,-0.00022398953,0.058062054,3
273814293,-0.0035950374,-0.0007903675,-0.0014455745,0.926349,-0.0402523,0.049578913,0.3712132,0.99829745,-0.005564258,-0.00022398953,0.058062054,3
273818337,0.01151344,-0.0012393057,-0.0019707824,0.9263524,-0.040230613,0.049584594,0.37120655,0.99829745,-0.005564258,-0.00022398953,0.058062054,3
273822265,0.015496701,0.004630034,-8.4815314e-05,0.926354,-0.04020615,0.04960387,0.37120262,0.99829745,-0.005564258,-0.00022398953,0.058062054,3
273826265,-0.00021038903,0.002959526,-0.00055131473,0.926355,-0.04020927,0.049608707,0.371199,0.99829745,-0.005564258,-0.00022398953,0.058062054,3
273830273,-0.01478219,-0.00066331757,-0.00094379106,0.92635554,-0.040236812,0.049595956,0.37119645,0.99829745,-0.005564258,-0.00022398953,0.058062054,3
273834265,-0.010733126,0.0008377243,0.0011512463,0.92635465,-0.040257595,0.049589206,0.37119725,0.99829745,-0.005564258,-0.00022398953,0.058062054,3
273838314,0.0077586696,-0.0024482235,0.0017813825,0.92635506,-0.04024158,0.04959013,0.3711977,0.99829745,-0.005564258,-0.00022398953,0.058062054,3
273842265,0.015390744,-0.0008802123,0.00054634403,0.9263569,-0.040213022,0.04959943,0.371195,0.99829745,-0.005564258,-0.00022398953,0.058062054,3
273846289,0.010278517,0.0009741819,0.0010655138,0.9263578,-0.04019497,0.049608566,0.3711936,0.99829745,-0.005564258,-0.00022398953,0.058062054,3
273850284,-0.0076297494,-0.0033543694,-0.00012691208,0.9263584,-0.04020701,0.049596258,0.37119234,0.99829745,-0.005564258,-0.00022398953,0.058062054,3
273854287,-0.01675798,0.00040739996,0.0028423485,0.92635566,-0.04023852,0.049584355,0.37119722,0.99829745,-0.005564258,-0.00022398953,0.058062054,3
273858347,-0.008285097,-0.00039628975,0.0038735026,0.92635304,-0.040253926,0.04957724,0.37120342,0.99829745,-0.005564258,-0.00022398953,0.058062054,3
273862265,0.010268881,-0.00056027225,0.0018092352,0.92635334,-0.040234897,0.049583435,0.37120378,0.99829745,-0.005564258,-0.00022398953,0.058062054,3
273866272,0.017914403,0.0005107288,0.0028196708,0.9263534,-0.04020215,0.0495975,0.37120527,0.99829745,-0.005564258,-0.00022398953,0.058062054,3
273870265,0.002845329,0.0024237428,0.0004760715,0.9263538,-0.040198997,0.049603708,0.37120375,0.99829745,-0.005564258,-0.00022398953,0.058062054,3
273874265,-0.010758001,-0.0024293852,0.0018111268,0.92635244,-0.040217333,0.049590934,0.37120688,0.99829745,-0.005564258,-0.00022398953,0.058062054,3
273877492,-0.007188711,0.00023212412,0.0022760015,0.9263512,-0.040226795,0.04958696,0.37120944,0.99829745,-0.005564258,-0.00022398953,0.058062054,3
273882265,0.005131926,-0.0011431393,0.0042583034,0.9263486,-0.040216222,0.049588647,0.37121683,0.99829745,-0.005564258,-0.00022398953,0.058062054,3
273886271,0.016930427,-0.0016014962,0.0024106924,0.9263489,-0.04018367,0.04959805,0.37121835,0.99829745,-0.005564258,-0.00022398953,0.058062054,3
273890265,0.012654603,0.0005233496,0.0013458682,0.92634946,-0.040160794,0.049608093,0.37121814,0.99829745,-0.005564258,-0.00022398953,0.058062054,3
273894266,-0.0048645795,-0.0014935202,0.0038432844,0.92634696,-0.040168617,0.0496016,0.3712245,0.99829745,-0.005564258,-0.00022398953,0.058062054,3
273897498,-0.016107121,-0.00094736624,0.0026186807,0.926345,-0.04019063,0.049590543,0.37122852,0.99829745,-0.005564258,-0.00022398953,0.058062054,3
273901476,-0.01378498,0.0013644046,0.0022578035,0.9263426,-0.040217385,0.049582597,0.3712326,0.99829745,-0.005564258,-0.00022398953,0.058062054,3
273905465,0.009277506,-0.0030172197,0.00119633,0.92634314,-0.040198416,0.049583543,0.37123308,0.99829745,-0.005564258,-0.00022398953,0.058062054,3
273909465,0.017644707,0.0024195411,-0.00015747308,0.9263448,-0.04016804,0.049600676,0.3712298,0.99829745,-0.005564258,-0.00022398953,0.058062054,3
273913465,0.008220173,0.0029804418,0.0010169481,0.92634493,-0.040155374,0.049611963,0.37122965,0.99829745,-0.005564258,-0.00022398953,0.058062054,3
273917500,-0.0062304568,0.00092732336,0.0006130807,0.92634416,-0.040168136,0.04960864,0.37123033,0.99829745,-0.005564258,-0.00022398953,0.058062054,3
273921480,-0.008954924,0.0036672833,-0.0005096627,0.92634386,-0.040188074,0.049608864,0.37122905,0.99829745,-0.005564258,-0.00022398953,0.058062054,3
273925478,0.0014366435,0.000109881745,0.0005749283,0.9263439,-0.040186133,0.049610287,0.37122902,0.99829745,-0.005564258,-0.00022398953,0.058062054,3
273929465,0.015497427,0.0019124234,0.0010773223,0.92634463,-0.040159438,0.049625512,0.37122795,0.99829745,-0.005564258,-0.00022398953,0.058062054,3
273933465,0.017552467,0.0055337055,0.00046541798,0.9263457,-0.04013162,0.049648978,0.3712253,0.99829745,-0.005564258,-0.00022398953,0.058062054,3
273937471,0.0011541625,0.0038069263,5.7222787e-06,0.9263459,-0.04013292,0.04965705,0.37122363,0.99829745,-0.005564258,-0.00022398953,0.058062054,3
273941464,-0.014704606,-0.0009243818,-0.0011513217,0.926346,-0.040160123,0.0496445,0.37122175,0.99829745,-0.005564258,-0.00022398953,0.058062054,3
273945465,-0.014140514,0.0031644502,-0.0014879764,0.92634624,-0.040189404,0.04963992,0.37121898,0.99829745,-0.005564258,-0.00022398953,0.058062054,3
273949465,0.0052509615,-0.0028089671,-0.0029440492,0.92634946,-0.040178448,0.04963854,0.37121198,0.99829745,-0.005564258,-0.00022398953,0.058062054,3
273953464,0.0165748,0.00037177373,-0.0029348768,0.92635363,-0.04014884,0.049651504,0.37120327,0.99829745,-0.005564258,-0.00022398953,0.058062054,3
273957465,0.012565757,0.002079031,-0.0048445505,0.92635864,-0.0401281,0.049664497,0.3711913,0.99829745,-0.005564258,-0.00022398953,0.058062054,3
273961465,-0.008680027,0.0007308882,-0.0017085841,0.9263597,-0.040145397,0.049659483,0.37118736,0.99829745,-0.005564258,-0.00022398953,0.058062054,3
273965487,-0.013487257,-0.0012126053,-0.0026077111,0.9263613,-0.040170424,0.049647152,0.37118238,0.99829745,-0.005564258,-0.00022398953,0.058062054,3
273969471,-0.006192622,0.001563811,-0.0017290609,0.9263626,-0.040183607,0.049645573,0.37117776,0.99829745,-0.005564258,-0.00022398953,0.058062054,3
273973465,0.011617698,-0.0010939259,-0.0011335153,0.9263652,-0.040161874,0.049652327,0.37117273,0.99829745,-0.005564258,-0.00022398953,0.058062054,3
273977465,0.015035242,0.00070926175,-0.0019141377,0.92636853,-0.040135194,0.04966492,0.3711658,0.99829745,-0.005564258,-0.00022398953,0.058062054,3
273981465,0.004184202,0.0021125413,-0.00015399803,0.9263694,-0.04012948,0.04967219,0.37116307,0.99829745,-0.005564258,-0.00022398953,0.058062054,3
273985474,-0.012817031,-0.0023125652,-0.0015282904,0.92637044,-0.04015217,0.04965851,0.37115988,0.99829745,-0.005564258,-0.00022398953,0.058062054,3
273989471,-0.01869413,-0.0020487842,-0.002188859,0.92637146,-0.040185902,0.049640954,0.37115607,0.99829745,-0.005564258,-0.00022398953,0.058062054,3
273993465,0.0027905875,-0.006855131,-0.0020196992,0.9263749,-0.040176224,0.04963051,0.37114996,0.99829745,-0.005564258,-0.00022398953,0.058062054,3
273997465,0.015038865,-0.003872381,-0.0019932955,0.9263791,-0.040146068,0.04963468,0.37114248,0.99829745,-0.005564258,-0.00022398953,0.058062054,3
274001464,0.014871549,-0.0031128386,-0.0021984454,0.92638314,-0.040116787,0.049640108,0.37113458,0.99829745,-0.005564258,-0.00022398953,0.058062054,3
274005474,-0.0040885047,-0.001582928,0.0003422556,0.9263837,-0.04012356,0.049634494,0.37113318,0.99829745,-0.005564258,-0.00022398953,0.058062054,3
274009471,-0.013109492,-0.000975746,-0.00027268904,0.926384,-0.04014748,0.049623303,0.37113157,0.99829745,-0.005564258,-0.00022398953,0.058062054,3
274013465,-0.009714102,0.0005549503,0.0009689017,0.9263833,-0.040166102,0.04961755,0.37113172,0.99829745,-0.005564258,-0.00022398953,0.058062054,3
274017465,0.012222856,-0.0014202558,0.00026338728,0.9263855,-0.04014268,0.049624406,0.37112796,0.99829745,-0.005564258,-0.00022398953,0.058062054,3
274021464,0.017372355,0.0019079327,0.00036838595,0.9263877,-0.04011219,0.04964126,0.37112364,0.99829745,-0.005564258,-0.00022398953,0.058062054,3
274025473,0.004132361,0.000779595,-0.0011859485,0.92639,-0.04010552,0.049646076,0.37111783,0.99829745,-0.005564258,-0.00022398953,0.058062054,3
274029471,-0.015638115,0.0009321339,-0.0008767913,0.9263905,-0.040135548,0.049636528,0.37111458,0.99829745,-0.005564258,-0.00022398953,0.058062054,3
274033465,-0.01792524,0.0026509725,0.0013012579,0.92638904,-0.040170815,0.049628664,0.37111548,0.99829745,-0.005564258,-0.00022398953,0.058062054,3
274037465,-0.0011082962,-0.0029912507,0.0004191576,0.9263902,-0.04017089,0.049622744,0.37111357,0.99829745,-0.005564258,-0.00022398953,0.058062054,3
274041471,0.013402782,-0.000537812,0.004424014,0.92638904,-0.04014548,0.049632475,0.37111774,0.99829745,-0.005564258,-0.00022398953,0.058062054,3
274045479,0.011484321,-0.00032935082,0.0016240734,0.9263899,-0.040124055,0.049640942,0.3711169,0.99829745,-0.005564258,-0.00022398953,0.058062054,3
274049487,-0.005235368,0.0034170365,0.0019954555,0.9263887,-0.040136393,0.04964397,0.37111813,0.99829745,-0.005564258,-0.00022398953,0.058062054,3
274053464,-0.014782513,0.0016269559,0.004249637,0.9263852,-0.04016462,0.049636826,0.3711246,0.99829745,-0.005564258,-0.00022398953,0.058062054,3
274057464,-0.014602233,0.003529976,0.004453345,0.9263814,-0.040194135,0.049633313,0.3711313,0.99829745,-0.005564258,-0.00022398953,0.058062054,3
274061471,0.010888181,0.002342415,0.002876004,0.926381,-0.04017566,0.049646415,0.3711327,0.99829745,-0.005564258,-0.00022398953,0.058062054,3
274065499,0.019199608,0.0048893588,0.0006056632,0.9263826,-0.040143747,0.049670365,0.37112886,0.99829745,-0.005564258,-0.00022398953,0.058062054,3
274069503,0.00830356,0.0010939832,0.0025734534,0.9263823,-0.040129147,0.04967921,0.37113005,0.99829745,-0.005564258,-0.00022398953,0.058062054,3
274073465,-0.015111593,0.0010128183,0.0010597267,0.92638123,-0.040157653,0.049670506,0.3711308,0.99829745,-0.005564258,-0.00022398953,0.058062054,3
274077464,-0.01735704,0.0024289852,0.00035705738,0.92638034,-0.040191807,0.049662597,0.37113035,0.99829745,-0.005564258,-0.00022398953,0.058062054,3
274081471,-0.00074421195,0.00045188563,0.0019867679,0.9263798,-0.040193565,0.049663495,0.37113145,0.99829745,-0.005564258,-0.00022398953,0.058062054,3
274085465,0.013161147,-0.00035736896,0.001252049,0.926381,-0.040169034,0.049673147,0.37112987,0.99829745,-0.005564258,-0.00022398953,0.058062054,3
274089465,0.01375475,-0.00036067166,-0.00045520737,0.9263832,-0.040143568,0.049683094,0.37112558,0.99829745,-0.005564258,-0.00022398953,0.058062054,3
274093464,-0.0023667463,-0.00033517426,0.001654437,0.9263827,-0.04014778,0.049681306,0.37112683,0.99829745,-0.005564258,-0.00022398953,0.058062054,3
274097465,-0.014454214,-0.0032797973,0.002062505,0.9263812,-0.040172152,0.04966511,0.37113026,0.99829745,-0.005564258,-0.00022398953,0.058062054,3
274101471,-0.0149120595,0.0011698332,0.0029645865,0.92637837,-0.040200625,0.049656868,0.37113503,0.99829745,-0.005564258,-0.00022398953,0.058062054,3
274105464,0.009410409,-0.0017169274,0.0013928944,0.92637914,-0.040182,0.04966123,0.37113476,0.99829745,-0.005564258,-0.00022398953,0.058062054,3
274109465,0.015666554,0.0010325316,-0.0014787717,0.92638206,-0.040154077,0.04967509,0.3711283,0.99829745,-0.005564258,-0.00022398953,0.058062054,3
274113490,0.009843409,-4.2455387e-05,-0.002882985,0.9263861,-0.04013618,0.04968259,0.37111917,0.99829745,-0.005564258,-0.00022398953,0.058062054,3
274117464,-0.013294216,0.00058526883,-0.0022029325,0.9263877,-0.040161382,0.049674176,0.37111363,0.99829745,-0.005564258,-0.00022398953,0.058062054,3
274121465,-0.018151952,0.0009140542,-0.00082151755,0.92638785,-0.04019592,0.049662795,0.3711111,0.99829745,-0.005564258,-0.00022398953,0.058062054,3
274125465,-0.007233839,-0.0036124245,-0.0016299665,0.92638993,-0.040206935,0.04965107,0.37110636,0.99829745,-0.005564258,-0.00022398953,0.058062054,3
274129473,0.0120321065,-0.0019820519,-0.0014362843,0.9263932,-0.040183417,0.049656406,0.37109995,0.99829745,-0.005564258,-0.00022398953,0.058062054,3
274133513,0.012055855,-0.0012256628,-0.0035611123,0.92639816,-0.040160507,0.04966305,0.37108946,0.99829745,-0.005564258,-0.00022398953,0.058062054,3
274137465,0.0011587734,0.0022464965,-0.0029693458,0.9264011,-0.040160324,0.049667966,0.37108117,0.99829745,-0.005564258,-0.00022398953,0.058062054,3
274141464,-0.01012123,-0.0024535186,-0.002843371,0.9264037,-0.040177662,0.04965587,0.37107462,0.99829745,-0.005564258,-0.00022398953,0.058062054,3
274145465,-0.017458765,0.0015685471,-0.0035945587,0.9264058,-0.04021165,0.0496457,0.37106708,0.99829745,-0.005564258,-0.00022398953,0.058062054,3
274149465,0.001869634,-0.0038334318,-0.0017464486,0.9264086,-0.040205624,0.049640015,0.37106147,0.99829745,-0.005564258,-0.00022398953,0.058062054,3
274153510,0.012878476,0.000994363,-0.003568469,0.9264132,-0.040182788,0.049651403,0.37105098,0.99829745,-0.005564258,-0.00022398953,0.058062054,3
274157465,0.012231955,-0.0026175217,-0.0016328051,0.9264165,-0.040158603,0.04965564,0.37104455,0.99829745,-0.005564258,-0.00022398953,0.058062054,3
274161465,-0.010427707,0.0006541491,-0.000983581,0.92641747,-0.040178586,0.04964922,0.37104088,0.99829745,-0.005564258,-0.00022398953,0.058062054,3
274165465,-0.013111413,-0.0023016618,-0.0013347053,0.92641884,-0.04020138,0.049635317,0.3710371,0.99829745,-0.005564258,-0.00022398953,0.058062054,3
274169465,-0.010430698,0.0017712916,-0.0015048058,0.9264199,-0.04022223,0.04963091,0.3710324,0.99829745,-0.005564258,-0.00022398953,0.058062054,3
274172679,0.011596574,-0.0052115927,-0.001027433,0.92642295,-0.04020036,0.04963046,0.37102762,0.99829745,-0.005564258,-0.00022398953,0.058062054,3
274176665,0.019408586,-0.001758097,-0.0035959473,0.92642826,-0.040163927,0.049641386,0.37101656,0.99829745,-0.005564258,-0.00022398953,0.058062054,3
274179899,0.018064076,-0.0027095578,-0.0042300676,0.92643327,-0.040134296,0.049648277,0.37100643,0.99829745,-0.005564258,-0.00022398953,0.058062054,3
274184671,-0.005343988,0.002248391,-0.0046673696,0.9264378,-0.040150814,0.049647883,0.37099332,0.99829745,-0.005564258,-0.00022398953,0.058062054,3
274188706,-0.013932709,0.00062263303,-0.0026498085,0.9264398,-0.040177774,0.04963855,0.37098664,0.99829745,-0.005564258,-0.00022398953,0.058062054,3
274192665,-0.0043163057,-0.0017762275,-0.0011605712,0.9264417,-0.040184483,0.04963221,0.37098193,0.99829745,-0.005564258,-0.00022398953,0.058062054,3
274196664,0.012988681,-0.002847405,-0.0025775626,0.92644626,-0.040158637,0.049636528,0.37097293,0.99829745,-0.005564258,-0.00022398953,0.058062054,3
274200717,0.0149519425,-0.0010036004,-0.0024454314,0.9264506,-0.040130213,0.049645822,0.3709638,0.99829745,-0.005564258,-0.00022398953,0.058062054,3
274204671,0.00039706565,0.003965435,-0.0028991625,0.9264536,-0.040132593,0.04965332,0.37095508,0.99829745,-0.005564258,-0.00022398953,0.058062054,3
274208678,-0.011067197,-0.0002847042,-0.0032298965,0.9264564,-0.040153258,0.04964446,0.3709469,0.99829745,-0.005564258,-0.00022398953,0.058062054,3
274212665,-0.019399434,0.00061216915,-0.00053291756,0.9264566,-0.04018956,0.049631372,0.37094456,0.99829745,-0.005564258,-0.00022398953,0.058062054,3
274216699,0.004356457,-0.0034122556,-0.00094888214,0.92645925,-0.040179014,0.04962831,0.3709394,0.99829745,-0.005564258,-0.00022398953,0.058062054,3
274220720,0.014390474,0.0040242174,-0.00047551322,0.92646164,-0.04015526,0.04964664,0.37093353,0.99829745,-0.005564258,-0.00022398953,0.058062054,3
274224671,0.013201438,-0.002751736,-0.0019531876,0.9264654,-0.040129155,0.049651254,0.37092638,0.99829745,-0.005564258,-0.00022398953,0.058062054,3
274228664,-0.014563051,0.0023817322,0.0009498035,0.9264642,-0.040157747,0.04964506,0.37092686,0.99829745,-0.005564258,-0.00022398953,0.058062054,3
274232665,-0.020876873,0.0003010541,0.00029005663,0.92646337,-0.04019663,0.04963026,0.37092704,0.99829745,-0.005564258,-0.00022398953,0.058062054,3
274236664,-0.013038829,0.0006460012,0.0002474711,0.92646295,-0.040221218,0.0496219,0.37092626,0.99829745,-0.005564258,-0.00022398953,0.058062054,3
274240706,0.010804455,-7.3855044e-06,0.0016087273,0.9264636,-0.040200893,0.04963019,0.37092578,0.99829745,-0.005564258,-0.00022398953,0.058062054,3
274244704,0.011571659,0.001125983,2.7326925e-05,0.9264654,-0.040180247,0.049640954,0.3709222,0.99829745,-0.005564258,-0.00022398953,0.058062054,3
274248665,0.0017117611,0.0025583692,0.0009683263,0.92646563,-0.040178753,0.049647093,0.3709211,0.99829745,-0.005564258,-0.00022398953,0.058062054,3
274252664,-0.01412293,0.00033015374,0.0020344364,0.92646384,-0.040204916,0.04963748,0.3709237,0.99829745,-0.005564258,-0.00022398953,0.058062054,3
274256671,-0.020754937,0.0031920695,0.0030381652,0.9264606,-0.04024548,0.049628306,0.37092867,0.99829745,-0.005564258,-0.00022398953,0.058062054,3
274260694,0.0058870725,-0.0014779301,0.003960817,0.9264594,-0.040233012,0.049630344,0.37093315,0.99829745,-0.005564258,-0.00022398953,0.058062054,3
274264665,0.02188584,0.0038245085,0.0015974703,0.92646044,-0.04019528,0.049653698,0.37093118,0.99829745,-0.005564258,-0.00022398953,0.058062054,3
274268676,0.02229617,-1.2178905e-05,0.002064867,0.92646176,-0.040153604,0.049670503,0.3709304,0.99829745,-0.005564258,-0.00022398953,0.058062054,3
274272699,-0.005669265,0.0020059245,0.0028483835,0.9264598,-0.040165354,0.04967028,0.3709337,0.99829745,-0.005564258,-0.00022398953,0.058062054,3
274276671,-0.011243829,-0.0029700452,0.0034962897,0.9264577,-0.04018337,0.04965688,0.37093917,0.99829745,-0.005564258,-0.00022398953,0.058062054,3
274280665,-0.0055008726,-0.00095349224,0.0035043512,0.9264557,-0.04019239,0.04965137,0.37094375,0.99829745,-0.005564258,-0.00022398953,0.058062054,3
274284687,0.016924929,-0.0013626617,0.0037695393,0.9264554,-0.04015943,0.049661804,0.3709467,0.99829745,-0.005564258,-0.00022398953,0.058062054,3
274288664,0.017731745,-0.00036097894,0.00069218274,0.92645735,-0.04012628,0.04967432,0.3709438,0.99829745,-0.005564258,-0.00022398953,0.058062054,3
274292664,0.0066079483,-0.0017242336,0.0018450837,0.9264575,-0.04011248,0.04967621,0.37094426,0.99829745,-0.005564258,-0.00022398953,0.058062054,3
274296671,-0.013110852,0.0009095175,0.0020520927,0.92645586,-0.040137216,0.04966836,0.37094694,0.99829745,-0.005564258,-0.00022398953,0.058062054,3
274300699,-0.021871101,0.00071694225,0.00080161775,0.92645437,-0.04017845,0.04965345,0.3709482,0.99829745,-0.005564258,-0.00022398953,0.058062054,3
274304670,-0.0001587905,-0.0021158273,0.0022317977,0.92645395,-0.0401768,0.049649667,0.3709502,0.99829745,-0.005564258,-0.00022398953,0.058062054,3
274308665,0.01616507,0.0023214356,0.0002144801,0.9264557,-0.040148474,0.04966598,0.37094647,0.99829745,-0.005564258,-0.00022398953,0.058062054,3
274312665,0.01650411,-0.0023712758,-0.00080773764,0.9264587,-0.040116124,0.049673785,0.37094134,0.99829745,-0.005564258,-0.00022398953,0.058062054,3
274316671,-0.0055698026,0.0029324489,-0.00090367935,0.92645955,-0.040128645,0.049675032,0.3709378,0.99829745,-0.005564258,-0.00022398953,0.058062054,3
274320665,-0.014119146,-0.0019439941,0.0013975196,0.9264584,-0.04015308,0.04966111,0.37093982,0.99829745,-0.005564258,-0.00022398953,0.058062054,3
274324672,-0.013984529,-0.0009737979,0.00066010567,0.92645776,-0.04017817,0.04964898,0.3709404,0.99829745,-0.005564258,-0.00022398953,0.058062054,3
274328684,0.011153633,-0.004147634,0.0024962218,0.92645806,-0.04015403,0.049649786,0.37094218,0.99829745,-0.005564258,-0.00022398953,0.058062054,3
274332665,0.012237236,0.00049577083,-0.0010269178,0.92646056,-0.04013178,0.04965968,0.37093696,0.99829745,-0.005564258,-0.00022398953,0.058062054,3
274336673,0.010161802,-0.00089123205,-0.00010635215,0.9264626,-0.040112454,0.049665082,0.37093347,0.99829745,-0.005564258,-0.00022398953,0.058062054,3
274340665,-0.0067620706,0.0009899847,-0.00057546777,0.92646325,-0.040125888,0.049661383,0.37093064,0.99829745,-0.005564258,-0.00022398953,0.058062054,3
274344665,-0.014314753,0.0027575647,-0.0016216858,0.9264639,-0.04015476,0.049655255,0.37092656,0.99829745,-0.005564258,-0.00022398953,0.058062054,3
274348684,0.0016114805,-0.0014290245,0.00015139682,0.9264651,-0.040150877,0.04965333,0.37092456,0.99829745,-0.005564258,-0.00022398953,0.058062054,3
274352664,0.017830227,0.0009493154,-0.0020977175,0.9264689,-0.04011898,0.0496676,0.37091666,0.99829745,-0.005564258,-0.00022398953,0.058062054,3
274356690,0.017554982,6.258406e-05,-0.0009067126,0.92647177,-0.040086567,0.049680255,0.37091097,0.99829745,-0.005564258,-0.00022398953,0.058062054,3
274360674,0.0012175217,0.0037470753,-0.0012028606,0.9264733,-0.0400873,0.049687494,0.37090608,0.99829745,-0.005564258,-0.00022398953,0.058062054,3
274364665,-0.008070271,-0.0017200123,-0.0012225516,0.92647475,-0.040101178,0.049677767,0.37090254,0.99829745,-0.005564258,-0.00022398953,0.058062054,3
274368701,-0.012367807,0.0005051509,-0.0012426199,0.92647547,-0.040125005,0.049668852,0.37089926,0.99829745,-0.005564258,-0.00022398953,0.058062054,3
274372664,0.010745675,-0.00046419818,-0.0018030283,0.92647856,-0.040105145,0.04967528,0.3708928,0.99829745,-0.005564258,-0.00022398953,0.058062054,3
274376664,0.015700117,0.0024271696,-0.0035271763,0.92648304,-0.040078327,0.04969064,0.37088242,0.99829745,-0.005564258,-0.00022398953,0.058062054,3
274380665,0.015943244,-0.0002646129,-0.0017961115,0.92648655,-0.040048882,0.04970134,0.37087545,0.99829745,-0.005564258,-0.00022398953,0.058062054,3
274384704,-0.009048173,0.0018803545,-0.00096015295,0.9264871,-0.040067527,0.049697485,0.3708726,0.99829745,-0.005564258,-0.00022398953,0.058062054,3
274388702,-0.018513141,-0.0012452552,-0.0015669203,0.92648774,-0.04010116,0.049680833,0.37086985,0.99829745,-0.005564258,-0.00022398953,0.058062054,3
274400665,0.011227513,-0.00054317975,-0.001475991,0.92649275,-0.04007362,0.04968993,0.37085903,0.99829745,-0.005564258,-0.00022398953,0.058062054,3
274404665,-0.0010531675,0.0017130024,-0.0011353348,0.926494,-0.04007708,0.049691718,0.3708552,0.99829745,-0.005564258,-0.00022398953,0.058062054,3
274408703,-0.013240896,-0.0031283428,-5.1950512e-05,0.92649376,-0.04009973,0.049675386,0.37085536,0.99829745,-0.005564258,-0.00022398953,0.058062054,3
274412705,-0.01725198,-0.0008506649,0.0005879236,0.92649263,-0.04013115,0.04966052,0.37085694,0.99829745,-0.005564258,-0.00022398953,0.058062054,3
274416665,0.00580325,-0.0027960232,0.0016313144,0.9264927,-0.040118337,0.049659256,0.37085834,0.99829745,-0.005564258,-0.00022398953,0.058062054,3
274420665,0.01675447,0.003324695,0.0007497084,0.92649364,-0.040089827,0.04967736,0.37085658,0.99829745,-0.005564258,-0.00022398953,0.058062054,3
274424665,0.01741386,-0.0023549257,0.0021011967,0.9264942,-0.040055748,0.049685538,0.37085775,0.99829745,-0.005564258,-0.00022398953,0.058062054,3
274428664,-0.008829279,0.002728974,0.0013730506,0.9264927,-0.040074132,0.04968361,0.37085977,0.99829745,-0.005564258,-0.00022398953,0.058062054,3
274432665,-0.020068718,-0.0031274748,0.0008576447,0.92649126,-0.040109072,0.049662445,0.37086254,0.99829745,-0.005564258,-0.00022398953,0.058062054,3
274436671,-0.009555559,-0.0023475366,0.0026810195,0.9264892,-0.04012495,0.049650654,0.37086758,0.99829745,-0.005564258,-0.00022398953,0.058062054,3
274440671,0.014110058,-0.0016662537,0.0034941984,0.9264883,-0.040097367,0.04965777,0.37087178,0.99829745,-0.005564258,-0.00022398953,0.058062054,3
274444664,0.01645022,-0.00256575,0.00047404095,0.92648995,-0.04006512,0.0496647,0.37087023,0.99829745,-0.005564258,-0.00022398953,0.058062054,3
274448665,0.011047667,-0.0025723646,0.0013115361,0.9264904,-0.04004275,0.04966768,0.3708708,0.99829745,-0.005564258,-0.00022398953,0.058062054,3
274452688,-0.0054688617,-0.0015747865,0.0033878195,0.9264881,-0.040051624,0.049660392,0.37087688,0.99829745,-0.005564258,-0.00022398953,0.058062054,3
274455902,-0.017569741,-0.0011893047,0.0016498042,0.9264864,-0.040075447,0.04964797,0.3708803,0.99829745,-0.005564258,-0.00022398953,0.058062054,3
274459865,-0.0017105453,-0.00039850344,0.0030361474,0.9264843,-0.0400784,0.049645618,0.3708855,0.99829745,-0.005564258,-0.00022398953,0.058062054,3
274463082,0.023119068,0.00090269255,0.0026366247,0.9264844,-0.040043075,0.04966059,0.37088698,0.99829745,-0.005564258,-0.00022398953,0.058062054,3
274467864,0.02230883,0.00033833983,9.464394e-05,0.9264866,-0.03999628,0.049680255,0.37088388,0.99829745,-0.005564258,-0.00022398953,0.058062054,3
274471881,0.0003025988,0.002495276,0.00092728494,0.9264859,-0.03999778,0.04968466,0.37088487,0.99829745,-0.005564258,-0.00022398953,0.058062054,3
274475099,-0.01280986,-0.0031323582,-0.00061365945,0.92648596,-0.040013656,0.049672015,0.37088478,0.99829745,-0.005564258,-0.00022398953,0.058062054,3
274479865,-0.017542725,-0.003015353,0.00077846827,0.9264841,-0.040051784,0.04964905,0.37088826,0.99829745,-0.005564258,-0.00022398953,0.058062054,3
274483106,0.004826432,-0.005213713,0.0012166381,0.92648435,-0.04003987,0.04964391,0.37088972,0.99829745,-0.005564258,-0.00022398953,0.058062054,3
274487865,0.013186557,0.00045694225,-6.980961e-06,0.9264857,-0.04001327,0.049655683,0.37088758,0.99829745,-0.005564258,-0.00022398953,0.058062054,3
274491871,0.013303779,-0.0020730835,-0.0019376576,0.9264885,-0.03998734,0.04966101,0.37088245,0.99829745,-0.005564258,-0.00022398953,0.058062054,3
274495865,-0.008787249,0.004414692,-0.0024625894,0.9264895,-0.040007215,0.049661938,0.3708781,0.99829745,-0.005564258,-0.00022398953,0.058062054,3
274499865,-0.020787442,0.00023363053,-0.002604568,0.9264898,-0.040046286,0.049646188,0.370875,0.99829745,-0.005564258,-0.00022398953,0.058062054,3
274503140,-0.010064997,0.0021461933,-0.0008940457,0.9264898,-0.04006155,0.049642984,0.3708741,0.99829745,-0.005564258,-0.00022398953,0.058062054,3
274507865,0.014167573,0.0026124385,-0.0030365654,0.9264933,-0.04003516,0.049659967,0.3708656,0.99829745,-0.005564258,-0.00022398953,0.058062054,3
274511906,0.015000282,0.0019695465,-0.003953625,0.9264972,-0.040009137,0.049674015,0.3708567,0.99829745,-0.005564258,-0.00022398953,0.058062054,3
274515865,-0.00199999,0.004009437,-0.002937919,0.9264988,-0.04001605,0.049679127,0.37085143,0.99829745,-0.005564258,-0.00022398953,0.058062054,3
274519876,-0.016489938,-0.00050142326,-0.0035315005,0.9265001,-0.04004683,0.049665082,0.37084678,0.99829745,-0.005564258,-0.00022398953,0.058062054,3
274523138,-0.021143673,-0.00018668914,-0.002296924,0.92649996,-0.04007744,0.04965156,0.37084538,0.99829745,-0.005564258,-0.00022398953,0.058062054,3
274527865,-0.0015875781,-0.0014744058,-0.0010900698,0.92650086,-0.04008173,0.049645983,0.37084347,0.99829745,-0.005564258,-0.00022398953,0.058062054,3
274531871,0.008457416,0.0031598504,-0.002293794,0.9265028,-0.04006914,0.04965788,0.37083837,0.99829745,-0.005564258,-0.00022398953,0.058062054,3
274535865,0.0107590975,0.00059578754,-0.001482341,0.9265046,-0.04005034,0.049666762,0.37083474,0.99829745,-0.005564258,-0.00022398953,0.058062054,3
274539900,-0.01035074,0.006563958,-0.0016483711,0.92650425,-0.04007538,0.049671084,0.37083244,0.99829745,-0.005564258,-0.00022398953,0.058062054,3
274543905,-0.019137736,0.0021241421,-0.0019095731,0.9265038,-0.040113203,0.0496606,0.37083092,0.99829745,-0.005564258,-0.00022398953,0.058062054,3
274547865,-0.009032834,0.0015699875,0.0006576149,0.9265023,-0.040131323,0.049656868,0.37083325,0.99829745,-0.005564258,-0.00022398953,0.058062054,3
274551865,0.018510194,0.0028369604,-4.921609e-05,0.9265033,-0.0400997,0.049675785,0.37083137,0.99829745,-0.005564258,-0.00022398953,0.058062054,3
274555865,0.017920054,0.00050016865,-0.0023755536,0.92650634,-0.040067665,0.04968977,0.37082547,0.99829745,-0.005564258,-0.00022398953,0.058062054,3
274559865,0.0044475785,0.0003389056,-0.0009849207,0.92650723,-0.04006034,0.049693573,0.3708235,0.99829745,-0.005564258,-0.00022398953,0.058062054,3
274563901,-0.015603032,-0.0011085286,0.0014826036,0.9265048,-0.040089175,0.049679898,0.3708283,0.99829745,-0.005564258,-0.00022398953,0.058062054,3
274567865,-0.020229924,-0.00010182825,0.0008246411,0.9265024,-0.040126644,0.049664892,0.3708322,0.99829745,-0.005564258,-0.00022398953,0.058062054,3
274571865,-0.004180157,-0.0017652265,0.0029027527,0.9265,-0.040133364,0.04965874,0.37083858,0.99829745,-0.005564258,-0.00022398953,0.058062054,3
274575865,0.008533805,-0.0015384133,0.00041643993,0.9265003,-0.040116936,0.049662232,0.37083903,0.99829745,-0.005564258,-0.00022398953,0.058062054,3
274579865,0.009438442,-0.0027378865,-0.00095384155,0.9265019,-0.040098064,0.049664088,0.3708367,0.99829745,-0.005564258,-0.00022398953,0.058062054,3
274583869,-0.009668773,0.0042264755,0.0015529883,0.9264995,-0.040119544,0.04966487,0.3708404,0.99829745,-0.005564258,-0.00022398953,0.058062054,3
274587865,-0.018962849,-0.0016917875,0.0004568979,0.9264977,-0.0401539,0.04964775,0.3708435,0.99829745,-0.005564258,-0.00022398953,0.058062054,3
274591864,-0.010396919,0.0029663928,0.00091195176,0.9264958,-0.040175825,0.049645633,0.3708462,0.99829745,-0.005564258,-0.00022398953,0.058062054,3
274595865,0.014311061,0.00030932366,0.0013814131,0.92649573,-0.04014995,0.04965697,0.37084758,0.99829745,-0.005564258,-0.00022398953,0.058062054,3
274599865,0.015175493,2.940686e-05,0.0013735979,0.9264958,-0.040122267,0.049668424,0.37084886,0.99829745,-0.005564258,-0.00022398953,0.058062054,3
274603923,0.008211224,-0.0014991642,0.0016613594,0.9264955,-0.04010617,0.04967197,0.37085092,0.99829745,-0.005564258,-0.00022398953,0.058062054,3
274607865,-0.010993069,-0.0040094797,0.0030040876,0.926493,-0.040123392,0.049656957,0.3708575,0.99829745,-0.005564258,-0.00022398953,0.058062054,3
274611915,-0.020943236,-0.0030897846,0.0032951625,0.9264891,-0.040160652,0.04963576,0.3708657,0.99829745,-0.005564258,-0.00022398953,0.058062054,3
274615865,-0.0055331234,-0.0042759646,0.003541,0.9264866,-0.040167686,0.049624275,0.37087277,0.99829745,-0.005564258,-0.00022398953,0.058062054,3
274619865,0.009832045,7.965113e-05,0.0016115673,0.9264863,-0.040149882,0.049631946,0.37087446,0.99829745,-0.005564258,-0.00022398953,0.058062054,3
274623906,0.013838659,-0.0011440136,0.0011491701,0.9264868,-0.040123604,0.04964035,0.370875,0.99829745,-0.005564258,-0.00022398953,0.058062054,3
274627865,-0.0033359202,0.0052480907,0.0022314796,0.9264845,-0.040133767,0.049647838,0.37087876,0.99829745,-0.005564258,-0.00022398953,0.058062054,3
274631864,-0.013430786,-0.00012297172,0.00013132213,0.92648333,-0.040159047,0.04963776,0.37088,0.99829745,-0.005564258,-0.00022398953,0.058062054,3
274635865,-0.010195076,0.0023215422,7.48038e-05,0.92648244,-0.040180307,0.049634624,0.3708807,0.99829745,-0.005564258,-0.00022398953,0.058062054,3
274639864,0.01415335,-0.000694683,0.0015988287,0.92648244,-0.040154018,0.04964407,0.37088197,0.99829745,-0.005564258,-0.00022398953,0.058062054,3
274643875,0.017679786,-0.00014677807,-0.0019738262,0.9264855,-0.04012189,0.049656916,0.37087625,0.99829745,-0.005564258,-0.00022398953,0.058062054,3
274647864,0.015294913,-0.0016220859,-0.0005236623,0.9264873,-0.040093057,0.049665324,0.3708736,0.99829745,-0.005564258,-0.00022398953,0.058062054,3
274651900,-0.0066753724,0.0004896935,0.0008017962,0.92648613,-0.04010649,0.04966143,0.3708754,0.99829745,-0.005564258,-0.00022398953,0.058062054,3
274655871,-0.020100268,-0.0029582572,0.0007516955,0.9264844,-0.04014173,0.0496414,0.37087867,0.99829745,-0.005564258,-0.00022398953,0.058062054,3
274659865,-0.009933464,0.0010739074,-0.0005514701,0.92648405,-0.040161535,0.04963614,0.3708784,0.99829745,-0.005564258,-0.00022398953,0.058062054,3
274663864,0.010425191,0.0056020636,-0.0020590168,0.9264859,-0.040147163,0.049654227,0.37087288,0.99829745,-0.005564258,-0.00022398953,0.058062054,3
274667864,0.014343103,0.0026999353,-0.004491131,0.9264901,-0.040123615,0.049669664,0.37086272,0.99829745,-0.005564258,-0.00022398953,0.058062054,3
274671877,-0.0020163008,0.0073171984,-0.0026564354,0.92649126,-0.04013368,0.049681704,0.3708572,0.99829745,-0.005564258,-0.00022398953,0.058062054,3
274675871,-0.017150443,0.00026499003,-0.0015489551,0.9264911,-0.040166296,0.049669538,0.37085584,0.99829745,-0.005564258,-0.00022398953,0.058062054,3
274679864,-0.016429007,0.002953206,-0.0020733504,0.92649096,-0.040199626,0.049662832,0.37085316,0.99829745,-0.005564258,-0.00022398953,0.058062054,3
274683865,0.007570063,-0.0009913112,-0.0026080543,0.92649376,-0.0401857,0.0496666,0.37084737,0.99829745,-0.005564258,-0.00022398953,0.058062054,3
274687887,0.013825262,-0.0011262865,-0.003220186,0.92649746,-0.04016003,0.04967473,0.3708398,0.99829745,-0.005564258,-0.00022398953,0.058062054,3
274691912,0.015208674,-0.0058725188,-0.002284983,0.926501,-0.040128116,0.049675133,0.3708342,0.99829745,-0.005564258,-0.00022398953,0.058062054,3
274695871,-0.0066757845,-0.00092507625,-0.0021644537,0.9265022,-0.040140346,0.049668584,0.37083068,0.99829745,-0.005564258,-0.00022398953,0.058062054,3
274699877,-0.021259885,-0.006583034,-0.0045746756,0.9265047,-0.04017593,0.04964042,0.37082455,0.99829745,-0.005564258,-0.00022398953,0.058062054,3
274703865,-0.014450436,-0.002474141,-0.0021062142,0.9265054,-0.040201526,0.049625214,0.370822,0.99829745,-0.005564258,-0.00022398953,0.058062054,3
274707874,0.006638418,-0.0004590266,-0.00124169,0.92650694,-0.040189542,0.049629405,0.37081882,0.99829745,-0.005564258,-0.00022398953,0.058062054,3
274711875,0.011324028,-0.0007784743,-0.0034878345,0.9265106,-0.040168863,0.0496363,0.37081105,0.99829745,-0.005564258,-0.00022398953,0.058062054,3
274715871,-0.00062116794,0.0029528846,-0.0019597544,0.92651176,-0.04017291,0.04964137,0.37080696,0.99829745,-0.005564258,-0.00022398953,0.058062054,3
274719865,-0.017852718,0.0014185284,-0.0015727805,0.9265115,-0.040207665,0.049630877,0.37080547,0.99829745,-0.005564258,-0.00022398953,0.058062054,3
274723865,-0.018399531,0.0012045961,-0.0035903242,0.9265126,-0.040243518,0.049619384,0.37080023,0.99829745,-0.005564258,-0.00022398953,0.058062054,3
274727876,0.00038112095,-0.00021186506,-0.00075790274,0.9265134,-0.040243264,0.04961943,0.37079853,0.99829745,-0.005564258,-0.00022398953,0.058062054,3
274731868,0.010820557,-0.00086835714,-0.00062448886,0.9265149,-0.040223338,0.049625963,0.3707959,0.99829745,-0.005564258,-0.00022398953,0.058062054,3
274735865,0.010244809,-0.0020510505,-0.0014832239,0.9265172,-0.04020367,0.049629815,0.37079185,0.99829745,-0.005564258,-0.00022398953,0.058062054,3
274739865,-0.010796614,0.0016514044,-0.0013082501,0.9265173,-0.040225696,0.049624942,0.3707899,0.99829745,-0.005564258,-0.00022398953,0.058062054,3
274743866,-0.021958774,-0.0014991183,-0.00015695742,0.92651594,-0.040265966,0.049606044,0.3707914,0.99829745,-0.005564258,-0.00022398953,0.058062054,3
274747871,-0.015407003,0.00095268234,0.0014595604,0.9265137,-0.040295772,0.049596667,0.37079507,0.99829745,-0.005564258,-0.00022398953,0.058062054,3
274751900,0.009064566,-0.0019831867,0.0025391192,0.9265128,-0.04027782,0.049600102,0.37079856,0.99829745,-0.005564258,-0.00022398953,0.058062054,3
274755865,0.01229628,-0.0006631939,0.001210822,0.92651325,-0.040255174,0.04960822,0.37079906,0.99829745,-0.005564258,-0.00022398953,0.058062054,3
274759871,0.002848079,0.003418253,0.003210038,0.9265109,-0.04025275,0.04961711,0.37080383,0.99829745,-0.005564258,-0.00022398953,0.058062054,3
274763116,-0.012083663,0.0062097423,0.002622957,0.92650825,-0.04027348,0.04961979,0.37080783,0.99829745,-0.005564258,-0.00022398953,0.058062054,3
274767871,-0.016743248,0.0020660667,0.0005695629,0.9265061,-0.04031462,0.0496095,0.37081015,0.99829745,-0.005564258,-0.00022398953,0.058062054,3
274771887,-0.0013328069,0.0021366994,0.004525401,0.92650265,-0.040318813,0.049613032,0.37081793,0.99829745,-0.005564258,-0.00022398953,0.058062054,3
274775865,0.018427003,0.002871431,0.0029196618,0.9265019,-0.04028718,0.049632344,0.37082067,0.99829745,-0.005564258,-0.00022398953,0.058062054,3
274779870,0.018782396,-0.002025499,0.0019964487,0.92650217,-0.040251214,0.049642853,0.3708225,0.99829745,-0.005564258,-0.00022398953,0.058062054,3
274783114,0.001399341,-0.000120448065,0.0023064148,0.9265009,-0.040247854,0.049644087,0.37082577,0.99829745,-0.005564258,-0.00022398953,0.058062054,3
274787064,-0.013181241,-0.0013392273,0.0028187716,0.926498,-0.040271476,0.049632322,0.37083215,0.99829745,-0.005564258,-0.00022398953,0.058062054,3
274791065,-0.013827244,0.0013700892,0.0021385625,0.9264951,-0.040298738,0.049624875,0.37083715,0.99829745,-0.005564258,-0.00022398953,0.058062054,3
274795076,0.00500599,0.000249848,0.0045570424,0.92649215,-0.040289965,0.049629547,0.37084496,0.99829745,-0.005564258,-0.00022398953,0.058062054,3
274798335,0.014267115,-9.008148e-05,0.0032056866,0.9264912,-0.040267292,0.049638618,0.3708486,0.99829745,-0.005564258,-0.00022398953,0.058062054,3
274803063,0.014374904,-0.003396376,0.001556697,0.92649156,-0.040235147,0.049643744,0.37085044,0.99829745,-0.005564258,-0.00022398953,0.058062054,3
274807083,-0.006526004,0.005840465,0.0010834807,0.92648965,-0.040252175,0.049649965,0.37085256,0.99829745,-0.005564258,-0.00022398953,0.058062054,3
274811065,-0.017339285,0.00051091134,0.0018577432,0.92648685,-0.040284898,0.049638398,0.37085757,0.99829745,-0.005564258,-0.00022398953,0.058062054,3
274815068,-0.009536564,0.0046699527,0.0007104342,0.9264851,-0.04030657,0.04964017,0.37085938,0.99829745,-0.005564258,-0.00022398953,0.058062054,3
274818321,0.014122751,0.0010755016,0.000707005,0.92648554,-0.040284883,0.04965075,0.37085927,0.99829745,-0.005564258,-0.00022398953,0.058062054,3
274823114,0.015816327,-0.00038377964,-0.00092239876,0.9264878,-0.040252052,0.04966367,0.37085518,0.99829745,-0.005564258,-0.00022398953,0.058062054,3
274827085,0.0036587957,-0.0004746634,-0.0016575529,0.9264893,-0.040245544,0.0496655,0.370852,0.99829745,-0.005564258,-0.00022398953,0.058062054,3
274831065,-0.014538981,-0.003086851,-0.002423212,0.9264901,-0.04027076,0.049649015,0.37084943,0.99829745,-0.005564258,-0.00022398953,0.058062054,3
274835064,-0.014056014,-0.0039781816,-0.00220996,0.9264909,-0.040294558,0.049631167,0.37084728,0.99829745,-0.005564258,-0.00022398953,0.058062054,3
274839093,0.001503244,-0.0037611579,-6.217003e-05,0.9264914,-0.040289506,0.04962537,0.37084752,0.99829745,-0.005564258,-0.00022398953,0.058062054,3
274843114,0.013768585,-0.0020795278,-0.0046111196,0.92649597,-0.040263288,0.049631495,0.37083796,0.99829745,-0.005564258,-0.00022398953,0.058062054,3
274847071,0.0143831,-0.0018240497,-0.004115045,0.9265002,-0.04023637,0.049638506,0.37082934,0.99829745,-0.005564258,-0.00022398953,0.058062054,3
274851065,-0.003167077,0.003797025,-0.002442757,0.9265013,-0.04024576,0.049643114,0.37082514,0.99829745,-0.005564258,-0.00022398953,0.058062054,3
274855065,-0.016714226,-0.0015326426,-0.0021615778,0.9265015,-0.0402763,0.049627814,0.3708232,0.99829745,-0.005564258,-0.00022398953,0.058062054,3
274859110,-0.01251694,0.0016766735,-0.002517995,0.9265021,-0.040301837,0.049621455,0.3708199,0.99829745,-0.005564258,-0.00022398953,0.058062054,3
274863114,0.012224073,0.001580267,-0.0012628979,0.9265037,-0.040280927,0.049633466,0.37081653,0.99829745,-0.005564258,-0.00022398953,0.058062054,3
274867071,0.016058788,-0.0009548136,-0.003722606,0.92650765,-0.040251512,0.04964332,0.37080854,0.99829745,-0.005564258,-0.00022398953,0.058062054,3
274871071,0.0073597655,-0.0020565242,-0.0020716134,0.92650986,-0.04023702,0.049644902,0.37080443,0.99829745,-0.005564258,-0.00022398953,0.058062054,3
274875064,-0.0102147125,-0.00014162867,-0.0026705926,0.9265109,-0.04025651,0.049636967,0.3708008,0.99829745,-0.005564258,-0.00022398953,0.058062054,3
274879083,-0.014320381,-0.003134009,-0.0045472747,0.92651325,-0.040281788,0.04962019,0.3707943,0.99829745,-0.005564258,-0.00022398953,0.058062054,3
274883114,-0.0033103148,-0.0019456516,-0.0008914315,0.9265138,-0.0402871,0.049614105,0.37079343,0.99829745,-0.005564258,-0.00022398953,0.058062054,3
274887112,0.012927849,5.3416705e-05,0.00026335136,0.9265145,-0.040263586,0.04962391,0.37079293,0.99829745,-0.005564258,-0.00022398953,0.058062054,3
274891072,0.017396852,0.00037153042,-0.0022012135,0.9265173,-0.040232483,0.04963729,0.3707874,0.99829745,-0.005564258,-0.00022398953,0.058062054,3
274895065,0.0014426771,0.0036593815,-0.0016098744,0.926518,-0.04023309,0.04964508,0.37078425,0.99829745,-0.005564258,-0.00022398953,0.058062054,3
274899064,-0.016934715,-0.0024323165,-3.382651e-05,0.92651683,-0.04026307,0.0496281,0.37078634,0.99829745,-0.005564258,-0.00022398953,0.058062054,3
274903071,-0.0130276205,0.0013719405,0.000341942,0.9265153,-0.040288664,0.049621083,0.37078843,0.99829745,-0.005564258,-0.00022398953,0.058062054,3
274907111,0.0109352395,0.00016770861,0.00022470846,0.92651594,-0.04026877,0.04962967,0.37078795,0.99829745,-0.005564258,-0.00022398953,0.058062054,3
274911079,0.014904371,-0.0012938206,0.00064537744,0.92651653,-0.040240657,0.049638398,0.37078798,0.99829745,-0.005564258,-0.00022398953,0.058062054,3
274915081,0.011663811,-0.0005475441,-0.00049496576,0.92651784,-0.040219046,0.049646072,0.3707862,0.99829745,-0.005564258,-0.00022398953,0.058062054,3
274919065,-0.009378364,0.00029764394,0.0008458778,0.9265163,-0.040236823,0.049639843,0.3707889,0.99829745,-0.005564258,-0.00022398953,0.058062054,3
274923103,-0.013151141,-0.0034051775,0.0009098614,0.9265148,-0.040259205,0.049623754,0.37079245,0.99829745,-0.005564258,-0.00022398953,0.058062054,3
274927082,-0.0047631846,0.00203969,0.0026524514,0.9265121,-0.040269513,0.049624287,0.3707979,0.99829745,-0.005564258,-0.00022398953,0.058062054,3
274931071,0.017597372,0.00031568273,0.0020670462,0.9265119,-0.04023802,0.04963773,0.37080035,0.99829745,-0.005564258,-0.00022398953,0.058062054,3
274935065,0.018166984,-0.0016219736,-0.0001397893,0.9265134,-0.040204216,0.04964785,0.37079877,0.99829745,-0.005564258,-0.00022398953,0.058062054,3
274939065,0.005137848,0.002016507,0.0016855365,0.9265122,-0.040197015,0.049655207,0.37080163,0.99829745,-0.005564258,-0.00022398953,0.058062054,3
274943105,-0.0147871785,0.0011573784,0.000950536,0.92651,-0.040226538,0.04964604,0.37080517,0.99829745,-0.005564258,-0.00022398953,0.058062054,3
274947102,-0.010850651,2.6132446e-05,0.0030738718,0.92650664,-0.040247303,0.04963797,0.37081236,0.99829745,-0.005564258,-0.00022398953,0.058062054,3
274951065,0.009050614,0.00051337644,0.002831751,0.926505,-0.04023168,0.04964548,0.37081704,0.99829745,-0.005564258,-0.00022398953,0.058062054,3
274955083,0.0168521,-0.00012707338,0.0027913416,0.92650425,-0.040200904,0.049657714,0.3708206,0.99829745,-0.005564258,-0.00022398953,0.058062054,3
274959065,0.011362953,-0.0018003361,0.003446391,0.92650276,-0.040179167,0.049662754,0.37082604,0.99829745,-0.005564258,-0.00022398953,0.058062054,3
274963108,-0.006999177,0.002343034,0.0027074423,0.9264999,-0.04019476,0.049661785,0.37083167,0.99829745,-0.005564258,-0.00022398953,0.058062054,3
274967083,-0.014962162,-0.001356774,0.0038328157,0.92649597,-0.04022178,0.049648263,0.37084037,0.99829745,-0.005564258,-0.00022398953,0.058062054,3
274971065,-0.0071171816,-0.00030853983,0.0039956635,0.92649245,-0.04023512,0.049642455,0.37084857,0.99829745,-0.005564258,-0.00022398953,0.058062054,3
274975071,0.01136779,-0.0003115696,0.004190469,0.92649025,-0.040214274,0.049650338,0.3708553,0.99829745,-0.005564258,-0.00022398953,0.058062054,3
274979065,0.012578168,-0.002022582,0.002087755,0.9264898,-0.040190175,0.049655747,0.37085828,0.99829745,-0.005564258,-0.00022398953,0.058062054,3
274983094,0.005554856,9.72877e-05,0.0026740662,0.92648816,-0.040180553,0.04965996,0.3708629,0.99829745,-0.005564258,-0.00022398953,0.058062054,3
274987065,-0.014491029,0.0010215943,0.0013836804,0.9264858,-0.040208615,0.04965096,0.37086698,0.99829745,-0.005564258,-0.00022398953,0.058062054,3
274991065,-0.012660097,-0.0013859902,0.0028184662,0.9264827,-0.04023163,0.049638893,0.37087378,0.99829745,-0.005564258,-0.00022398953,0.058062054,3
274995067,0.0050506517,0.00056656706,0.0019139588,0.9264815,-0.040223345,0.049643505,0.37087697,0.99829745,-0.005564258,-0.00022398953,0.058062054,3
274999064,0.0164545,-3.0981726e-05,0.0006612143,0.92648226,-0.04019362,0.04965536,0.37087676,0.99829745,-0.005564258,-0.00022398953,0.058062054,3
275003108,0.012924871,-0.0029958682,0.0011448618,0.9264823,-0.040167995,0.049659144,0.3708786,0.99829745,-0.005564258,-0.00022398953,0.058062054,3
275007091,0.00024908734,0.0016538375,0.00051488815,0.9264815,-0.04016951,0.049662065,0.3708802,0.99829745,-0.005564258,-0.00022398953,0.058062054,3
