timestamp,rollspeed,pitchspeed,yawspeed,rollspeed_integ,pitchspeed_integ,yawspeed_integ,additional_integ1
273391603,0.006993679,-0.0025961571,-0.0018319797,0.2,-0.4,0.06553882,0.0
273395574,0.013424503,-0.0029935618,-0.0026353938,0.2,-0.4,0.06553847,0.0
273399564,0.015366906,-0.00035211595,-0.0031581805,0.2,-0.4,0.065538146,0.0
273403605,-0.0005076104,-0.00062947255,-0.00233835,0.2,-0.4,0.06553777,0.0
273407513,-0.0059172832,-0.0036597284,-0.0031654376,0.2,-0.4,0.065537445,0.0
273411539,-0.00035111792,0.0012208951,-0.0018015106,0.2,-0.4,0.06553706,0.0
273415756,0.0039623315,0.002371407,0.0010470273,0.2,-0.4,0.06553653,0.0
273419535,0.009189888,0.00017382856,-0.0018069411,0.2,-0.4,0.065536164,0.0
273423512,0.003276941,0.0066163284,-0.0030283467,0.2,-0.4,0.06553583,0.0
273427671,-0.005364656,0.0003901805,-0.002974215,0.2,-0.4,0.06553548,0.0
273431510,-0.01380763,0.004757615,-0.0009630419,0.2,-0.4,0.065535076,0.0
273435556,0.0061341505,0.00096988387,0.0010044373,0.2,-0.4,0.06553457,0.0
273439614,0.010087903,0.0013708851,-0.00040831516,0.2,-0.4,0.06553412,0.0
273443594,0.017552694,-0.0014069788,0.00029305444,0.2,-0.4,0.06553366,0.0
273447585,-0.004124175,0.0031085054,-0.00082049944,0.2,-0.4,0.065533236,0.0
273451580,-0.008700563,-0.0010327714,0.00059200823,0.2,-0.4,0.06553275,0.0
273455593,-0.009222401,0.0016947568,0.0010906942,0.2,-0.4,0.065532245,0.0
273459562,-0.0017182264,-0.0019319982,0.00042029363,0.2,-0.4,0.065531775,0.0
273463799,0.0030265136,-0.0037127712,0.00075160793,0.2,-0.4,0.06553126,0.0
273467549,-0.001221614,0.0037997975,0.0019776963,0.2,-0.4,0.065530755,0.0
273471532,-0.013830456,0.00096351875,0.001316278,0.2,-0.4,0.06553025,0.0
273475613,-0.022462467,0.0022312258,0.0033510085,0.2,-0.4,0.065529644,0.0
273479612,-0.0039608344,-0.00019628438,0.0047281226,0.2,-0.4,0.065529,0.0
273483560,0.0042922506,0.0030047996,0.0055369046,0.2,-0.4,0.065528326,0.0
273487615,0.011397771,-0.0012577361,0.003685269,0.2,-0.4,0.06552771,0.0
273491510,-0.0015113694,0.003832865,0.0033729505,0.2,-0.4,0.065527126,0.0
273495553,-0.0068186373,-0.0027409755,0.0035099736,0.2,-0.4,0.065526515,0.0
273499643,-0.014930215,1.9001192e-05,0.0057832533,0.2,-0.4,0.06552581,0.0
273503613,0.0024878785,-0.004036524,0.0068162214,0.2,-0.4,0.06552508,0.0
273507501,0.012407068,-0.0029008104,0.004122762,0.2,-0.4,0.06552447,0.0
273511602,0.01481243,0.0011536145,0.0028878788,0.2,-0.4,0.06552388,0.0
273515511,-0.0015863813,-5.8470177e-05,0.003272888,0.2,-0.4,0.065523304,0.0
273519603,-0.0107063595,0.0013266373,0.0027722837,0.2,-0.4,0.06552272,0.0
273523661,0.0029489745,-0.00256848,0.0045666047,0.2,-0.4,0.06552207,0.0
273527629,0.010918712,-0.0013777972,0.0022788295,0.2,-0.4,0.06552152,0.0
273531507,0.017278256,-0.003973727,0.0024297002,0.2,-0.4,0.06552099,0.0
273535651,0.0036075339,0.0035060167,0.002201674,0.2,-0.4,0.06552042,0.0
273539566,-0.004981356,-0.004935937,-0.00049175136,0.2,-0.4,0.06551999,0.0
273543589,-0.019043902,0.0025259445,-8.540426e-05,0.2,-0.4,0.06551953,0.0
273547627,-0.0034233658,-0.00088644546,0.0001583333,0.2,-0.4,0.06551906,0.0
273551646,0.008113834,-0.0016705536,0.0008674214,0.2,-0.4,0.06551856,0.0
273554700,0.013517115,0.0012700952,-0.0014223317,0.2,-0.4,0.06551825,0.0
273558932,-0.006147321,0.005162111,-0.0026818644,0.2,-0.4,0.06551788,0.0
273562706,-0.010182186,-0.0027781944,-0.0031577563,0.2,-0.4,0.06551757,0.0
273566755,-0.010441459,0.0025142306,-0.0022554465,0.2,-0.4,0.065517195,0.0
273570802,0.004864342,-0.0012484461,-0.00092730136,0.2,-0.4,0.06551677,0.0
273574711,0.014438254,-0.0018685374,-0.004245542,0.2,-0.4,0.06551649,0.0
273578735,0.012139921,0.003473256,-0.004876077,0.2,-0.4,0.06551622,0.0
273582843,-0.0053427676,-0.0006047141,-0.0063721132,0.2,-0.4,0.06551601,0.0
273586779,-0.01623739,-0.0004901362,-0.0029834332,0.2,-0.4,0.065515675,0.0
273590743,-0.0044072066,-0.0015031913,-0.003265461,0.2,-0.4,0.06551535,0.0
273594836,0.00897719,-0.0032266234,-0.0017939066,0.2,-0.4,0.06551495,0.0
273598715,0.016866297,-0.0035689208,-0.00324601,0.2,-0.4,0.06551463,0.0
273602661,0.0016092968,0.00430715,-0.005305366,0.2,-0.4,0.065514386,0.0
273606820,-0.005899799,-0.0022500828,-0.004673354,0.2,-0.4,0.0655141,0.0
273610755,-0.011644546,0.0038769892,-0.0048310976,0.2,-0.4,0.06551384,0.0
273614769,1.6824342e-05,-0.00048836664,-0.0024320318,0.2,-0.4,0.06551348,0.0
273618822,0.008138682,0.0027165948,-0.002809621,0.2,-0.4,0.06551313,0.0
273622701,0.0084940735,0.0033793324,-0.003483504,0.2,-0.4,0.06551281,0.0
273626758,-0.010631528,-0.00060901017,-0.001678853,0.2,-0.4,0.06551241,0.0
273630818,-0.019674905,0.0013606722,-0.000733659,0.2,-0.4,0.06551197,0.0
273634746,-0.010617407,-0.00055151636,-0.0010671418,0.2,-0.4,0.06551156,0.0
273638739,0.0020893659,0.00061693846,0.00079933606,0.2,-0.4,0.06551107,0.0
273642813,0.0121090915,-0.0013925943,-0.0014221498,0.2,-0.4,0.06551066,0.0
273646730,0.0019358175,0.0057458817,-0.0016669191,0.2,-0.4,0.06551027,0.0
273650700,-0.0066697267,-0.00092520844,-0.00044990378,0.2,-0.4,0.06550983,0.0
273654821,-0.016151877,0.004671564,0.0020821071,0.2,-0.4,0.065509275,0.0
273658758,-0.005477895,0.0006537187,0.003722333,0.2,-0.4,0.06550867,0.0
273662706,0.005775301,0.0019068104,0.003095495,0.2,-0.4,0.06550809,0.0
273666783,0.0109016225,0.004689795,0.0035186643,0.2,-0.4,0.06550748,0.0
273670719,-0.0057120593,0.003401198,0.0024213148,0.2,-0.4,0.06550693,0.0
273674747,-0.017992537,-0.0022231354,0.0025177451,0.2,-0.4,0.06550636,0.0
273678937,-0.011788593,-0.0031844394,0.004364625,0.2,-0.4,0.065505706,0.0
273682712,0.00054650195,-0.0008705921,0.004695348,0.2,-0.4,0.06550508,0.0
273686715,0.012502245,-0.0038026865,0.0024249388,0.2,-0.4,0.06550452,0.0
273690810,0.009474832,-0.00023056346,0.0018168653,0.2,-0.4,0.06550397,0.0
273694745,-0.0035638716,-0.0029859336,0.0015514067,0.2,-0.4,0.065503456,0.0
273698801,-0.016720802,0.0015074254,0.0029488374,0.2,-0.4,0.06550287,0.0
273702788,-0.00817035,-0.0019115745,0.004429559,0.2,-0.4,0.06550223,0.0
273706717,0.0045862286,-0.0005429524,0.0031988006,0.2,-0.4,0.065501645,0.0
273710723,0.015584629,-0.0005426294,0.0021557903,0.2,-0.4,0.065501094,0.0
273714840,-0.002214023,0.002985171,0.0036604577,0.2,-0.4,0.06550047,0.0
273718786,-0.012461752,-0.0029706713,0.005407279,0.2,-0.4,0.0654998,0.0
273722809,-0.010696278,-0.00088663725,0.0023383545,0.2,-0.4,0.06549924,0.0
273726802,0.005961097,-0.003800465,0.0032381448,0.2,-0.4,0.06549865,0.0
273730754,0.01768168,-0.0034656278,0.0014733442,0.2,-0.4,0.065498136,0.0
273734818,0.015738355,0.0031080968,-0.0007656897,0.2,-0.4,0.0654977,0.0
273738792,0.0016080758,-0.00014780601,-0.0014476585,0.2,-0.4,0.065497294,0.0
273742696,-0.014776889,0.0033165473,-0.0018267722,0.2,-0.4,0.065496914,0.0
273746787,-0.008206157,-0.0010807874,-0.0003729572,0.2,-0.4,0.06549645,0.0
273750735,0.0065699145,-0.0006916595,-0.0022943134,0.2,-0.4,0.06549609,0.0
273754782,0.014397586,-0.00044248195,-0.002672409,0.2,-0.4,0.06549573,0.0
273758845,-0.0037425947,0.0040041595,-0.0036057099,0.2,-0.4,0.06549541,0.0
273762716,-0.013857171,0.00026154937,-0.0027370844,0.2,-0.4,0.06549507,0.0
273766743,-0.014857624,0.003270857,-0.0018341434,0.2,-0.4,0.06549467,0.0
273770796,0.00046223728,-0.0012101359,-0.0018905838,0.2,-0.4,0.06549428,0.0
273774777,0.011679823,0.00079030823,-0.0040192814,0.2,-0.4,0.06549398,0.0
273778784,0.014210813,0.0033312365,-0.007272118,0.2,-0.4,0.06549381,0.0
273782809,0.00020543719,-0.0009166601,-0.0050824247,0.2,-0.4,0.06549355,0.0
273786720,-0.01273462,-0.0009698479,-0.0039933296,0.2,-0.4,0.06549325,0.0
273790697,-0.007311891,0.00017751066,-0.0021685464,0.2,-0.4,0.065492876,0.0
273794818,0.007820874,-0.0032132678,-0.0009701331,0.2,-0.4,0.06549244,0.0
273798846,0.015988186,-0.00054166967,-0.0025250404,0.2,-0.4,0.06549207,0.0
273802788,0.0030761429,0.0027935584,-0.001956301,0.2,-0.4,0.06549169,0.0
273806759,-0.008792546,-0.0017470128,-0.00080926873,0.2,-0.4,0.06549127,0.0
273810697,-0.012040824,0.0029523568,0.00026062608,0.2,-0.4,0.0654908,0.0
273814848,-0.0035950374,-0.0007903675,-0.0014455745,0.2,-0.4,0.06549037,0.0
273818845,0.01151344,-0.0012393057,-0.0019707824,0.2,-0.4,0.065489985,0.0
273822763,0.015496701,0.004630034,-8.4815314e-05,0.2,-0.4,0.06548954,0.0
273826790,-0.00021038903,0.002959526,-0.00055131473,0.2,-0.4,0.06548909,0.0
273830666,-0.01478219,-0.00066331757,-0.00094379106,0.2,-0.4,0.06548868,0.0
273834732,-0.010733126,0.0008377243,0.0011512463,0.2,-0.4,0.06548816,0.0
273838958,0.0077586696,-0.0024482235,0.0017813825,0.2,-0.4,0.06548759,0.0
273842738,0.015390744,-0.0008802123,0.00054634403,0.2,-0.4,0.06548713,0.0
273846810,0.010278517,0.0009741819,0.0010655138,0.2,-0.4,0.06548662,0.0
273850740,-0.0076297494,-0.0033543694,-0.00012691208,0.2,-0.4,0.06548617,0.0
273854741,-0.01675798,0.00040739996,0.0028423485,0.2,-0.4,0.06548559,0.0
273858863,-0.008285097,-0.00039628975,0.0038735026,0.2,-0.4,0.06548495,0.0
273862816,0.010268881,-0.00056027225,0.0018092352,0.2,-0.4,0.06548442,0.0
273866783,0.017914403,0.0005107288,0.0028196708,0.2,-0.4,0.065483846,0.0
273870746,0.002845329,0.0024237428,0.0004760715,0.2,-0.4,0.06548337,0.0
273874759,-0.010758001,-0.0024293852,0.0018111268,0.2,-0.4,0.06548283,0.0
273877890,-0.007188711,0.00023212412,0.0022760015,0.2,-0.4,0.0654824,0.0
273882752,0.005131926,-0.0011431393,0.0042583034,0.2,-0.4,0.06548163,0.0
273886836,0.016930427,-0.0016014962,0.0024106924,0.2,-0.4,0.06548106,0.0
273890689,0.012654603,0.0005233496,0.0013458682,0.2,-0.4,0.06548056,0.0
273894743,-0.0048645795,-0.0014935202,0.0038432844,0.2,-0.4,0.065479934,0.0
273897952,-0.016107121,-0.00094736624,0.0026186807,0.2,-0.4,0.06547948,0.0
273901934,-0.01378498,0.0013644046,0.0022578035,0.2,-0.4,0.06547893,0.0
273905927,0.009277506,-0.0030172197,0.00119633,0.2,-0.4,0.06547842,0.0
273910034,0.017644707,0.0024195411,-0.00015747308,0.2,-0.4,0.06547795,0.0
273913904,0.008220173,0.0029804418,0.0010169481,0.2,-0.4,0.06547747,0.0
273917929,-0.0062304568,0.00092732336,0.0006130807,0.2,-0.4,0.06547698,0.0
273921985,-0.008954924,0.0036672833,-0.0005096627,0.2,-0.4,0.06547653,0.0
273925912,0.0014366435,0.000109881745,0.0005749283,0.2,-0.4,0.06547605,0.0
273929981,0.015497427,0.0019124234,0.0010773223,0.2,-0.4,0.06547554,0.0
273934030,0.017552467,0.0055337055,0.00046541798,0.2,-0.4,0.065475054,0.0
273937907,0.0011541625,0.0038069263,5.7222787e-06,0.2,-0.4,0.06547461,0.0
273941922,-0.014704606,-0.0009243818,-0.0011513217,0.2,-0.4,0.06547419,0.0
273945945,-0.014140514,0.0031644502,-0.0014879764,0.2,-0.4,0.06547379,0.0
273949938,0.0052509615,-0.0028089671,-0.0029440492,0.2,-0.4,0.065473445,0.0
273953945,0.0165748,0.00037177373,-0.0029348768,0.2,-0.4,0.0654731,0.0
273957967,0.012565757,0.002079031,-0.0048445505,0.2,-0.4,0.065472834,0.0
273961929,-0.008680027,0.0007308882,-0.0017085841,0.2,-0.4,0.06547245,0.0
273965960,-0.013487257,-0.0012126053,-0.0026077111,0.2,-0.4,0.06547209,0.0
273969983,-0.006192622,0.001563811,-0.0017290609,0.2,-0.4,0.065471694,0.0
273973941,0.011617698,-0.0010939259,-0.0011335153,0.2,-0.4,0.065471284,0.0
273977955,0.015035242,0.00070926175,-0.0019141377,0.2,-0.4,0.0654709,0.0
273981933,0.004184202,0.0021125413,-0.00015399803,0.2,-0.4,0.06547044,0.0
273985884,-0.012817031,-0.0023125652,-0.0015282904,0.2,-0.4,0.06547005,0.0
273990017,-0.01869413,-0.0020487842,-0.002188859,0.2,-0.4,0.06546966,0.0
273993911,0.0027905875,-0.006855131,-0.0020196992,0.2,-0.4,0.06546929,0.0
273997902,0.015038865,-0.003872381,-0.0019932955,0.2,-0.4,0.06546891,0.0
274002020,0.014871549,-0.0031128386,-0.0021984454,0.2,-0.4,0.06546852,0.0
274005887,-0.0040885047,-0.001582928,0.0003422556,0.2,-0.4,0.06546806,0.0
274009954,-0.013109492,-0.000975746,-0.00027268904,0.2,-0.4,0.065467596,0.0
274014036,-0.009714102,0.0005549503,0.0009689017,0.2,-0.4,0.06546708,0.0
274017889,0.012222856,-0.0014202558,0.00026338728,0.2,-0.4,0.06546663,0.0
274021912,0.017372355,0.0019079327,0.00036838595,0.2,-0.4,0.06546615,0.0
274025983,0.004132361,0.000779595,-0.0011859485,0.2,-0.4,0.06546573,0.0
274029946,-0.015638115,0.0009321339,-0.0008767913,0.2,-0.4,0.06546531,0.0
274033924,-0.01792524,0.0026509725,0.0013012579,0.2,-0.4,0.065464795,0.0
274038031,-0.0011082962,-0.0029912507,0.0004191576,0.2,-0.4,0.0654643,0.0
274041919,0.013402782,-0.000537812,0.004424014,0.2,-0.4,0.065463684,0.0
274045886,0.011484321,-0.00032935082,0.0016240734,0.2,-0.4,0.06546316,0.0
274050021,-0.005235368,0.0034170365,0.0019954555,0.2,-0.4,0.065462604,0.0
274053937,-0.014782513,0.0016269559,0.004249637,0.2,-0.4,0.065461986,0.0
274057990,-0.014602233,0.003529976,0.004453345,0.2,-0.4,0.06546134,0.0
274061986,0.010888181,0.002342415,0.002876004,0.2,-0.4,0.065460764,0.0
274065906,0.019199608,0.0048893588,0.0006056632,0.2,-0.4,0.06546029,0.0
274070008,0.00830356,0.0010939832,0.0025734534,0.2,-0.4,0.065459706,0.0
274073984,-0.015111593,0.0010128183,0.0010597267,0.2,-0.4,0.06545921,0.0
274077946,-0.01735704,0.0024289852,0.00035705738,0.2,-0.4,0.06545874,0.0
274081994,-0.00074421195,0.00045188563,0.0019867679,0.2,-0.4,0.065458186,0.0
274085933,0.013161147,-0.00035736896,0.001252049,0.2,-0.4,0.06545768,0.0
274089882,0.01375475,-0.00036067166,-0.00045520737,0.2,-0.4,0.06545724,0.0
274093979,-0.0023667463,-0.00033517426,0.001654437,0.2,-0.4,0.065456696,0.0
274097996,-0.014454214,-0.0032797973,0.002062505,0.2,-0.4,0.06545615,0.0
274101974,-0.0149120595,0.0011698332,0.0029645865,0.2,-0.4,0.06545557,0.0
274105944,0.009410409,-0.0017169274,0.0013928944,0.2,-0.4,0.06545506,0.0
274109951,0.015666554,0.0010325316,-0.0014787717,0.2,-0.4,0.065454654,0.0
274113952,0.009843409,-4.2455387e-05,-0.002882985,0.2,-0.4,0.06545431,0.0
274117984,-0.013294216,0.00058526883,-0.0022029325,0.2,-0.4,0.06545393,0.0
274121984,-0.018151952,0.0009140542,-0.00082151755,0.2,-0.4,0.06545351,0.0
274125927,-0.007233839,-0.0036124245,-0.0016299665,0.2,-0.4,0.06545311,0.0
274129941,0.0120321065,-0.0019820519,-0.0014362843,0.2,-0.4,0.0654527,0.0
274133974,0.012055855,-0.0012256628,-0.0035611123,0.2,-0.4,0.06545238,0.0
274137950,0.0011587734,0.0022464965,-0.0029693458,0.2,-0.4,0.06545204,0.0
274141998,-0.01012123,-0.0024535186,-0.002843371,0.2,-0.4,0.06545169,0.0
274145942,-0.017458765,0.0015685471,-0.0035945587,0.2,-0.4,0.065451376,0.0
274149888,0.001869634,-0.0038334318,-0.0017464486,0.2,-0.4,0.06545099,0.0
274154005,0.012878476,0.000994363,-0.003568469,0.2,-0.4,0.06545066,0.0
274157939,0.012231955,-0.0026175217,-0.0016328051,0.2,-0.4,0.06545027,0.0
274161929,-0.010427707,0.0006541491,-0.000983581,0.2,-0.4,0.06544985,0.0
274166036,-0.013111413,-0.0023016618,-0.0013347053,0.2,-0.4,0.06544943,0.0
274169900,-0.010430698,0.0017712916,-0.0015048058,0.2,-0.4,0.065449044,0.0
274173552,0.011596574,-0.0052115927,-0.001027433,0.2,-0.4,0.06544866,0.0
274177181,0.019408586,-0.001758097,-0.0035959473,0.2,-0.4,0.065448366,0.0
274180308,0.018064076,-0.0027095578,-0.0042300676,0.2,-0.4,0.065448135,0.0
274185191,-0.005343988,0.002248391,-0.0046673696,0.2,-0.4,0.0654478,0.0
274189248,-0.013932709,0.00062263303,-0.0026498085,0.2,-0.4,0.065447435,0.0
274193553,-0.0043163057,-0.0017762275,-0.0011605712,0.2,-0.4,0.06544699,0.0
274197118,0.012988681,-0.002847405,-0.0025775626,0.2,-0.4,0.06544667,0.0
274201204,0.0149519425,-0.0010036004,-0.0024454314,0.2,-0.4,0.065446295,0.0
274205198,0.00039706565,0.003965435,-0.0028991625,0.2,-0.4,0.06544595,0.0
274209104,-0.011067197,-0.0002847042,-0.0032298965,0.2,-0.4,0.065445624,0.0
274213605,-0.019399434,0.00061216915,-0.00053291756,0.2,-0.4,0.065445125,0.0
274217161,0.004356457,-0.0034122556,-0.00094888214,0.2,-0.4,0.065444745,0.0
274221141,0.014390474,0.0040242174,-0.00047551322,0.2,-0.4,0.065444306,0.0
274225347,0.013201438,-0.002751736,-0.0019531876,0.2,-0.4,0.0654439,0.0
274229134,-0.014563051,0.0023817322,0.0009498035,0.2,-0.4,0.06544343,0.0
274233550,-0.020876873,0.0003010541,0.00029005663,0.2,-0.4,0.065442905,0.0
274237198,-0.013038829,0.0006460012,0.0002474711,0.2,-0.4,0.06544247,0.0
274241155,0.010804455,-7.3855044e-06,0.0016087273,0.2,-0.4,0.06544195,0.0
274245202,0.011571659,0.001125983,2.7326925e-05,0.2,-0.4,0.06544148,0.0
274249151,0.0017117611,0.0025583692,0.0009683263,0.2,-0.4,0.06544099,0.0
274253608,-0.01412293,0.00033015374,0.0020344364,0.2,-0.4,0.06544039,0.0
274257105,-0.020754937,0.0031920695,0.0030381652,0.2,-0.4,0.06543987,0.0
274261176,0.0058870725,-0.0014779301,0.003960817,0.2,-0.4,0.06543924,0.0
274265217,0.02188584,0.0038245085,0.0015974703,0.2,-0.4,0.06543871,0.0
274269149,0.02229617,-1.2178905e-05,0.002064867,0.2,-0.4,0.06543817,0.0
274273619,-0.005669265,0.0020059245,0.0028483835,0.2,-0.4,0.06543753,0.0
274277151,-0.011243829,-0.0029700452,0.0034962897,0.2,-0.4,0.065437004,0.0
274281088,-0.0055008726,-0.00095349224,0.0035043512,0.2,-0.4,0.06543641,0.0
274285216,0.016924929,-0.0013626617,0.0037695393,0.2,-0.4,0.065435775,0.0
274289142,0.017731745,-0.00036097894,0.00069218274,0.2,-0.4,0.0654353,0.0
274293509,0.0066079483,-0.0017242336,0.0018450837,0.2,-0.4,0.06543472,0.0
274297189,-0.013110852,0.0009095175,0.0020520927,0.2,-0.4,0.06543422,0.0
274301157,-0.021871101,0.00071694225,0.00080161775,0.2,-0.4,0.065433726,0.0
274305130,-0.0001587905,-0.0021158273,0.0022317977,0.2,-0.4,0.065433174,0.0
274309173,0.01616507,0.0023214356,0.0002144801,0.2,-0.4,0.0654327,0.0
274313532,0.01650411,-0.0023712758,-0.00080773764,0.2,-0.4,0.06543223,0.0
274317090,-0.0055698026,0.0029324489,-0.00090367935,0.2,-0.4,0.06543185,0.0
274321165,-0.014119146,-0.0019439941,0.0013975196,0.2,-0.4,0.06543132,0.0
274325167,-0.013984529,-0.0009737979,0.00066010567,0.2,-0.4,0.06543083,0.0
274329147,0.011153633,-0.004147634,0.0024962218,0.2,-0.4,0.06543027,0.0
274333620,0.012237236,0.00049577083,-0.0010269178,0.2,-0.4,0.0654298,0.0
274337094,0.010161802,-0.00089123205,-0.00010635215,0.2,-0.4,0.065429404,0.0
274341109,-0.0067620706,0.0009899847,-0.00057546777,0.2,-0.4,0.065428965,0.0
274345186,-0.014314753,0.0027575647,-0.0016216858,0.2,-0.4,0.06542856,0.0
274349140,0.0016114805,-0.0014290245,0.00015139682,0.2,-0.4,0.0654281,0.0
274353519,0.017830227,0.0009493154,-0.0020977175,0.2,-0.4,0.06542769,0.0
274357230,0.017554982,6.258406e-05,-0.0009067126,0.2,-0.4,0.065427296,0.0
274361146,0.0012175217,0.0037470753,-0.0012028606,0.2,-0.4,0.06542689,0.0
274365128,-0.008070271,-0.0017200123,-0.0012225516,0.2,-0.4,0.065426484,0.0
274369174,-0.012367807,0.0005051509,-0.0012426199,0.2,-0.4,0.06542607,0.0
274373544,0.010745675,-0.00046419818,-0.0018030283,0.2,-0.4,0.06542564,0.0
274377099,0.015700117,0.0024271696,-0.0035271763,0.2,-0.4,0.06542536,0.0
274381256,0.015943244,-0.0002646129,-0.0017961115,0.2,-0.4,0.06542496,0.0
274385163,-0.009048173,0.0018803545,-0.00096015295,0.2,-0.4,0.06542455,0.0
274389123,-0.018513141,-0.0012452552,-0.0015669203,0.2,-0.4,0.06542415,0.0
274401106,0.011227513,-0.00054317975,-0.001475991,0.2,-0.4,0.06542287,0.0
274405199,-0.0010531675,0.0017130024,-0.0011353348,0.2,-0.4,0.065422446,0.0
274409154,-0.013240896,-0.0031283428,-5.1950512e-05,0.2,-0.4,0.06542199,0.0
274413570,-0.01725198,-0.0008506649,0.0005879236,0.2,-0.4,0.065421455,0.0
274417166,0.00580325,-0.0027960232,0.0016313144,0.2,-0.4,0.06542098,0.0
274421126,0.01675447,0.003324695,0.0007497084,0.2,-0.4,0.06542049,0.0
274425130,0.01741386,-0.0023549257,0.0021011967,0.2,-0.4,0.06541995,0.0
274429195,-0.008829279,0.002728974,0.0013730506,0.2,-0.4,0.06541943,0.0
274433400,-0.020068718,-0.0031274748,0.0008576447,0.2,-0.4,0.06541891,0.0
274437117,-0.009555559,-0.0023475366,0.0026810195,0.2,-0.4,0.06541838,0.0
274441238,0.014110058,-0.0016662537,0.0034941984,0.2,-0.4,0.06541776,0.0
274445144,0.01645022,-0.00256575,0.00047404095,0.2,-0.4,0.06541729,0.0
274449110,0.011047667,-0.0025723646,0.0013115361,0.2,-0.4,0.06541678,0.0
274453495,-0.0054688617,-0.0015747865,0.0033878195,0.2,-0.4,0.06541613,0.0
274456343,-0.017569741,-0.0011893047,0.0016498042,0.2,-0.4,0.065415755,0.0
274460350,-0.0017105453,-0.00039850344,0.0030361474,0.2,-0.4,0.065415174,0.0
274463575,0.023119068,0.00090269255,0.0026366247,0.2,-0.4,0.06541472,0.0
274468462,0.02230883,0.00033833983,9.464394e-05,0.2,-0.4,0.06541415,0.0
274472331,0.0003025988,0.002495276,0.00092728494,0.2,-0.4,0.065413676,0.0
274475595,-0.01280986,-0.0031323582,-0.00061365945,0.2,-0.4,0.06541332,0.0
274480390,-0.017542725,-0.003015353,0.00077846827,0.2,-0.4,0.06541273,0.0
274483567,0.004826432,-0.005213713,0.0012166381,0.2,-0.4,0.06541233,0.0
274488549,0.013186557,0.00045694225,-6.980961e-06,0.2,-0.4,0.06541177,0.0
274492337,0.013303779,-0.0020730835,-0.0019376576,0.2,-0.4,0.065411404,0.0
274496329,-0.008787249,0.004414692,-0.0024625894,0.2,-0.4,0.065411046,0.0
274500422,-0.020787442,0.00023363053,-0.002604568,0.2,-0.4,0.06541068,0.0
274503579,-0.010064997,0.0021461933,-0.0008940457,0.2,-0.4,0.065410346,0.0
274508406,0.014167573,0.0026124385,-0.0030365654,0.2,-0.4,0.065409936,0.0
274512415,0.015000282,0.0019695465,-0.003953625,0.2,-0.4,0.06540964,0.0
274516335,-0.00199999,0.004009437,-0.002937919,0.2,-0.4,0.0654093,0.0
274520313,-0.016489938,-0.00050142326,-0.0035315005,0.2,-0.4,0.06540899,0.0
274523630,-0.021143673,-0.00018668914,-0.002296924,0.2,-0.4,0.065408684,0.0
274528545,-0.0015875781,-0.0014744058,-0.0010900698,0.2,-0.4,0.06540818,0.0
274532276,0.008457416,0.0031598504,-0.002293794,0.2,-0.4,0.06540783,0.0
274536386,0.0107590975,0.00059578754,-0.001482341,0.2,-0.4,0.06540742,0.0
274540343,-0.01035074,0.006563958,-0.0016483711,0.2,-0.4,0.06540703,0.0
274544375,-0.019137736,0.0021241421,-0.0019095731,0.2,-0.4,0.06540664,0.0
274548563,-0.009032834,0.0015699875,0.0006576149,0.2,-0.4,0.06540613,0.0
274552288,0.018510194,0.0028369604,-4.921609e-05,0.2,-0.4,0.065405704,0.0
274556343,0.017920054,0.00050016865,-0.0023755536,0.2,-0.4,0.06540533,0.0
274560373,0.0044475785,0.0003389056,-0.0009849207,0.2,-0.4,0.06540491,0.0
274564407,-0.015603032,-0.0011085286,0.0014826036,0.2,-0.4,0.065404385,0.0
274568399,-0.020229924,-0.00010182825,0.0008246411,0.2,-0.4,0.06540389,0.0
274572364,-0.004180157,-0.0017652265,0.0029027527,0.2,-0.4,0.06540332,0.0
274576334,0.008533805,-0.0015384133,0.00041643993,0.2,-0.4,0.06540284,0.0
274580296,0.009438442,-0.0027378865,-0.00095384155,0.2,-0.4,0.065402426,0.0
274584407,-0.009668773,0.0042264755,0.0015529883,0.2,-0.4,0.06540189,0.0
274588403,-0.018962849,-0.0016917875,0.0004568979,0.2,-0.4,0.06540141,0.0
274592323,-0.010396919,0.0029663928,0.00091195176,0.2,-0.4,0.06540092,0.0
274596395,0.014311061,0.00030932366,0.0013814131,0.2,-0.4,0.06540039,0.0
274600316,0.015175493,2.940686e-05,0.0013735979,0.2,-0.4,0.065399885,0.0
274604371,0.008211224,-0.0014991642,0.0016613594,0.2,-0.4,0.06539935,0.0
274608558,-0.010993069,-0.0040094797,0.0030040876,0.2,-0.4,0.06539874,0.0
274612385,-0.020943236,-0.0030897846,0.0032951625,0.2,-0.4,0.06539817,0.0
274616363,-0.0055331234,-0.0042759646,0.003541,0.2,-0.4,0.06539757,0.0
274620390,0.009832045,7.965113e-05,0.0016115673,0.2,-0.4,0.06539704,0.0
274624386,0.013838659,-0.0011440136,0.0011491701,0.2,-0.4,0.06539653,0.0
274628416,-0.0033359202,0.0052480907,0.0022314796,0.2,-0.4,0.06539597,0.0
274632398,-0.013430786,-0.00012297172,0.00013132213,0.2,-0.4,0.06539551,0.0
274636395,-0.010195076,0.0023215422,7.48038e-05,0.2,-0.4,0.06539505,0.0
274640311,0.01415335,-0.000694683,0.0015988287,0.2,-0.4,0.06539453,0.0
274644403,0.017679786,-0.00014677807,-0.0019738262,0.2,-0.4,0.06539413,0.0
274648430,0.015294913,-0.0016220859,-0.0005236623,0.2,-0.4,0.065393694,0.0
274652364,-0.0066753724,0.0004896935,0.0008017962,0.2,-0.4,0.06539321,0.0
274656455,-0.020100268,-0.0029582572,0.0007516955,0.2,-0.4,0.0653927,0.0
274660332,-0.009933464,0.0010739074,-0.0005514701,0.2,-0.4,0.06539228,0.0
274664348,0.010425191,0.0056020636,-0.0020590168,0.2,-0.4,0.0653919,0.0
274668567,0.014343103,0.0026999353,-0.004491131,0.2,-0.4,0.0653916,0.0
274672350,-0.0020163008,0.0073171984,-0.0026564354,0.2,-0.4,0.065391265,0.0
274676379,-0.017150443,0.00026499003,-0.0015489551,0.2,-0.4,0.06539086,0.0
274680358,-0.016429007,0.002953206,-0.0020733504,0.2,-0.4,0.06539048,0.0
274684321,0.007570063,-0.0009913112,-0.0026080543,0.2,-0.4,0.065390125,0.0
274688405,0.013825262,-0.0011262865,-0.003220186,0.2,-0.4,0.06538978,0.0
274692424,0.015208674,-0.0058725188,-0.002284983,0.2,-0.4,0.06538941,0.0
274696400,-0.0066757845,-0.00092507625,-0.0021644537,0.2,-0.4,0.06538904,0.0
274700274,-0.021259885,-0.006583034,-0.0045746756,0.2,-0.4,0.06538877,0.0
274704378,-0.014450436,-0.002474141,-0.0021062142,0.2,-0.4,0.06538838,0.0
274708425,0.006638418,-0.0004590266,-0.00124169,0.2,-0.4,0.065387964,0.0
274712320,0.011324028,-0.0007784743,-0.0034878345,0.2,-0.4,0.06538765,0.0
274716416,-0.00062116794,0.0029528846,-0.0019597544,0.2,-0.4,0.06538726,0.0
274720278,-0.017852718,0.0014185284,-0.0015727805,0.2,-0.4,0.06538687,0.0
274724339,-0.018399531,0.0012045961,-0.0035903242,0.2,-0.4,0.06538654,0.0
274728521,0.00038112095,-0.00021186506,-0.00075790274,0.2,-0.4,0.06538609,0.0
274732327,0.010820557,-0.00086835714,-0.00062448886,0.2,-0.4,0.06538567,0.0
274736355,0.010244809,-0.0020510505,-0.0014832239,0.2,-0.4,0.06538526,0.0
274740377,-0.010796614,0.0016514044,-0.0013082501,0.2,-0.4,0.06538484,0.0
274744328,-0.021958774,-0.0014991183,-0.00015695742,0.2,-0.4,0.06538439,0.0
274748384,-0.015407003,0.00095268234,0.0014595604,0.2,-0.4,0.06538386,0.0
274752425,0.009064566,-0.0019831867,0.0025391192,0.2,-0.4,0.065383285,0.0
274756389,0.01229628,-0.0006631939,0.001210822,0.2,-0.4,0.06538278,0.0
274760321,0.002848079,0.003418253,0.003210038,0.2,-0.4,0.0653822,0.0
274763628,-0.012083663,0.0062097423,0.002622957,0.2,-0.4,0.06538173,0.0
274768435,-0.016743248,0.0020660667,0.0005695629,0.2,-0.4,0.06538114,0.0
274772333,-0.0013328069,0.0021366994,0.004525401,0.2,-0.4,0.065380506,0.0
274776417,0.018427003,0.002871431,0.0029196618,0.2,-0.4,0.06537991,0.0
274780360,0.018782396,-0.002025499,0.0019964487,0.2,-0.4,0.065379374,0.0
274783606,0.001399341,-0.000120448065,0.0023064148,0.2,-0.4,0.06537892,0.0
274787545,-0.013181241,-0.0013392273,0.0028187716,0.2,-0.4,0.06537835,0.0
274791572,-0.013827244,0.0013700892,0.0021385625,0.2,-0.4,0.065377794,0.0
274795526,0.00500599,0.000249848,0.0045570424,0.2,-0.4,0.06537715,0.0
274798834,0.014267115,-9.008148e-05,0.0032056866,0.2,-0.4,0.06537666,0.0
274803564,0.014374904,-0.003396376,0.001556697,0.2,-0.4,0.065376036,0.0
274807500,-0.006526004,0.005840465,0.0010834807,0.2,-0.4,0.06537554,0.0
274811593,-0.017339285,0.00051091134,0.0018577432,0.2,-0.4,0.065374985,0.0
274815609,-0.009536564,0.0046699527,0.0007104342,0.2,-0.4,0.065374486,0.0
274818750,0.014122751,0.0010755016,0.000707005,0.2,-0.4,0.0653741,0.0
274823789,0.015816327,-0.00038377964,-0.00092239876,0.2,-0.4,0.06537356,0.0
274827549,0.0036587957,-0.0004746634,-0.0016575529,0.2,-0.4,0.06537319,0.0
274831517,-0.014538981,-0.003086851,-0.002423212,0.2,-0.4,0.065372825,0.0
274835578,-0.014056014,-0.0039781816,-0.00220996,0.2,-0.4,0.065372445,0.0
274839549,0.001503244,-0.0037611579,-6.217003e-05,0.2,-0.4,0.06537198,0.0
274843621,0.013768585,-0.0020795278,-0.0046111196,0.2,-0.4,0.0653717,0.0
274847589,0.0143831,-0.0018240497,-0.004115045,0.2,-0.4,0.0653714,0.0
274851516,-0.003167077,0.003797025,-0.002442757,0.2,-0.4,0.065371044,0.0
274855541,-0.016714226,-0.0015326426,-0.0021615778,0.2,-0.4,0.065370664,0.0
274859639,-0.01251694,0.0016766735,-0.002517995,0.2,-0.4,0.06537029,0.0
274863750,0.012224073,0.001580267,-0.0012628979,0.2,-0.4,0.06536987,0.0
274867524,0.016058788,-0.0009548136,-0.003722606,0.2,-0.4,0.06536957,0.0
274871612,0.0073597655,-0.0020565242,-0.0020716134,0.2,-0.4,0.06536918,0.0
274875473,-0.0102147125,-0.00014162867,-0.0026705926,0.2,-0.4,0.06536884,0.0
274879524,-0.014320381,-0.003134009,-0.0045472747,0.2,-0.4,0.06536855,0.0
274883759,-0.0033103148,-0.0019456516,-0.0008914315,0.2,-0.4,0.06536809,0.0
274887605,0.012927849,5.3416705e-05,0.00026335136,0.2,-0.4,0.06536764,0.0
274891558,0.017396852,0.00037153042,-0.0022012135,0.2,-0.4,0.06536727,0.0
274895645,0.0014426771,0.0036593815,-0.0016098744,0.2,-0.4,0.06536686,0.0
274899529,-0.016934715,-0.0024323165,-3.382651e-05,0.2,-0.4,0.06536641,0.0
274903576,-0.0130276205,0.0013719405,0.000341942,0.2,-0.4,0.065365925,0.0
274907625,0.0109352395,0.00016770861,0.00022470846,0.2,-0.4,0.06536545,0.0
274911747,0.014904371,-0.0012938206,0.00064537744,0.2,-0.4,0.06536494,0.0
274915481,0.011663811,-0.0005475441,-0.00049496576,0.2,-0.4,0.065364525,0.0
274919633,-0.009378364,0.00029764394,0.0008458778,0.2,-0.4,0.06536401,0.0
274923589,-0.013151141,-0.0034051775,0.0009098614,0.2,-0.4,0.06536351,0.0
274927533,-0.0047631846,0.00203969,0.0026524514,0.2,-0.4,0.065362945,0.0
274931579,0.017597372,0.00031568273,0.0020670462,0.2,-0.4,0.065362394,0.0
274935614,0.018166984,-0.0016219736,-0.0001397893,0.2,-0.4,0.06536193,0.0
274939585,0.005137848,0.002016507,0.0016855365,0.2,-0.4,0.0653614,0.0
274943566,-0.0147871785,0.0011573784,0.000950536,0.2,-0.4,0.065360904,0.0
274947619,-0.010850651,2.6132446e-05,0.0030738718,0.2,-0.4,0.06536031,0.0
274951612,0.009050614,0.00051337644,0.002831751,0.2,-0.4,0.065359734,0.0
274955513,0.0168521,-0.00012707338,0.0027913416,0.2,-0.4,0.065359175,0.0
274959610,0.011362953,-0.0018003361,0.003446391,0.2,-0.4,0.06535856,0.0
274963576,-0.006999177,0.002343034,0.0027074423,0.2,-0.4,0.06535799,0.0
274967589,-0.014962162,-0.001356774,0.0038328157,0.2,-0.4,0.06535737,0.0
274971608,-0.0071171816,-0.00030853983,0.0039956635,0.2,-0.4,0.06535675,0.0
274975480,0.01136779,-0.0003115696,0.004190469,0.2,-0.4,0.065356135,0.0
274979524,0.012578168,-0.002022582,0.002087755,0.2,-0.4,0.065355584,0.0
274983646,0.005554856,9.72877e-05,0.0026740662,0.2,-0.4,0.065354995,0.0
274987602,-0.014491029,0.0010215943,0.0013836804,0.2,-0.4,0.06535448,0.0
274991534,-0.012660097,-0.0013859902,0.0028184662,0.2,-0.4,0.065353915,0.0
274995920,0.0050506517,0.00056656706,0.0019139588,0.2,-0.4,0.06535332,0.0
274999507,0.0164545,-3.0981726e-05,0.0006612143,0.2,-0.4,0.06535288,0.0
275003592,0.012924871,-0.0029958682,0.0011448618,0.2,-0.4,0.06535236,0.0
275007624,0.00024908734,0.0016538375,0.00051488815,0.2,-0.4,0.06535187,0.0
275011621,-0.0102689685,-0.0030838377,0.001493165,0.2,-0.4,0.06535135,0.0
275015520,-0.007428323,0.0008422327,0.0012123103,0.2,-0.4,0.06535085,0.0
275019590,0.013395052,-0.0015171777,-0.00077167654,0.2,-0.4,0.06535041,0.0
275023477,0.017361337,-0.0010802727,-0.0022975653,0.2,-0.4,0.065350056,0.0
275027556,0.0096747745,-0.0014165303,-0.000119823846,0.2,-0.4,0.06534959,0.0
275031776,-0.011411535,0.0007487261,-0.0001451635,0.2,-0.4,0.0653491,0.0
275035532,-0.011713281,-0.0022511478,-0.0016212671,0.2,-0.4,0.06534873,0.0
275039549,0.00074716937,0.0013408163,-0.0015962,0.2,-0.4,0.06534833,0.0
275043609,0.014737114,-0.00036524452,-0.004162321,0.2,-0.4,0.06534803,0.0
275047581,0.012135129,-0.0032148967,-0.0034383095,0.2,-0.4,0.06534771,0.0
275051546,0.002636712,0.003451426,-0.004023125,0.2,-0.4,0.06534741,0.0
275055630,-0.017001946,-0.0027113152,-0.002691366,0.2,-0.4,0.065347046,0.0
275059582,-0.014914177,-0.0010981322,-0.0028680095,0.2,-0.4,0.0653467,0.0
275063495,0.0060922476,-0.003447615,-0.004104994,0.2,-0.4,0.06534641,0.0
275067629,0.014516098,-0.0034430982,-0.0041354946,0.2,-0.4,0.06534611,0.0
275074693,-0.008752223,0.005400397,-0.0031290413,0.2,-0.4,0.06534551,0.0
275078037,-0.013553274,-0.0013569987,-0.0032086098,0.2,-0.4,0.065345235,0.0
275082723,-0.009773512,0.0045067547,-0.003461965,0.2,-0.4,0.065344855,0.0
275086724,0.0122847,0.0029223175,-0.004873204,0.2,-0.4,0.06534459,0.0
275090776,0.014477062,0.0006833101,-0.005255571,0.2,-0.4,0.06534433,0.0
275094756,0.0058687613,0.0011316789,-0.0021385308,0.2,-0.4,0.06534396,0.0
275098800,-0.018063959,0.00020412786,-0.0012348248,0.2,-0.4,0.065343544,0.0
275102832,-0.017297255,-0.0017959364,-0.0014313493,0.2,-0.4,0.065343134,0.0
275106725,-0.0012258976,0.0005758089,-0.0021640398,0.2,-0.4,0.06534277,0.0
275110810,0.014034716,-0.002804436,-0.0011784481,0.2,-0.4,0.065342344,0.0
275114753,0.011666498,-0.00076306774,0.0014134261,0.2,-0.4,0.06534183,0.0
275118772,-0.00092414673,0.0006322318,7.657576e-05,0.2,-0.4,0.06534136,0.0
275122800,-0.011804085,-0.0015472436,0.00038253973,0.2,-0.4,0.06534088,0.0
275126805,-0.011581037,0.0024311477,0.0020625913,0.2,-0.4,0.06534033,0.0
275130677,0.008660516,0.0036128643,0.0015366203,0.2,-0.4,0.065339826,0.0
275134772,0.013463531,-0.0007420095,0.0013478121,0.2,-0.4,0.0653393,0.0
275138804,0.0061575873,1.8724008e-05,0.0045928075,0.2,-0.4,0.06533865,0.0
275142729,-0.017948527,0.0010376929,0.004077669,0.2,-0.4,0.06533804,0.0
275146814,-0.017160846,-0.003376781,0.0028584942,0.2,-0.4,0.06533745,0.0
275150679,-0.0046691094,0.0022380147,0.0025429667,0.2,-0.4,0.065336905,0.0
275154737,0.0123226475,-0.0010468491,0.0040999656,0.2,-0.4,0.06533627,0.0
275158993,0.013483109,0.00034994853,0.0030616752,0.2,-0.4,0.065335646,0.0
275162770,0.0033806274,0.002024686,0.004216377,0.2,-0.4,0.06533505,0.0
275166757,-0.012471724,0.00091058854,0.0054750643,0.2,-0.4,0.06533437,0.0
275170781,-0.010174578,0.0037297818,0.0044409754,0.2,-0.4,0.065333724,0.0
275174709,0.009178802,0.0034930103,0.004106648,0.2,-0.4,0.065333106,0.0
275178796,0.015225035,-0.001305955,0.0021349886,0.2,-0.4,0.06533255,0.0
275182796,0.007543605,-0.0044771032,0.0024383103,0.2,-0.4,0.06533199,0.0
275186745,-0.011385743,0.0012603349,0.0010197926,0.2,-0.4,0.06533149,0.0
275190688,-0.012406531,-0.003520342,0.0005086336,0.2,-0.4,0.06533101,0.0
275194780,-0.006923576,0.0021148468,0.0015368946,0.2,-0.4,0.065330476,0.0
275198785,0.010210425,0.001279652,0.0007331404,0.2,-0.4,0.065329984,0.0
275202745,0.007421313,-0.00026668917,0.0011354159,0.2,-0.4,0.06532948,0.0
275206820,0.0013538967,0.0012639668,-0.0007151765,0.2,-0.4,0.06532904,0.0
275210695,-0.019350361,-0.0009428319,-0.00061364594,0.2,-0.4,0.06532861,0.0
275214735,-0.015003415,-0.0011977667,-0.0007421466,0.2,-0.4,0.06532817,0.0
275218845,-0.00040071923,0.0003879692,-0.0008649562,0.2,-0.4,0.065327734,0.0
275222753,0.00896664,-0.001451264,-0.001206755,0.2,-0.4,0.065327324,0.0
275226775,0.0059054215,-0.0014164055,0.00013950723,0.2,-0.4,0.065326855,0.0
275230785,-0.0124621615,0.0027444314,-0.0011374659,0.2,-0.4,0.06532644,0.0
275234717,-0.01727563,-0.0058443407,-0.0013840764,0.2,-0.4,0.065326035,0.0
275238707,-0.011835059,0.0022355267,-0.00047395722,0.2,-0.4,0.06532559,0.0
275242811,0.0079013845,-0.0016449101,-0.0024732451,0.2,-0.4,0.065325215,0.0
275246764,0.010246345,-0.0011000095,-0.0027517737,0.2,-0.4,0.065324865,0.0
275250723,0.009278602,-0.0007778215,-0.0021366237,0.2,-0.4,0.06532449,0.0
275254768,-0.01220656,0.00033348403,-0.0022799363,0.2,-0.4,0.06532411,0.0
275258725,-0.012679873,-0.0017194443,-0.0037721894,0.2,-0.4,0.0653238,0.0
275262850,-0.001701042,0.0009138477,-0.0030254538,0.2,-0.4,0.06532344,0.0
275266789,0.013605696,-0.0017384412,-0.003207469,0.2,-0.4,0.06532311,0.0
275270768,0.009389539,-0.0008820208,-0.003305996,0.2,-0.4,0.06532278,0.0
275274826,-0.005015923,0.0004899545,-0.005651529,0.2,-0.4,0.06532253,0.0
275278800,-0.014537764,-0.0056585395,-0.004633099,0.2,-0.4,0.06532226,0.0
275282728,-0.011643366,0.00053627463,-0.0025799763,0.2,-0.4,0.0653219,0.0
275286739,0.007946245,-0.0020216662,-0.0020508836,0.2,-0.4,0.06532151,0.0
275290806,0.009180773,0.00035967364,-0.0049123443,0.2,-0.4,0.06532124,0.0
275294762,0.0058750613,-0.0015308697,-0.0032684542,0.2,-0.4,0.06532091,0.0
275298769,-0.017247466,0.0011933263,-0.0035568434,0.2,-0.4,0.06532059,0.0
275302778,-0.016670525,-0.00056606985,-0.0020339107,0.2,-0.4,0.0653202,0.0
275306752,-0.004704889,0.0042350073,-0.0013897646,0.2,-0.4,0.06531979,0.0
275310747,0.014218394,-0.0022756686,0.00011065454,0.2,-0.4,0.06531932,0.0
275314818,0.008879945,-0.0010548937,0.0018948795,0.2,-0.4,0.06531877,0.0
275318720,-0.0024429983,0.0007813162,0.0016615711,0.2,-0.4,0.06531825,0.0
275322731,-0.011032337,-0.0015914885,0.0013565685,0.2,-0.4,0.06531773,0.0
275326785,-0.008513579,0.0015657216,0.0036227107,0.2,-0.4,0.06531711,0.0
275330769,0.009875724,-0.00041966361,0.004476541,0.2,-0.4,0.06531647,0.0
275334766,0.0151223,0.0008374903,0.003736104,0.2,-0.4,0.06531586,0.0
275338793,0.010304948,0.00024866138,0.0040622633,0.2,-0.4,0.065315224,0.0
275342746,-0.01397834,0.0016781989,0.003227739,0.2,-0.4,0.065314636,0.0
275346685,-0.013409805,-0.0053273155,0.0034988797,0.2,-0.4,0.06531404,0.0
275350816,-0.0019407328,0.0038650236,0.0043012295,0.2,-0.4,0.06531338,0.0
275354769,0.018084222,-0.0037629642,0.00054682785,0.2,-0.4,0.06531289,0.0
275358974,0.012082139,-0.0010647583,0.00020283539,0.2,-0.4,0.06531239,0.0
275362750,0.0072933305,0.0017064962,0.00054582785,0.2,-0.4,0.06531193,0.0
275366752,-0.011014032,-0.0014946394,0.0013658982,0.2,-0.4,0.06531141,0.0
275370793,-0.014630844,0.00017063564,0.0026805138,0.2,-0.4,0.06531083,0.0
275374784,-2.0536594e-05,-0.0021600013,0.0019403268,0.2,-0.4,0.065310284,0.0
275378775,0.009864613,-0.004965988,0.0027990662,0.2,-0.4,0.06530971,0.0
275382759,0.0054952553,-0.0020904124,0.0015080939,0.2,-0.4,0.06530919,0.0
275386703,-0.013609845,0.0019005721,0.00043584098,0.2,-0.4,0.06530871,0.0
275390749,-0.012920187,-0.0049105575,-0.00034794485,0.2,-0.4,0.06530826,0.0
275394029,-0.010464429,0.00369561,0.001641389,0.2,-0.4,0.06530782,0.0
275397964,0.005790823,0.0006098341,0.002894734,0.2,-0.4,0.065307245,0.0
275401965,0.01206536,0.0021049646,-0.00013060804,0.2,-0.4,0.06530678,0.0
275405940,0.014446419,-0.00045357586,-0.0022340007,0.2,-0.4,0.06530641,0.0
275409931,-0.00964815,0.004075108,-0.0003737692,0.2,-0.4,0.06530596,0.0
275413967,-0.012915021,-0.0018079244,-0.0005808007,0.2,-0.4,0.065305516,0.0
275418015,-0.0065847775,0.0028640032,4.8488786e-05,0.2,-0.4,0.06530504,0.0
275421971,0.01275228,-0.0016926171,-0.0015084698,0.2,-0.4,0.06530464,0.0
275425907,0.0072335186,-0.0015940048,-0.0011111547,0.2,-0.4,0.06530422,0.0
275429955,0.0004418292,-0.00012389058,-0.0011584274,0.2,-0.4,0.065303795,0.0
275434009,-0.012333172,-0.0016405154,-0.002272746,0.2,-0.4,0.065303415,0.0
275437958,-0.011391219,0.003242168,-0.0031383839,0.2,-0.4,0.06530308,0.0
275441978,0.002298017,0.0013885684,-0.0019910254,0.2,-0.4,0.06530269,0.0
275445953,0.013464913,0.00070706895,-0.0011960946,0.2,-0.4,0.065302275,0.0
275449898,0.011590119,-0.0008828393,-0.0021874579,0.2,-0.4,0.0653019,0.0
275453938,-0.011517255,0.0029398971,-0.002824666,0.2,-0.4,0.065301545,0.0
275457977,-0.01491366,-0.004687725,-0.0029386654,0.2,-0.4,0.065301195,0.0
275461960,-0.01104431,0.0017552311,-0.0006809782,0.2,-0.4,0.065300755,0.0
275466028,0.0060843457,-0.0039772578,-0.0006732802,0.2,-0.4,0.06530031,0.0
275469906,0.004385859,-0.0015016664,-0.0019144188,0.2,-0.4,0.06529993,0.0
275473918,0.003781861,0.00134265,-0.0036527317,0.2,-0.4,0.06529961,0.0
275478034,-0.013083266,0.00046576292,-0.0011174732,0.2,-0.4,0.065299176,0.0
275481928,-0.011923343,0.0032115905,-0.0001647909,0.2,-0.4,0.06529873,0.0
275485939,0.0005999743,0.0036450368,-0.00012284756,0.2,-0.4,0.06529827,0.0
275489954,0.014166577,0.00032286416,0.00072878174,0.2,-0.4,0.06529777,0.0
275493906,0.012145748,-0.002545793,0.0012383758,0.2,-0.4,0.06529726,0.0
275497952,-0.005427316,0.002628992,0.00062273565,0.2,-0.4,0.06529676,0.0
275502050,-0.012872865,-0.0026724353,0.0010363291,0.2,-0.4,0.06529624,0.0
275505941,-0.008211339,0.0027347882,-0.00019023678,0.2,-0.4,0.06529579,0.0
275509917,0.009286915,-0.002858185,0.0006511472,0.2,-0.4,0.0652953,0.0
275513941,0.008276323,0.00010989315,0.0006087155,0.2,-0.4,0.06529481,0.0
275517916,0.0073233843,-0.00073656964,0.002825603,0.2,-0.4,0.065294236,0.0
275521961,-0.009822658,0.00037029863,0.003836572,0.2,-0.4,0.06529361,0.0
275526141,-0.011280359,-0.0018729748,-0.00011543365,0.2,-0.4,0.06529313,0.0
275529887,0.0007692347,0.0008831003,0.0017128149,0.2,-0.4,0.06529262,0.0
275533904,0.0155747235,-0.0013805886,0.0003474115,0.2,-0.4,0.065292135,0.0
275537953,0.010571871,0.0014963864,0.0019295092,0.2,-0.4,0.06529158,0.0
275541940,-0.0057664076,-0.0007507396,0.003079259,0.2,-0.4,0.065291,0.0
275545967,-0.016085785,-0.0027052583,0.0021344144,0.2,-0.4,0.065290436,0.0
275550032,-0.0134301875,0.0064636613,0.0016918499,0.2,-0.4,0.06528989,0.0
275553900,0.0032219633,0.0006557234,0.0013439278,0.2,-0.4,0.065289386,0.0
275557943,0.0077707544,0.0012607521,0.0017558057,0.2,-0.4,0.06528884,0.0
275562032,0.009518193,-0.00012119464,0.0020079515,0.2,-0.4,0.06528828,0.0
275565941,-0.010460034,0.0030977766,0.0021054496,0.2,-0.4,0.06528775,0.0
275569985,-0.008902671,-0.0035977953,0.00026775518,0.2,-0.4,0.06528726,0.0
275573985,-0.0022419328,-0.0002434529,-0.0008969866,0.2,-0.4,0.06528683,0.0
275577909,0.015182313,-0.0021035606,0.0006608172,0.2,-0.4,0.065286346,0.0
275581917,0.011809882,-0.0015314111,0.001223804,0.2,-0.4,0.06528583,0.0
275586018,4.3556094e-05,-0.0016986046,-9.464251e-05,0.2,-0.4,0.065285355,0.0
275589918,-0.0107862335,-0.0040192604,-0.0001914886,0.2,-0.4,0.06528491,0.0
275593914,-0.011619231,0.0023217374,-0.0014330012,0.2,-0.4,0.0652845,0.0
275597985,0.0014721437,-0.0030693915,-0.0018631497,0.2,-0.4,0.065284096,0.0
275601899,0.012134165,0.00024625496,-0.0013307452,0.2,-0.4,0.06528369,0.0
275605951,0.012179844,0.00081612647,-0.0040047965,0.2,-0.4,0.06528338,0.0
275610034,-0.01064338,0.00081936223,-0.0036409874,0.2,-0.4,0.06528305,0.0
275613866,-0.0101217935,-0.0047357404,-0.0014636512,0.2,-0.4,0.06528266,0.0
275617952,-0.0043483684,0.0045175613,-0.0036297862,0.2,-0.4,0.06528233,0.0
275622159,0.014284654,-0.0020590657,-0.0036068163,0.2,-0.4,0.06528199,0.0
275625925,0.007973016,-0.00024267955,-0.003865325,0.2,-0.4,0.06528169,0.0
275629966,0.00024236366,-0.0006616401,-0.002649538,0.2,-0.4,0.065281324,0.0
275633998,-0.01291218,-0.0014214877,-0.00047580863,0.2,-0.4,0.06528087,0.0
275637915,-0.01452512,0.0018876967,0.0003164839,0.2,-0.4,0.0652804,0.0
275641923,-0.0023620497,9.2634116e-05,0.0006933107,0.2,-0.4,0.0652799,0.0
275646005,0.009707857,0.0006575623,-0.0010798825,0.2,-0.4,0.06527947,0.0
275649093,0.015539659,-0.0019102449,-0.0016175369,0.2,-0.4,0.065279156,0.0
275653966,-0.0033712755,0.0017026723,0.00043872246,0.2,-0.4,0.06527857,0.0
275657961,-0.008019837,-0.0018936917,-4.3423846e-05,0.2,-0.4,0.0652781,0.0
275661098,-0.0022558882,0.0052350173,-0.0025821708,0.2,-0.4,0.065277815,0.0
275665163,0.006769304,-0.002129051,-0.001112648,0.2,-0.4,0.06527738,0.0
275669202,0.010622716,0.0019114848,0.000113804126,0.2,-0.4,0.06527691,0.0
275673204,0.014376224,-0.0004438642,0.00041565494,0.2,-0.4,0.06527642,0.0
275677165,-0.006041706,0.002686305,0.0010328356,0.2,-0.4,0.065275915,0.0
275681172,-0.008677855,-0.0031593097,0.0012208207,0.2,-0.4,0.0652754,0.0
275685109,-0.0021030353,0.00396071,0.0014054116,0.2,-0.4,0.06527489,0.0
275689103,0.013402199,-0.0021010856,0.0023217907,0.2,-0.4,0.06527433,0.0
275693536,0.01092827,0.00030644296,0.0006559519,0.2,-0.4,0.065273784,0.0
275696298,0.003870427,0.0006493287,0.001565183,0.2,-0.4,0.06527342,0.0
275701215,-0.009875885,0.00049670355,0.0018150927,0.2,-0.4,0.065272756,0.0
275705191,-0.010004696,0.00041885406,0.0013902688,0.2,-0.4,0.065272234,0.0
275709072,0.0008870461,-0.0020251381,0.0029093863,0.2,-0.4,0.06527167,0.0
275713204,0.00886219,-0.0027371817,0.0035054921,0.2,-0.4,0.06527104,0.0
275717191,0.011321188,-0.0029910835,0.0008990874,0.2,-0.4,0.06527054,0.0
275721199,-0.007059204,0.001134285,0.00036709872,0.2,-0.4,0.06527006,0.0
275725152,-0.007692816,-0.0038691864,-0.0001328492,0.2,-0.4,0.065269604,0.0
275729161,-0.002129082,0.0035897293,-0.0016709386,0.2,-0.4,0.0652692,0.0
275733195,0.019876083,-0.0019181154,-0.00041593303,0.2,-0.4,0.06526875,0.0
275737157,0.018124843,0.0004134212,0.00081419596,0.2,-0.4,0.065268256,0.0
275741220,0.012412997,0.0027726258,-0.00092453096,0.2,-0.4,0.06526782,0.0
275745111,-0.0027690916,1.8190593e-05,-0.00102154,0.2,-0.4,0.065267414,0.0
275749076,-0.0038029863,0.0009910433,-0.003906406,0.2,-0.4,0.06526711,0.0
275753223,0.003347023,0.0013387167,-0.0046291696,0.2,-0.4,0.06526682,0.0
275757173,0.013680693,-0.0007298812,-0.002249019,0.2,-0.4,0.065266445,0.0
275761153,0.012767848,-0.0006787749,-0.0005732635,0.2,-0.4,0.065266006,0.0
275765241,-0.005113937,0.0022983616,9.369259e-05,0.2,-0.4,0.06526553,0.0
275769071,-0.013582274,-0.003828817,-0.0029219605,0.2,-0.4,0.06526519,0.0
275773195,-0.009257905,0.0051722694,-0.0027947458,0.2,-0.4,0.06526483,0.0
275777228,0.0084737,8.1399805e-05,-0.0010957168,0.2,-0.4,0.065264404,0.0
275781147,0.0067270584,0.0045608087,-0.0011685097,0.2,-0.4,0.065263994,0.0
275785209,0.0051950747,0.0015589453,-0.0013926798,0.2,-0.4,0.06526358,0.0
275789142,-0.0094868075,0.0034893556,-0.0019332394,0.2,-0.4,0.0652632,0.0
275793153,-0.012654655,0.005396589,-0.0025441463,0.2,-0.4,0.06526283,0.0
275797190,-0.0052078073,0.0040944545,-0.0006637587,0.2,-0.4,0.065262385,0.0
275801219,0.009765698,-0.00085068215,0.00096561934,0.2,-0.4,0.06526188,0.0
275805169,0.010055611,-0.0032343895,-0.0011456052,0.2,-0.4,0.06526146,0.0
275809143,-0.0031665517,0.0004395888,0.0004730415,0.2,-0.4,0.06526098,0.0
275813335,-0.009673002,-0.0020235863,0.0012964963,0.2,-0.4,0.06526043,0.0
275817068,-0.008612658,0.0046010893,0.001807648,0.2,-0.4,0.06525993,0.0
275821154,0.0050552664,-0.0009259768,0.0016127442,0.2,-0.4,0.06525939,0.0
275825243,0.00810498,0.00075868575,0.0038848782,0.2,-0.4,0.06525876,0.0
275829096,0.009459907,-0.00043254328,0.0015927713,0.2,-0.4,0.06525825,0.0
275833218,-0.0047708657,-3.0165538e-05,0.0016108383,0.2,-0.4,0.065257706,0.0
275837329,-0.0050907354,-0.004583078,0.0035347687,0.2,-0.4,0.06525708,0.0
275841160,-0.0019866242,0.0007354205,0.0017622458,0.2,-0.4,0.065256566,0.0
275845196,0.012873694,-0.0054262425,0.0035050916,0.2,-0.4,0.065255955,0.0
275849227,0.010629304,-0.0036109164,0.003556355,0.2,-0.4,0.065255344,0.0
275853153,0.0013824701,-0.0024238564,0.0052390965,0.2,-0.4,0.06525468,0.0
275857155,-0.007166906,-0.004270874,0.0044584987,0.2,-0.4,0.06525404,0.0
275861250,-0.006698516,0.0008856709,0.0032604376,0.2,-0.4,0.06525343,0.0
275865213,0.0036750208,-0.002393346,0.0022299513,0.2,-0.4,0.06525288,0.0
275869204,0.006259544,-0.0010467556,0.0021656407,0.2,-0.4,0.06525233,0.0
275873205,0.010956483,-0.0031922427,0.0028202427,0.2,-0.4,0.06525175,0.0
275877112,-0.0065816697,0.00032847608,0.0018800246,0.2,-0.4,0.065251224,0.0
275881139,-0.0065859593,-0.0047519407,0.0022337094,0.2,-0.4,0.065250665,0.0
275885236,-0.009665206,-0.0017316393,-0.0006260975,0.2,-0.4,0.06525022,0.0
275889128,0.011456931,-0.0038493415,0.0005974368,0.2,-0.4,0.06524974,0.0
275893146,0.010147645,0.0008453453,0.00065174187,0.2,-0.4,0.06524925,0.0
275897173,0.0039202683,-0.00021932065,0.00041039143,0.2,-0.4,0.065248765,0.0
275901105,-0.007486398,8.3539635e-05,0.00069044693,0.2,-0.4,0.06524828,0.0
275905227,-0.008008918,0.004904412,0.0006595931,0.2,-0.4,0.065247774,0.0
275909196,1.6972423e-05,0.0028398032,-0.0017146391,0.2,-0.4,0.06524738,0.0
275913138,0.0065911817,0.002841415,-0.00040476647,0.2,-0.4,0.06524678,0.0
275917159,0.008227366,0.0009413784,-0.0004586007,0.2,-0.4,0.06524617,0.0
275921176,-0.0054818327,0.0028718999,-0.00023748708,0.2,-0.4,0.065245554,0.0
275925132,-0.008856617,-0.0007817289,-0.0012385724,0.2,-0.4,0.06524499,0.0
275929152,-0.008588498,0.003262058,-0.0027542454,0.2,-0.4,0.06524447,0.0
275933188,0.008771632,-0.0012839857,-0.0015946041,0.2,-0.4,0.0652435,0.0
275937234,0.010661969,0.0011502977,-0.00063541054,0.2,-0.4,0.06524248,0.0
275941142,0.005861246,0.0034739273,-0.0021323387,0.2,-0.4,0.06524155,0.0
275945193,-0.004109309,0.0024252497,-0.0039329655,0.2,-0.4,0.06524067,0.0
275949235,-0.0074937763,0.0028623044,-0.0036902053,0.2,-0.4,0.065239765,0.0
275953216,-0.0027654208,0.0029530777,-0.003909047,0.2,-0.4,0.06523889,0.0
275957112,0.008466468,-0.00062130357,-0.002034842,0.2,-0.4,0.06523763,0.0
275961172,0.009570574,-1.1096243e-05,-0.0033917755,0.2,-0.4,0.06523637,0.0
275965163,-0.001979739,0.0011172201,-0.0040842798,0.2,-0.4,0.06523515,0.0
275969169,-0.015057623,-0.00084361585,-0.004762963,0.2,-0.4,0.06523396,0.0
275973239,-0.0141947465,0.0025889035,-0.006923137,0.2,-0.4,0.065232836,0.0
275977159,-0.00012768712,-0.003877123,-0.002730252,0.2,-0.4,0.065231584,0.0
275981136,0.006769016,-0.0023958972,-0.0027169324,0.2,-0.4,0.06523015,0.0
275985251,0.0033472378,-0.0032000379,-0.0032826518,0.2,-0.4,0.06522869,0.0
275989166,-0.0035718838,-0.0018119836,-0.0031464454,0.2,-0.4,0.0652273,0.0
275993159,-0.0077410303,-0.0030571935,-0.0025772434,0.2,-0.4,0.065225855,0.0
275997236,-0.0098697925,0.0006078305,-0.002650525,0.2,-0.4,0.06522438,0.0
276001110,0.0075713745,-0.0052653747,-0.00082694594,0.2,-0.4,0.06522291,0.0
276004310,0.010983622,-0.0008609557,-0.00091784826,0.2,-0.4,0.06522155,0.0
276008539,-0.00023928424,-0.0065373136,-0.0006941555,0.2,-0.4,0.06521977,0.0
276012345,-0.009944864,-0.0045758886,0.0016306957,0.2,-0.4,0.06521802,0.0
276016373,-0.011343281,-0.0031016956,0.0008584878,0.2,-0.4,0.06521623,0.0
276020395,-0.0071957074,-0.00024282897,0.002550162,0.2,-0.4,0.06521437,0.0
276024312,0.0062920293,-0.0026354962,0.0024043657,0.2,-0.4,0.06521257,0.0
276028386,0.010950509,0.0016196016,0.0023684022,0.2,-0.4,0.0652105,0.0
276032413,0.0017265771,0.0021486196,0.0018428057,0.2,-0.4,0.06520849,0.0
276036381,-0.006057441,0.0027314536,0.0026193361,0.2,-0.4,0.065206446,0.0
276040369,-0.008745521,0.007223878,0.0013548143,0.2,-0.4,0.06520446,0.0
276044390,0.0032256898,0.0009591505,0.0016693006,0.2,-0.4,0.06520244,0.0
276048383,0.007866449,0.0026443487,0.004401684,0.2,-0.4,0.06520032,0.0
276052315,0.004571537,0.0011847771,0.0025456883,0.2,-0.4,0.06519822,0.0
276056447,-0.009376774,0.002381102,0.0028902455,0.2,-0.4,0.06519599,0.0
276060383,-0.012285856,0.0011250004,0.0011248502,0.2,-0.4,0.06519394,0.0
276064330,-0.010794421,0.0030813073,0.0007126684,0.2,-0.4,0.0651919,0.0
276068456,0.0030883239,0.0015941112,0.0029153945,0.2,-0.4,0.065189674,0.0
276072353,0.0071102316,0.0037345937,0.002363788,0.2,-0.4,0.065187596,0.0
276076361,0.0008068923,0.003810548,0.0005136685,0.2,-0.4,0.06518552,0.0
276080423,-0.009617029,0.003567828,0.0031962052,0.2,-0.4,0.0651833,0.0
276084355,-0.012378206,0.005328894,-0.00019388448,0.2,-0.4,0.06518128,0.0
276088387,-0.0031868834,0.0006355329,-0.00038401328,0.2,-0.4,0.065179214,0.0
276092359,0.0010763896,0.0010750198,0.0034214198,0.2,-0.4,0.06517703,0.0
276096351,-0.0016935803,-0.0022074624,0.0023380644,0.2,-0.4,0.06517488,0.0
276100383,-0.010562591,0.00030724762,0.0026521827,0.2,-0.4,0.06517276,0.0
276104411,-0.01308969,0.00094174885,-0.00050061574,0.2,-0.4,0.06517077,0.0
276108417,-0.01363229,0.0017258893,-0.00030818302,0.2,-0.4,0.06516878,0.0
276112326,0.003465912,-0.0023448581,0.00051931647,0.2,-0.4,0.06516681,0.0
276116396,0.013671478,-0.0016070884,0.0015889718,0.2,-0.4,0.065164715,0.0
276120403,0.0098956805,-0.0032574853,0.002091836,0.2,-0.4,0.06516263,0.0
276124370,-0.0004989337,0.00037209596,-0.00023925229,0.2,-0.4,0.06516086,0.0
276128443,-0.0048912694,0.0005404998,-0.00318706,0.2,-0.4,0.06515918,0.0
276132334,0.00243418,-0.002470054,-0.00077719626,0.2,-0.4,0.06515744,0.0
276136343,0.010480346,-0.001697961,0.0009804498,0.2,-0.4,0.06515561,0.0
276140390,0.008609409,-0.001189184,-0.00012249663,0.2,-0.4,0.06515382,0.0
276144425,-0.0018269499,-0.0029981716,-0.0018258559,0.2,-0.4,0.06515207,0.0
276148404,-0.010088858,-0.0030973929,-0.00060526404,0.2,-0.4,0.06515064,0.0
276152357,-0.0126792155,-0.0009802089,-0.003453505,0.2,-0.4,0.06514933,0.0
276156389,0.00017711986,-0.0056490465,-0.00049459114,0.2,-0.4,0.06514788,0.0
276160298,0.010285573,-0.0027823183,-0.0030670855,0.2,-0.4,0.065146565,0.0
276164398,0.004892595,-0.0019286465,-0.0015853897,0.2,-0.4,0.065145135,0.0
276168542,-0.0102674235,0.001100049,-0.001925373,0.2,-0.4,0.0651437,0.0
276172309,-0.015694274,0.0020829435,-0.006100542,0.2,-0.4,0.065142915,0.0
276176397,-0.010075853,0.0012228313,-0.0050093075,0.2,-0.4,0.06514202,0.0
276180363,-0.0013012909,-1.9692816e-05,-0.0008938689,0.2,-0.4,0.06514099,0.0
276184347,-0.0011673602,-0.0012021165,-0.0018357714,0.2,-0.4,0.065139994,0.0
276188538,-0.0041811704,-0.004427379,-0.0019772612,0.2,-0.4,0.06513897,0.0
276192325,-0.010985469,-0.00032542943,-0.0010874685,0.2,-0.4,0.065137975,0.0
276196323,-0.013196059,0.0001845028,-0.0019922326,0.2,-0.4,0.06513733,0.0
276200390,0.004570578,-0.0034239586,2.0443229e-05,0.2,-0.4,0.06513658,0.0
276204378,0.017766777,0.0018171789,0.00037310482,0.2,-0.4,0.065135844,0.0
276208433,0.011864484,0.0016838852,0.0017295582,0.2,-0.4,0.06513504,0.0
276212399,0.004818259,0.0066046594,0.0017583609,0.2,-0.4,0.06513425,0.0
276216309,0.0015228679,0.00648987,-0.00031820318,0.2,-0.4,0.06513355,0.0
276220287,0.0015037856,0.0036173356,0.00052290485,0.2,-0.4,0.06513303,0.0
276224396,0.010422111,0.0028869403,0.0039257044,0.2,-0.4,0.06513235,0.0
276228424,0.00960465,-0.00061881327,0.0036063623,0.2,-0.4,0.065131694,0.0
276232279,0.0056792246,-0.0042538573,0.0017458455,0.2,-0.4,0.06513114,0.0
276236392,-0.005818801,-0.0010215308,0.0018078878,0.2,-0.4,0.06513055,0.0
276240337,-0.010946375,-0.0016293235,-0.00086458825,0.2,-0.4,0.065130085,0.0
276244399,-0.00012893043,-0.0012967734,-0.00095236214,0.2,-0.4,0.06512968,0.0
276248584,0.011845978,0.0014099898,0.0029150222,0.2,-0.4,0.06512911,0.0
276252354,0.0062044496,0.000532117,0.0014053035,0.2,-0.4,0.06512865,0.0
276256325,-0.0026454194,0.0025905338,0.0008486767,0.2,-0.4,0.065128185,0.0
276260349,-0.010741692,0.0028562418,-0.0011973779,0.2,-0.4,0.0651278,0.0
276264388,-0.015823413,0.0037204062,0.0002578797,0.2,-0.4,0.06512735,0.0
276267530,-0.0025136606,-0.0016500733,0.0026371414,0.2,-0.4,0.06512688,0.0
276271743,0.0036615105,-0.0037468611,0.0004028971,0.2,-0.4,0.065126345,0.0
276278789,-0.0075460705,-0.0035675992,0.0042831977,0.2,-0.4,0.06512532,0.0
276283613,-0.0090264585,-0.005248516,0.0028246744,0.2,-0.4,0.065124586,0.0
276286763,-0.0037300363,-0.0016124822,0.0013949394,0.2,-0.4,0.065124154,0.0
276291563,0.012406878,-0.002883621,0.0027518878,0.2,-0.4,0.065123305,0.0
276295893,0.014238756,-0.0007699723,0.0014617029,0.2,-0.4,0.06512261,0.0
276299618,0.015160754,-0.0020316578,0.0020306483,0.2,-0.4,0.06512197,0.0
276303577,0.002160986,-0.0016927598,0.0020799807,0.2,-0.4,0.0651213,0.0
276307584,-0.0038028914,-0.0024585477,0.0014202887,0.2,-0.4,0.065120645,0.0
276311639,0.0026157603,-0.005433974,0.0011475562,0.2,-0.4,0.06512,0.0
276315660,0.015466199,-0.0007207459,0.0032031983,0.2,-0.4,0.06511899,0.0
276319608,0.009164203,-0.0025795777,0.0007295835,0.2,-0.4,0.065118104,0.0
276323644,0.00036300113,-0.0003995229,-0.00032119645,0.2,-0.4,0.06511724,0.0
276327516,-0.0009658807,6.75139e-05,-0.0014259476,0.2,-0.4,0.06511645,0.0
276331604,-0.003750552,0.0023109247,-0.0025801957,0.2,-0.4,0.06511567,0.0
276335661,0.00753156,-0.0012816414,-6.412098e-05,0.2,-0.4,0.06511479,0.0
276339567,0.00685161,-0.00014558702,-0.0027466267,0.2,-0.4,0.06511362,0.0
276343630,0.0062921103,-0.0021965147,-0.0034884273,0.2,-0.4,0.065112434,0.0
276347624,-0.010592461,0.0026692096,-0.0016395666,0.2,-0.4,0.0651112,0.0
276351525,-0.015856536,0.0039262213,-0.004978747,0.2,-0.4,0.06511012,0.0
276355759,-0.010697631,0.003382882,-0.0034653584,0.2,-0.4,0.06510887,0.0
276359578,0.0031222014,0.0016793462,-0.002089897,0.2,-0.4,0.0651077,0.0
276363565,0.0019409584,0.0026322491,-0.0016940166,0.2,-0.4,0.06510608,0.0
276367579,-0.004546087,0.005183285,-0.0016315614,0.2,-0.4,0.06510444,0.0
276371522,-0.0074658645,0.0053701336,-0.0010812168,0.2,-0.4,0.06510281,0.0
276375723,-0.009508336,0.002863966,-0.0006702267,0.2,-0.4,0.06510105,0.0
276379637,0.0033095265,-0.0023650883,-3.691332e-05,0.2,-0.4,0.06509939,0.0
276383654,0.01131359,-0.0008517881,0.0018278514,0.2,-0.4,0.06509761,0.0
276387547,0.012290157,-0.0005272889,0.0017289501,0.2,-0.4,0.0650957,0.0
276391587,0.0025353576,0.0051646093,0.0010508677,0.2,-0.4,0.06509375,0.0
276395955,-0.004927444,-0.00012044585,-0.0005424785,0.2,-0.4,0.06509171,0.0
276399558,-0.000323419,0.0013735604,-0.000251549,0.2,-0.4,0.06509001,0.0
276403649,0.013308566,9.022548e-05,0.00282226,0.2,-0.4,0.06508796,0.0
276407532,0.0112918,-0.0021342281,0.0025818227,0.2,-0.4,0.06508602,0.0
276411545,0.008553183,0.0003253658,0.0021899543,0.2,-0.4,0.06508401,0.0
276415951,-0.0024235146,-0.00373895,0.002084848,0.2,-0.4,0.065081805,0.0
276419584,-0.0084665,-0.0028747967,0.0015263977,0.2,-0.4,0.06508001,0.0
276423606,-0.004138317,-0.004366989,0.0023788821,0.2,-0.4,0.06507798,0.0
276427795,0.0059263706,-0.00189624,0.0016082247,0.2,-0.4,0.065075904,0.0
276431507,0.0056978455,-0.0031689734,0.0030044164,0.2,-0.4,0.06507401,0.0
276435911,-0.009729591,0.0031426472,0.003489626,0.2,-0.4,0.06507176,0.0
276439645,-0.017451102,-0.0013300678,0.00055412954,0.2,-0.4,0.06506996,0.0
276443550,-0.014917238,-0.001610292,9.4536284e-05,0.2,-0.4,0.06506811,0.0
276447646,0.0024538492,-0.001696311,0.0034547204,0.2,-0.4,0.06506601,0.0
276451554,0.0015715128,-0.003067308,0.0021729197,0.2,-0.4,0.065064035,0.0
276455804,0.006636455,-0.004437831,0.0030410152,0.2,-0.4,0.06506188,0.0
276459617,-0.0040093902,0.00016312976,0.002743406,0.2,-0.4,0.06505995,0.0
276463745,-0.008262513,-0.0028620686,0.00057158316,0.2,-0.4,0.065057956,0.0
276467755,-0.0013196068,-0.0009614426,0.00092853775,0.2,-0.4,0.065056,0.0
276471523,0.014374729,0.001883454,0.0028349678,0.2,-0.4,0.0650541,0.0
276475920,0.014126481,0.0020243023,0.002823275,0.2,-0.4,0.065051876,0.0
276479647,0.006430651,0.0041230926,0.001903506,0.2,-0.4,0.06505003,0.0
276483517,-9.6736476e-05,0.00327555,-0.00025602785,0.2,-0.4,0.06504824,0.0
276487788,-0.003127928,0.0032770121,-0.00085994764,0.2,-0.4,0.06504629,0.0
276491520,0.0110950675,0.0010574588,-9.8170654e-05,0.2,-0.4,0.06504456,0.0
276495817,0.014667606,0.001989706,0.00015968658,0.2,-0.4,0.06504256,0.0
276499613,0.013418398,-0.002915267,-0.0021599415,0.2,-0.4,0.06504089,0.0
276503620,0.001279427,0.0038899789,-0.0028051005,0.2,-0.4,0.06503914,0.0
276507555,-0.008340124,-0.0007790488,-0.005623432,0.2,-0.4,0.06503771,0.0
276511607,-0.008008102,0.0018858326,-0.004580789,0.2,-0.4,0.06503619,0.0
276515815,0.005045324,0.0005969808,-0.004180273,0.2,-0.4,0.0650346,0.0
276519523,0.0017138936,-0.0007904753,-0.005410175,0.2,-0.4,0.06503324,0.0
276523666,-0.00782045,0.0048797205,-0.00533194,0.2,-0.4,0.06503172,0.0
276527551,-0.018854726,0.00096350047,-0.006509168,0.2,-0.4,0.06503034,0.0
276531538,-0.021074096,0.0013271114,-0.006654336,0.2,-0.4,0.06502924,0.0
276535983,-0.0066217487,-0.00047204748,-0.0043102284,0.2,-0.4,0.065027915,0.0
276539557,-0.00021008775,-0.00014841196,-0.0045987614,0.2,-0.4,0.06502686,0.0
276543592,0.0064277863,-0.004727682,-0.004319806,0.2,-0.4,0.06502566,0.0
276547640,-0.005308238,0.0055326675,-0.0028392957,0.2,-0.4,0.06502439,0.0
276551600,-0.006751422,-0.002606046,-0.003988412,0.2,-0.4,0.065023206,0.0
276558808,0.016161926,-0.0070533273,0.0013218645,0.2,-0.4,0.06502162,0.0
276562751,0.008292847,-0.0013835236,0.0013523347,0.2,-0.4,0.06502067,0.0
276566734,0.011453565,-0.002436665,0.003220202,0.2,-0.4,0.065019645,0.0
276569982,-0.0013644085,0.005700921,0.0019054995,0.2,-0.4,0.06501885,0.0
276574811,-0.0071134856,0.0021619815,0.0005888321,0.2,-0.4,0.06501772,0.0
276578743,-0.0055073844,0.0021362384,0.0033390285,0.2,-0.4,0.065017074,0.0
276582798,0.009427384,3.4750323e-05,0.0033670778,0.2,-0.4,0.065016404,0.0
276586740,0.007441437,-0.0014793386,0.0027884634,0.2,-0.4,0.06501577,0.0
276590742,-0.0001063277,0.0010914631,0.0014568488,0.2,-0.4,0.06501518,0.0
276594794,-0.0077029844,-0.0017252414,0.00035590644,0.2,-0.4,0.06501476,0.0
276598741,-0.011848874,-0.0012860174,-0.0003752305,0.2,-0.4,0.06501438,0.0
276602723,-0.0006272956,-0.0027820272,0.0038404956,0.2,-0.4,0.065013826,0.0
276606792,-0.00087143015,-0.0020576403,0.003374131,0.2,-0.4,0.065013275,0.0
276610765,0.002625037,-0.0028550434,0.0039981334,0.2,-0.4,0.065012716,0.0
276614771,-0.011060505,0.0068066497,0.0028816548,0.2,-0.4,0.065012194,0.0
276618967,-0.0201247,0.0030132332,-0.0004873097,0.2,-0.4,0.06501176,0.0
276622752,-0.021690391,0.0058553056,0.0027871113,0.2,-0.4,0.06501125,0.0
276626745,0.0014853347,0.0022857408,0.0053178635,0.2,-0.4,0.0650106,0.0
276630812,0.0035610574,-0.0003117334,0.0051634274,0.2,-0.4,0.06500995,0.0
276634787,0.004325556,-0.0015512151,0.005298055,0.2,-0.4,0.06500931,0.0
276638806,-0.0041074054,0.0007426229,0.005516036,0.2,-0.4,0.06500862,0.0
