timestamp,heartbeat_time,data_rate,rate_multiplier,rate_rx,rate_tx,rate_txerr,remote_system_id,remote_component_id,remote_type,remote_system_status,type,mode,flow_control,forwarding,mavlink_v2,ftp,streams
272240426,271231150,1200.0,0.3562499,0.041976072,1.0414063,0.0,255,0,6,4,1,0,1,1,1,1,36
272292127,272284071,1200.0,0.3562499,0.020947065,1.1221642,0.0,255,0,6,4,1,0,1,1,1,1,36
273244567,273242830,1200.0,0.3562499,0.020947065,1.1221642,0.0,255,0,6,4,1,0,1,1,1,1,36
274244280,274235230,1200.0,0.3562499,0.17729843,1.3058327,0.0,255,0,6,4,1,0,1,1,1,1,36
275164716,275154195,1200.0,0.3562499,0.04160974,0.9887267,0.0,255,0,6,4,1,0,1,1,1,1,36
276167299,275154195,1200.0,0.3562499,0.041721962,1.2486787,0.0,255,0,6,4,1,0,1,1,1,1,36
276220982,276214299,1200.0,0.3562499,0.041721962,1.2486787,0.0,255,0,6,4,1,0,1,1,1,1,36
277171300,277162409,1200.0,0.3562499,0.04191558,0.9630604,0.0,255,0,6,4,1,0,1,1,1,1,36
278174202,278166041,1200.0,0.3562499,0.04187496,1.2921417,0.0,255,0,6,4,1,0,1,1,1,1,36
279179208,278166041,1200.0,0.3562499,0.041871034,0.97200614,0.0,255,0,6,4,1,0,1,1,1,1,36
279221149,279215096,1200.0,0.3562499,0.041871034,0.97200614,0.0,255,0,6,4,1,0,1,1,1,1,36
280165782,280160049,1200.0,0.3562499,0.041836,1.0010757,0.0,255,0,6,4,1,0,1,1,1,1,36
281167432,281164348,1200.0,0.3562499,0.041634943,1.4968753,0.0,255,0,6,4,1,0,1,1,1,1,36
282173657,281164348,1200.0,0.3562499,0.04186344,1.026651,0.0,255,0,6,4,1,0,1,1,1,1,36
282300377,282299772,1200.0,0.3562499,0.04186344,1.026651,0.0,255,0,6,4,1,0,1,1,1,1,36
283206381,283203330,1200.0,0.3562499,0.04179042,1.1701317,0.0,255,0,6,4,1,0,1,1,1,1,36
284177132,284174045,1200.0,0.3562499,0.067462526,1.0942818,0.0,255,0,6,4,1,0,1,1,1,1,36
285179195,284174045,1200.0,0.3562499,0.041543517,1.1394794,0.0,255,0,6,4,1,0,1,1,1,1,36
285221764,285218062,1200.0,0.3562499,0.041543517,1.1394794,0.0,255,0,6,4,1,0,1,1,1,1,36
286222854,285218062,1200.0,0.3562499,0.04179104,0.89552236,0.0,255,0,6,4,1,0,1,1,1,1,36
286262954,286255120,1200.0,0.3562499,0.04179104,0.89552236,0.0,255,0,6,4,1,0,1,1,1,1,36
287187464,287181042,1200.0,0.3562499,0.041623928,1.188264,0.0,255,0,6,4,1,0,1,1,1,1,36
288191298,287181042,1200.0,0.3562499,0.04175037,1.196844,0.0,255,0,6,4,1,0,1,1,1,1,36
288242177,288234039,1200.0,0.3562499,0.04175037,1.196844,0.0,255,0,6,4,1,0,1,1,1,1,36
289247294,288234039,1200.0,0.3562499,0.041916754,1.1377404,0.0,255,0,6,4,1,0,1,1,1,1,36
289268371,289261869,1200.0,0.3562499,0.041916754,1.1377404,0.0,255,0,6,4,1,0,1,1,1,1,36
290185119,290184612,1200.0,0.3562499,0.041625123,1.0475656,0.0,255,0,6,4,1,0,1,1,1,1,36
291273239,291266430,1200.0,0.3562499,0.041697234,1.0712218,0.0,255,0,6,4,1,0,1,1,1,1,36
292187209,292181823,1200.0,0.3562499,0.04191261,1.1855282,0.0,255,0,6,4,1,0,1,1,1,1,36
293193198,293190045,1200.0,0.3562499,0.041889075,1.0671741,0.0,255,0,6,4,1,0,1,1,1,1,36
294196218,293190045,1200.0,0.3562499,0.0674873,1.2892058,0.0,255,0,6,4,1,0,1,1,1,1,36
294260754,294252303,1200.0,0.3562499,0.0674873,1.2892058,0.0,255,0,6,4,1,0,1,1,1,1,36
295172130,295166158,1200.0,0.3562499,0.041617285,1.2505003,0.0,255,0,6,4,1,0,1,1,1,1,36
296173415,295166158,1200.0,0.3562499,0.04165596,1.0096612,0.0,255,0,6,4,1,0,1,1,1,1,36
296195622,296195440,1200.0,0.3562499,0.04165596,1.0096612,0.0,255,0,6,4,1,0,1,1,1,1,36
297204562,296195440,1200.0,0.3562499,0.041834835,0.9900911,0.0,255,0,6,4,1,0,1,1,1,1,36
297244566,297242032,1200.0,0.3562499,0.041834835,0.9900911,0.0,255,0,6,4,1,0,1,1,1,1,36
298162602,298158418,1200.0,0.3562499,0.04195628,1.1977519,0.0,255,0,6,4,1,0,1,1,1,1,36
299170341,299167119,1200.0,0.3562499,0.041792788,0.99606144,0.0,255,0,6,4,1,0,1,1,1,1,36
300173741,299167119,1200.0,0.25263152,0.0417495,0.9960238,0.0,255,0,6,4,1,0,1,1,1,1,36
300270486,300269847,1200.0,0.3562499,0.0417495,0.9960238,0.0,255,0,6,4,1,0,1,1,1,1,36
301198715,301196054,1200.0,0.3562499,0.041958038,1.1788211,0.0,255,0,6,4,1,0,1,1,1,1,36
302204282,301196054,1200.0,0.3562499,0.041958038,0.99900097,0.0,255,0,6,4,1,0,1,1,1,1,36
303212794,301196054,1200.0,0.3562499,0.02094508,0.956492,0.0,255,0,6,4,1,0,1,1,1,1,36
303254460,303254046,1200.0,0.3562499,0.02094508,0.956492,0.0,255,0,6,4,1,0,1,1,1,1,36
304195280,304185126,1200.0,0.3562499,0.06753777,1.1084139,0.0,255,0,6,4,1,0,1,1,1,1,36
305195493,304185126,1200.0,0.3562499,0.041609988,1.073934,0.0,255,0,6,4,1,0,1,1,1,1,36
305217246,305209044,1200.0,0.3562499,0.041609988,1.073934,0.0,255,0,6,4,1,0,1,1,1,1,36
306222212,305209044,1200.0,0.3562499,0.04196177,1.1829222,0.0,255,0,6,4,1,0,1,1,1,1,36
306264368,306261137,1200.0,0.3562499,0.04196177,1.1829222,0.0,255,0,6,4,1,0,1,1,1,1,36
307195196,307191088,1200.0,0.3562499,0.041900273,1.0125899,0.0,255,0,6,4,1,0,1,1,1,1,36
309224340,308214505,1200.0,0.3562499,0.041586176,1.2673881,0.0,255,0,6,4,1,0,1,1,1,1,36
310229864,308214505,1200.0,0.3562499,0.02089552,0.9820895,0.0,255,0,6,4,1,0,1,1,1,1,36
310305559,310295096,1200.0,0.3562499,0.02089552,0.9820895,0.0,255,0,6,4,1,0,1,1,1,1,36
311308174,310295096,1200.0,0.3562499,0.041840337,1.1775066,0.0,255,0,6,4,1,0,1,1,1,1,36
313194419,313191225,1200.0,0.3562499,0.02093963,1.0240476,0.0,255,0,6,4,1,0,1,1,1,1,36
314202856,313191225,1200.0,0.3562499,0.06798606,0.9648022,0.0,255,0,6,4,1,0,1,1,1,1,36
314232313,314224077,1200.0,0.3562499,0.06798606,0.9648022,0.0,255,0,6,4,1,0,1,1,1,1,36
315240556,314224077,1200.0,0.3562499,0.041628424,1.2964281,0.0,255,0,6,4,1,0,1,1,1,1,36
315293353,315290034,1200.0,0.3562499,0.041628424,1.2964281,0.0,255,0,6,4,1,0,1,1,1,1,36
316300330,315290034,1200.0,0.3562499,0.04161341,1.041326,0.0,255,0,6,4,1,0,1,1,1,1,36
316310177,316306040,1200.0,0.3562499,0.04161341,1.041326,0.0,255,0,6,4,1,0,1,1,1,1,36
317232238,317226729,1200.0,0.3562499,0.04196722,1.2660111,0.0,255,0,6,4,1,0,1,1,1,1,36
318234779,317226729,1200.0,0.3562499,0.041884314,1.0012345,0.0,255,0,6,4,1,0,1,1,1,1,36
318291396,318285234,1200.0,0.3562499,0.041884314,1.0012345,0.0,255,0,6,4,1,0,1,1,1,1,36
319233196,319232916,1200.0,0.3562499,0.041616213,1.0384237,0.0,255,0,6,4,1,0,1,1,1,1,36
320231500,320230342,1200.0,0.3562499,0.041671008,1.2183808,0.0,255,0,6,4,1,0,1,1,1,1,36
321167111,321161081,1200.0,0.3562499,0.041706923,1.2591519,0.0,255,0,6,4,1,0,1,1,1,1,36
322169509,321161081,1200.0,0.3562499,0.041665096,1.142814,0.0,255,0,6,4,1,0,1,1,1,1,36
322236318,322236167,1200.0,0.3562499,0.041665096,1.142814,0.0,255,0,6,4,1,0,1,1,1,1,36
323148257,323146174,1200.0,0.3562499,0.041352298,1.1322653,0.0,255,0,6,4,1,0,1,1,1,1,36
324150714,323146174,1200.0,0.3562499,0.067626566,1.0492063,0.0,255,0,6,4,1,0,1,1,1,1,36
324173110,324165040,1200.0,0.3562499,0.067626566,1.0492063,0.0,255,0,6,4,1,0,1,1,1,1,36
325182181,324165040,1200.0,0.3562499,0.041847963,1.0133185,0.0,255,0,6,4,1,0,1,1,1,1,36
325283816,325283452,1200.0,0.3562499,0.041847963,1.0133185,0.0,255,0,6,4,1,0,1,1,1,1,36
326163518,326163380,1200.0,0.3562499,0.041695535,1.1903083,0.0,255,0,6,4,1,0,1,1,1,1,36
327173668,327171161,1200.0,0.3562499,0.041720428,1.069831,0.0,255,0,6,4,1,0,1,1,1,1,36
328175429,327171161,1200.0,0.3562499,0.0415353,1.2529815,0.0,255,0,6,4,1,0,1,1,1,1,36
328228216,328222033,1200.0,0.3562499,0.0415353,1.2529815,0.0,255,0,6,4,1,0,1,1,1,1,36
329164854,329154199,1200.0,0.3562499,0.041756805,1.0071344,0.0,255,0,6,4,1,0,1,1,1,1,36
330165919,329154199,1200.0,0.3562499,0.041620173,1.0296038,0.0,255,0,6,4,1,0,1,1,1,1,36
330175369,330175226,1200.0,0.3562499,0.041620173,1.0296038,0.0,255,0,6,4,1,0,1,1,1,1,36
331176363,330175226,1200.0,0.3562499,0.041823544,1.2666559,0.0,255,0,6,4,1,0,1,1,1,1,36
331229192,331229047,1200.0,0.3562499,0.041823544,1.2666559,0.0,255,0,6,4,1,0,1,1,1,1,36
332238177,331229047,1200.0,0.3562499,0.04184221,0.979307,0.0,255,0,6,4,1,0,1,1,1,1,36
332260313,332256924,1200.0,0.3562499,0.04184221,0.979307,0.0,255,0,6,4,1,0,1,1,1,1,36
333186055,333180269,1200.0,0.3562499,0.04160731,1.1125002,0.0,255,0,6,4,1,0,1,1,1,1,36
335162518,335157206,1200.0,0.3562499,0.041605785,0.92523336,0.0,255,0,6,4,1,0,1,1,1,1,36
336164159,335157206,1200.0,0.3562499,0.04179566,1.0727552,0.0,255,0,6,4,1,0,1,1,1,1,36
336188161,336184575,1200.0,0.3562499,0.04179566,1.0727552,0.0,255,0,6,4,1,0,1,1,1,1,36
337232130,337228040,1200.0,0.3562499,0.041692473,1.1475357,0.0,255,0,6,4,1,0,1,1,1,1,36
338191463,338182041,1200.0,0.3562499,0.041972715,1.1572478,0.0,255,0,6,4,1,0,1,1,1,1,36
339201797,339191093,1200.0,0.3562499,0.041830666,1.0826175,0.0,255,0,6,4,1,0,1,1,1,1,36
340203270,339191093,1200.0,0.3562499,0.041718483,1.1184527,0.0,255,0,6,4,1,0,1,1,1,1,36
340286513,340280043,1200.0,0.3562499,0.041718483,1.1184527,0.0,255,0,6,4,1,0,1,1,1,1,36
341228293,341226043,1200.0,0.3562499,0.04195188,1.1087283,0.0,255,0,6,4,1,0,1,1,1,1,36
342157784,342152598,1200.0,0.3562499,0.041964203,1.042111,0.0,255,0,6,4,1,0,1,1,1,1,36
343160129,342152598,1200.0,0.3562499,0.041666664,1.1656746,0.0,255,0,6,4,1,0,1,1,1,1,36
343255226,343250154,1200.0,0.3562499,0.041666664,1.1656746,0.0,255,0,6,4,1,0,1,1,1,1,36
344172091,344171624,1200.0,0.3562499,0.067594364,1.0944322,0.0,255,0,6,4,1,0,1,1,1,1,36
345178183,344171624,1200.0,0.3562499,0.041788507,1.2616149,0.0,255,0,6,4,1,0,1,1,1,1,36
345209722,345202022,1200.0,0.3562499,0.041788507,1.2616149,0.0,255,0,6,4,1,0,1,1,1,1,36
346211354,345202022,1200.0,0.3562499,0.04158671,1.0050122,0.0,255,0,6,4,1,0,1,1,1,1,36
346273967,346271370,1200.0,0.3562499,0.04158671,1.0050122,0.0,255,0,6,4,1,0,1,1,1,1,36
347179323,347172040,1200.0,0.3562499,0.041685108,1.1999356,0.0,255,0,6,4,1,0,1,1,1,1,36
348186208,347172040,1200.0,0.3562499,0.041958332,1.2677411,0.0,255,0,6,4,1,0,1,1,1,1,36
348209222,348205040,1200.0,0.3562499,0.041958332,1.2677411,0.0,255,0,6,4,1,0,1,1,1,1,36
349220293,348205040,1200.0,0.3562499,0.041897222,0.9835872,0.0,255,0,6,4,1,0,1,1,1,1,36
349264937,349261154,1200.0,0.3562499,0.041897222,0.9835872,0.0,255,0,6,4,1,0,1,1,1,1,36
350206201,350203150,1200.0,0.3562499,0.041625123,1.1694677,0.0,255,0,6,4,1,0,1,1,1,1,36
351216415,351210151,1200.0,0.3562499,0.041990172,1.1217375,0.0,255,0,6,4,1,0,1,1,1,1,36
352222287,351210151,1200.0,0.3562499,0.041717984,1.1005602,0.0,255,0,6,4,1,0,1,1,1,1,36
352274343,352274041,1200.0,0.3562499,0.041717984,1.1005602,0.0,255,0,6,4,1,0,1,1,1,1,36
353195224,353191260,1200.0,0.3562499,0.04170804,0.9374379,0.0,255,0,6,4,1,0,1,1,1,1,36
354203494,353191260,1200.0,0.3562499,0.0675273,1.2115192,0.0,255,0,6,4,1,0,1,1,1,1,36
354213350,354210531,1200.0,0.3562499,0.0675273,1.2115192,0.0,255,0,6,4,1,0,1,1,1,1,36
355225953,354210531,1200.0,0.3562499,0.041610647,1.1096172,0.0,255,0,6,4,1,0,1,1,1,1,36
355288518,355288313,1200.0,0.3562499,0.041610647,1.1096172,0.0,255,0,6,4,1,0,1,1,1,1,36
356237667,356229214,1200.0,0.3562499,0.041640103,1.2135116,0.0,255,0,6,4,1,0,1,1,1,1,36
357219538,357215160,1200.0,0.3562499,0.041659433,1.0047858,0.0,255,0,6,4,1,0,1,1,1,1,36
359149166,358145049,1200.0,0.3562499,0.041610442,1.220573,0.0,255,0,6,4,1,0,1,1,1,1,36
359214555,359209156,1200.0,0.3562499,0.041610442,1.220573,0.0,255,0,6,4,1,0,1,1,1,1,36
360223361,359209156,1200.0,0.3562499,0.041958164,1.024978,0.0,255,0,6,4,1,0,1,1,1,1,36
360238444,360226603,1200.0,0.3562499,0.041958164,1.024978,0.0,255,0,6,4,1,0,1,1,1,1,36
361157139,361150727,1200.0,0.3562499,0.04179104,1.4069651,0.0,255,0,6,4,1,0,1,1,1,1,36
362158385,361150727,1200.0,0.3562499,0.041700587,1.263925,0.0,255,0,6,4,1,0,1,1,1,1,36
362201197,362195034,1200.0,0.3562499,0.041700587,1.263925,0.0,255,0,6,4,1,0,1,1,1,1,36
363203282,362195034,1200.0,0.3562499,0.041780483,0.98979956,0.0,255,0,6,4,1,0,1,1,1,1,36
363233521,363231089,1200.0,0.3562499,0.041780483,0.98979956,0.0,255,0,6,4,1,0,1,1,1,1,36
364236169,363231089,1200.0,0.3562499,0.067397125,1.0287974,0.0,255,0,6,4,1,0,1,1,1,1,36
