timestamp,gyro_rad[0],gyro_rad[1],gyro_rad[2],gyro_integral_dt,accelerometer_timestamp_relative,accelerometer_m_s2[0],accelerometer_m_s2[1],accelerometer_m_s2[2],accelerometer_integral_dt
273391065,0.0018334651,-0.0014480565,-0.0023986795,3976,0,1.2000998,0.41879612,-9.518464,3976
273395072,0.008264233,-0.0018454489,-0.0032020996,4007,0,1.113961,0.44301715,-10.008203,4007
273399083,0.010206636,0.000795997,-0.0037248863,4011,0,0.8960365,0.26931792,-9.502034,4011
273403074,-0.0056681326,0.00051854935,-0.002902681,3991,0,1.1462122,0.28044474,-9.832887,3991
273407104,-0.011077805,-0.0025117064,-0.0037297686,4030,0,1.0384619,0.23493266,-9.3281555,4030
273411091,-0.0055117477,0.002368941,-0.0023658534,3987,0,1.2240993,0.5802921,-9.748446,3987
273415071,-0.0011982981,0.0035194529,0.00048268447,3980,0,1.244751,0.47776866,-9.695131,3980
273419065,0.0040240665,0.0013230294,-0.0023718516,3994,0,1.008271,0.513199,-9.873452,3994
273423069,-0.0018888804,0.007765529,-0.0035932572,4004,0,1.0332129,0.17530377,-9.580182,4004
273427077,-0.010530426,0.0015393014,-0.0035391215,4008,0,1.1068085,0.2541449,-9.533901,4008
273431076,-0.0189734,0.0059067355,-0.0015279485,3999,0,1.1026448,0.40270212,-9.552656,3999
273435064,0.00096861593,0.0021189523,0.00043955652,3988,0,1.2227963,0.49004018,-9.682316,3988
273439064,0.004922368,0.0025199535,-0.000973196,4000,0,1.1764346,0.5718081,-9.988225,4000
273443093,0.0123819625,-0.0002567477,-0.0002725009,4029,0,0.96129954,0.37571108,-9.586232,4029
273447107,-0.009294907,0.0042587365,-0.0013860548,4014,0,1.1770366,0.2941245,-9.76021,4014
273451065,-0.01387091,0.00011730625,2.6493246e-05,3958,0,1.1045426,0.2523392,-9.295043,3958
273455066,-0.0143927485,0.0028448345,0.0005251792,4001,0,1.2854,0.5579809,-9.704327,4001
273459065,-0.0068837395,-0.0007829958,-0.00014469257,3999,0,1.2865604,0.567729,-9.630094,3999
273463097,-0.0021389995,-0.0025637688,0.0001866217,4032,0,1.0722522,0.5352883,-9.987841,4032
273467107,-0.0063869944,0.0049488475,0.0014114418,4010,0,1.023846,0.1784877,-9.559629,4010
273471069,-0.018995836,0.0021125688,0.00075002364,3962,0,1.1501005,0.22321685,-9.577225,3962
273475064,-0.027627593,0.0033801938,0.0027847814,3995,0,1.1058512,0.26585624,-9.350997,3995
273479066,-0.00912596,0.0009526836,0.0041618953,4002,0,1.2498038,0.43828318,-9.6624,4002
273483092,-0.0008730832,0.0041538137,0.004970655,4026,0,1.2082881,0.48984125,-9.921971,4026
273487111,0.0062324367,-0.000108721906,0.003119019,4019,0,0.97216475,0.34499267,-9.775986,4019
273491065,-0.0066766194,0.004981854,0.0028068211,3954,0,1.1291695,0.18050402,-9.811365,3954
273495136,-0.011983887,-0.0015919864,0.0029438443,4071,0,1.0724231,0.15825453,-9.376406,4071
273499064,-0.020095196,0.0011678971,0.0052171526,3928,0,1.2174437,0.48407972,-9.640673,3928
273503093,-0.0026771028,-0.0028876278,0.0062501207,4029,0,1.2568499,0.5168876,-9.629249,4029
273507079,0.0072417874,-0.0017518478,0.0035566287,3986,0,1.0941609,0.5308307,-10.11321,3986
273511064,0.00964715,0.002302577,0.0023217453,3985,0,0.9881987,0.26544535,-9.631606,3985
273515115,-0.0067517706,0.0010904222,0.0027083098,4051,0,1.1522222,0.3214418,-9.75888,4051
273519083,-0.015871748,0.0024755297,0.0022077055,3968,0,1.0633124,0.37372005,-9.3545885,3968
273523091,-0.0022164055,-0.0014195816,0.0040020277,4008,0,1.260313,0.61999667,-9.711539,4008
273527066,0.0057533327,-0.00022889879,0.0017142525,3975,0,1.2425978,0.66191953,-9.837435,3975
273531064,0.0121190855,-0.002823822,0.0018659293,3998,0,0.99399966,0.58453774,-9.841187,3998
273535089,-0.0015516364,0.004655922,0.001637903,4025,0,1.1175531,0.344368,-9.828042,4025
273539071,-0.010140294,-0.0037860838,-0.0010554969,3982,0,1.0827092,0.29280964,-9.491906,3982
273543096,-0.02420284,0.003675798,-0.00064914976,4025,0,1.1676188,0.58169156,-9.601873,4025
273547065,-0.008582526,0.00026344782,-0.0004047364,3969,0,1.2385345,0.64063627,-9.591889,3969
273551066,0.0029546742,-0.0005206603,0.00030435168,4001,0,1.1414738,0.60056555,-10.039744,4001
273554315,0.008357909,0.0024199989,-0.0019854065,3249,0,0.9594257,0.39597324,-9.6193695,3249
273558331,-0.011306528,0.0063120145,-0.0032449393,4016,0,1.1561654,0.27084696,-9.8748045,4016
273562302,-0.015341401,-0.0016282889,-0.003720832,3971,0,1.0572671,0.18291265,-9.375348,3971
273566265,-0.015600674,0.003664136,-0.0028185223,3963,0,1.2297401,0.5093957,-9.65901,3963
273570265,-0.00029513193,-9.872531e-05,-0.0014870876,4000,0,1.2527771,0.5730074,-9.576356,4000
273574283,0.00927878,-0.0007188167,-0.0048053283,4018,0,1.055161,0.51953125,-9.966608,4018
273578296,0.0069806,0.004622943,-0.0054358467,4013,0,0.9965332,0.15685724,-9.595577,4013
273582300,-0.010502089,0.00054497266,-0.006931883,4004,0,1.131545,0.20856912,-9.677977,4004
273586266,-0.021396909,0.00065959455,-0.0035432242,3966,0,1.0657289,0.313669,-9.426901,3966
273590271,-0.009566725,-0.00035346055,-0.0038252522,4005,0,1.2414538,0.5241056,-9.69423,4005
273594265,0.0038176647,-0.002076859,-0.0023536973,3994,0,1.2067887,0.5472814,-9.795663,3994
273598296,0.011706772,-0.002419156,-0.0038058008,4031,0,0.98237884,0.39327568,-9.686878,4031
273602266,-0.0035504836,0.005456815,-0.005862589,3970,0,1.1409209,0.19268307,-9.676749,3970
273606265,-0.011059579,-0.0011004176,-0.0052305767,3999,0,1.0871711,0.17626005,-9.349127,3999
273610272,-0.016804388,0.005026668,-0.005388327,4007,0,1.196373,0.48915723,-9.5275955,4007
273614264,-0.005143017,0.00066131196,-0.0029892612,3992,0,1.2546148,0.60085,-9.517353,3992
273618306,0.0029791493,0.0038661628,-0.0033668182,4042,0,1.1039495,0.5662432,-9.893858,4042
273622302,0.0033345406,0.0045289,-0.0040407013,3996,0,0.99036986,0.28078094,-9.532222,3996
273626264,-0.01579131,0.0005406134,-0.0022360773,3962,0,1.1398193,0.25632313,-9.685172,3962
273630271,-0.024834687,0.0025102957,-0.0012908834,4007,0,1.0164423,0.26491755,-9.352279,4007
273634265,-0.01577668,0.0005981372,-0.001626688,3994,0,1.2299913,0.4753697,-9.7039995,3994
273638296,-0.003069908,0.001766592,0.0002397897,4031,0,1.1993561,0.5213806,-9.763461,4031
273642305,0.0069496725,-0.00024297473,-0.0019817138,4009,0,0.9928682,0.47544456,-9.846263,4009
273646291,-0.003223601,0.006895501,-0.002226483,3986,0,1.0928172,0.14425234,-9.697462,3986
273650264,-0.011829148,0.00022441185,-0.0010094681,3973,0,1.1107051,0.15120591,-9.54541,3973
273654265,-0.021311298,0.0058211843,0.0015225428,4001,0,1.1469781,0.42901537,-9.587716,4001
273658306,-0.010637066,0.0018032552,0.0031632604,4041,0,1.2180573,0.553974,-9.741289,4041
273662286,0.0006161295,0.003056347,0.0025364226,3980,0,1.1122742,0.5631689,-10.052385,3980
273666273,0.00574264,0.0058392487,0.0029596111,3987,0,0.9690421,0.32724103,-9.686802,3987
273670280,-0.0108710425,0.0045506516,0.0018622617,4007,0,1.1436602,0.25108162,-9.818346,4007
273674265,-0.023151787,-0.0010736224,0.001958663,3985,0,1.0596416,0.22496586,-9.444734,3985
273678296,-0.016947841,-0.0020349263,0.003805543,4031,0,1.2366341,0.47250605,-9.744327,4031
273682320,-0.0046132533,0.00027887008,0.004138928,4024,0,1.2222326,0.57205915,-9.768349,4024
273686273,0.0073424894,-0.0026532244,0.0018685188,3953,0,1.0602938,0.5676055,-9.959075,3953
273690265,0.0043152254,0.0009188339,0.0012604602,3992,0,1.0980289,0.24411438,-9.703582,3992
273694265,-0.008723478,-0.0018365362,0.0009950016,4000,0,1.1211687,0.18770455,-9.525133,4000
273698296,-0.021880502,0.002656844,0.0023924222,4031,0,1.1376545,0.43859434,-9.38279,4031
273702283,-0.013330052,-0.00076215604,0.003873144,3987,0,1.2842377,0.63182694,-9.636942,3987
273706264,-0.0005735685,0.00060636,0.0026444905,3981,0,1.1599818,0.6120892,-9.882323,3981
273710265,0.010424832,0.00060668297,0.0016014801,4001,0,1.0210941,0.4303872,-9.772396,4001
273714264,-0.007373775,0.0041345158,0.0031061536,3999,0,1.1598988,0.28151143,-9.825155,3999
273718296,-0.017621504,-0.0018213264,0.004852975,4032,0,1.0755113,0.21762425,-9.390964,4032
273722306,-0.01585621,0.00026274778,0.0017840309,4010,0,1.2605965,0.49547386,-9.595916,4010
273726279,0.00080116483,-0.00265108,0.0026838214,3973,0,1.21832,0.64546365,-9.558401,3973
273730327,0.012519495,-0.0023135731,0.0009211893,4048,0,1.0341654,0.627109,-9.842683,4048
273734267,0.01057617,0.004260151,-0.0013178446,3940,0,1.0286552,0.28535804,-9.59849,3940
273738296,-0.003554484,0.0010043657,-0.0019998525,4029,0,1.0964698,0.21956016,-9.586001,4029
273742265,-0.019939449,0.004468719,-0.0023789662,3969,0,1.0700672,0.4016879,-9.372094,3969
273746265,-0.013368534,7.1343755e-05,-0.00092513167,4000,0,1.245895,0.6232273,-9.654026,4000
273750310,0.0014075373,0.00046047158,-0.0028464878,4045,0,1.1304611,0.5861712,-9.756322,4045
273754271,0.009235406,0.0007096168,-0.0032247568,3961,0,0.9869435,0.48288262,-9.746848,3961
273758307,-0.008904775,0.005156258,-0.0041580577,4036,0,1.1117091,0.23877561,-9.768766,4036
273762265,-0.019019488,0.0014137203,-0.0032894458,3958,0,1.0453126,0.16264047,-9.48116,3958
273766265,-0.020019941,0.004423028,-0.0023865048,4000,0,1.1652812,0.3974247,-9.574073,4000
273770314,-0.0046998556,-5.8015125e-05,-0.002442921,4049,0,1.2020769,0.60313094,-9.646295,4049
273774271,0.00651773,0.001942429,-0.0045716185,3957,0,1.0449779,0.5323563,-9.877,3957
273778301,0.009049057,0.0044835163,-0.007828298,4030,0,1.0014334,0.22679618,-9.664881,4030
273782265,-0.004956318,0.00023561977,-0.005638605,3964,0,1.1211311,0.1583064,-9.766139,3964
273786265,-0.017896313,0.00018240113,-0.0045495033,4000,0,1.0557551,0.28680634,-9.474952,4000
273790286,-0.012473584,0.0013297597,-0.0027247204,4021,0,1.2474722,0.5181552,-9.718125,4021
273794271,0.0026594885,-0.0020610874,-0.0015262739,3985,0,1.1868838,0.56786054,-9.718479,3985
273798319,0.010826801,0.0006105107,-0.0030811813,4048,0,1.0592084,0.48880735,-9.743754,4048
273802267,-0.00208551,0.003945736,-0.0025114396,3948,0,1.1451474,0.21789727,-9.673837,3948
273806265,-0.013954199,-0.00059483515,-0.0013644072,3998,0,1.1173159,0.1520759,-9.4960985,3998
273810277,-0.01720223,0.004104405,-0.00029448845,4012,0,1.1723768,0.38130715,-9.478241,4012
273814293,-0.008756444,0.00036168075,-0.002000689,4016,0,1.272661,0.6319879,-9.706524,4016
273818337,0.00635206,-8.726328e-05,-0.002525894,4044,0,1.1133362,0.6165939,-9.901007,4044
273822265,0.010335321,0.005782076,-0.000639927,3928,0,1.0603592,0.31871158,-9.7054825,3928
273826265,-0.0053721773,0.0041115126,-0.0011040377,4000,0,1.1755812,0.19395685,-9.732121,4000
273830273,-0.019943979,0.0004886691,-0.0014965141,4008,0,1.0840662,0.2843594,-9.467369,4008
273834265,-0.015894735,0.0019897213,0.000598544,3992,0,1.2788113,0.514791,-9.683155,3992
273838314,0.0025970603,-0.0012962264,0.0012286803,4049,0,1.2261988,0.6447389,-9.739568,4049
273842265,0.010229154,0.00027178056,-6.3562156e-06,3951,0,1.088718,0.5707908,-9.849285,3951
273846289,0.0051169265,0.0021261747,0.00051281357,4024,0,1.0990483,0.24449264,-9.698095,4024
273850284,-0.012791052,-0.0022023784,-0.0006806147,3995,0,1.1181532,0.15239549,-9.620562,3995
273854287,-0.021919284,0.001559391,0.0022886458,4003,0,1.0920718,0.36756536,-9.453961,4003
273858347,-0.01344649,0.0007557132,0.00331979,4060,0,1.2452542,0.6560934,-9.758537,4060
273862265,0.0051074876,0.0005917307,0.0012555226,3918,0,1.1379756,0.5768593,-9.798289,3918
273866272,0.0127530135,0.0016627307,0.0022659586,4007,0,1.0091147,0.3695891,-9.775541,4007
273870265,-0.0023160598,0.0035757446,-7.764065e-05,3993,0,1.0732325,0.13179007,-9.705293,3993
273874265,-0.015918976,-0.0012773571,0.0012554849,4000,0,1.0486486,0.18224892,-9.502167,4000
273877492,-0.012349685,0.0013841523,0.0017203595,3227,0,1.1611608,0.38598272,-9.494602,3227
273882265,-2.9114733e-05,8.919967e-06,0.003702655,4773,0,1.2022766,0.6057733,-9.708883,4773
273886271,0.011769387,-0.00044943698,0.0018550438,4006,0,1.0598322,0.57188517,-9.803401,4006
273890265,0.0074938186,0.0016753519,0.0007902473,3994,0,1.0345894,0.27172616,-9.680505,3994
273894266,-0.010025364,-0.00034151794,0.0032876635,4001,0,1.0985761,0.1447546,-9.630484,4001
273897498,-0.021267964,0.00020464884,0.0020630534,3232,0,1.075838,0.332752,-9.399713,3232
273901476,-0.018945822,0.0025164196,0.0017021764,3978,0,1.216704,0.5438967,-9.603309,3978
273905465,0.0041167624,-0.001865167,0.0006397144,3989,0,1.1277808,0.6122739,-9.695582,3989
273909465,0.012483964,0.003571594,-0.0007140886,4000,0,1.0450213,0.4898779,-9.830273,4000
273913465,0.0030594713,0.0041324855,0.00046033703,4000,0,1.075452,0.21890613,-9.677382,4000
273917500,-0.011391159,0.002079367,5.6469584e-05,4035,0,1.0853312,0.15309152,-9.584719,4035
273921480,-0.014114136,0.0048141656,-0.001066265,3980,0,1.1426373,0.3498317,-9.4356,3980
273925478,-0.0037225687,0.001256764,1.8325998e-05,3998,0,1.2630724,0.6719408,-9.718163,3998
273929465,0.010337953,0.0030592387,0.00052303285,3987,0,1.0953104,0.6154547,-9.7126,3987
273933465,0.012392993,0.0066805207,-8.887146e-05,4000,0,1.0793977,0.38532764,-9.776897,4000
273937471,-0.004005534,0.004953791,-0.00054859096,4006,0,1.1445026,0.16789518,-9.684588,4006
273941464,-0.019864302,0.00022248282,-0.0017056349,3993,0,1.062773,0.3326393,-9.484095,3993
273945465,-0.01930012,0.0043112948,-0.00204228,4001,0,1.2245951,0.55479777,-9.622619,4001
273949465,9.1355345e-05,-0.0016621224,-0.0034983528,4000,0,1.1878713,0.6400087,-9.714478,4000
273953464,0.011414936,0.0015185329,-0.0034869881,3999,0,1.0619432,0.57081556,-9.889512,3999
273957465,0.007405893,0.00322579,-0.005396662,4001,0,1.0873549,0.23527251,-9.711948,4001
273961465,-0.013839704,0.0018776059,-0.0022606754,4000,0,1.1455982,0.14479148,-9.6738825,4000
273965487,-0.018646935,-6.588753e-05,-0.0031598024,4022,0,1.1307102,0.34309912,-9.393696,4022
273969471,-0.01135224,0.0027103203,-0.002279283,3984,0,1.2625989,0.65188164,-9.724537,3984
273973465,0.006458079,5.2583397e-05,-0.0016837375,3994,0,1.1605325,0.60256153,-9.689712,3994
273977465,0.009875321,0.0018558382,-0.0024643922,4000,0,1.1174325,0.40538195,-9.846562,4000
273981465,-0.0009757188,0.0032591177,-0.00070425245,4000,0,1.0891652,0.1406545,-9.663067,4000
273985474,-0.017976722,-0.0011660398,-0.0020785204,4009,0,1.0748235,0.23047505,-9.552168,4009
273989471,-0.023853822,-0.0009022587,-0.002739089,3997,0,1.1959659,0.43342727,-9.538507,3997
273993465,-0.0023697596,-0.005708782,-0.0025655983,3994,0,1.176618,0.67168427,-9.737707,3994
273997465,0.009878517,-0.0027260322,-0.0025391947,4000,0,1.1006011,0.5432989,-9.815661,4000
274001464,0.009711301,-0.0019665116,-0.002744334,3999,0,1.0935564,0.21908265,-9.751546,3999
274005474,-0.009248752,-0.00043660114,-0.00020363307,4010,0,1.10029,0.11108816,-9.697909,4010
274009471,-0.018269427,0.0001705115,-0.0008185447,3997,0,1.083425,0.28919333,-9.439493,3997
274013465,-0.014874037,0.0017012078,0.00042304597,3994,0,1.2565858,0.6092283,-9.720913,3994
274017465,0.0070623853,-0.00027410238,-0.0002790754,4000,0,1.1158005,0.6174248,-9.607802,4000
274021464,0.012211884,0.0030540861,-0.00017407673,3999,0,1.0801222,0.45152357,-9.838509,3999
274025473,-0.0010280771,0.0019257412,-0.0017284078,4009,0,1.0655881,0.12789467,-9.614853,4009
274029471,-0.020798553,0.00207828,-0.0014192506,3998,0,1.073959,0.21425724,-9.559885,3998
274033465,-0.023085775,0.0037971402,0.0007587883,3994,0,1.1608845,0.39996722,-9.409957,3994
274037465,-0.006268832,-0.001845083,-0.00012331197,4000,0,1.1905442,0.6523144,-9.722656,4000
274041471,0.008242466,0.00060837506,0.0038801935,4006,0,1.0890536,0.5391997,-9.741644,4006
274045479,0.006324005,0.00081683625,0.0010802529,4008,0,1.0472552,0.2998432,-9.777872,4008
274049487,-0.010400634,0.004564323,0.0014511133,4008,0,1.095168,0.086522706,-9.706098,4008
274053464,-0.019947778,0.0027742423,0.003705295,3977,0,1.0651548,0.2546595,-9.455625,3977
274057464,-0.01976237,0.004676123,0.0039095436,4000,0,1.2160465,0.5954903,-9.69618,4000
274061471,0.005728043,0.0034885623,0.0023322024,4007,0,1.1211852,0.64664435,-9.609562,4007
274065499,0.014039463,0.0060355193,6.196509e-05,4028,0,1.0983796,0.47564673,-9.819584,4028
274069503,0.0031434167,0.0022401435,0.0020297552,4004,0,1.070738,0.15555102,-9.564787,4004
274073465,-0.020276798,0.0021601028,0.0005154953,3962,0,1.0758294,0.28292575,-9.589748,3962
274077464,-0.022522246,0.0035762698,-0.000187174,3999,0,1.1234666,0.4060718,-9.397142,3999
274081471,-0.0059093945,0.001599165,0.0014425388,4007,0,1.1942805,0.7034333,-9.80407,4007
274085465,0.007995965,0.00078991044,0.00070782,3994,0,1.0929258,0.6148393,-9.711713,3994
274089465,0.008590196,0.0007865828,-0.0010018083,4000,0,1.0966583,0.4005399,-9.8544655,4000
274093464,-0.0075312993,0.0008120802,0.001107836,3999,0,1.1221191,0.12705699,-9.693071,3999
274097465,-0.019618819,-0.0021325313,0.0015158986,4001,0,1.0909932,0.31840804,-9.479956,4001
274101471,-0.020076664,0.0023170991,0.0024179802,4006,0,1.2517726,0.6088397,-9.570738,4006
274105464,0.0042458125,-0.0005696632,0.00084628887,3993,0,1.1683996,0.66674966,-9.622266,3993
274109465,0.0105019575,0.0021797959,-0.0020253772,4001,0,1.130054,0.51400054,-9.852476,4001
274113490,0.004678443,0.0011046324,-0.0034258512,4025,0,1.0821775,0.23052336,-9.609897,4025
274117464,-0.018459182,0.0017323566,-0.0027457988,3974,0,1.1358652,0.23574589,-9.6632395,3974
274121465,-0.023316821,0.0020611205,-0.0013643736,4001,0,1.148299,0.32830954,-9.390226,4001
274125465,-0.012398708,-0.0024653582,-0.0021728226,4000,0,1.2212665,0.65715873,-9.812754,4000
274129473,0.0068682325,-0.0008327744,-0.0019789396,4008,0,1.12444,0.5878841,-9.672415,4008
274133513,0.006891981,-7.6385215e-05,-0.0041037677,4040,0,1.1410484,0.38755843,-9.916452,4040
274137465,-0.0040047774,0.00339575,-0.0035127248,3952,0,1.0816082,0.07576804,-9.657563,3952
274141464,-0.015284781,-0.0013042652,-0.00338675,3999,0,1.0947706,0.24061966,-9.54464,3999
274145465,-0.022622371,0.002717813,-0.0041379435,4001,0,1.2248411,0.43348047,-9.494598,4001
274149465,-0.0032939727,-0.002684166,-0.0022898335,4000,0,1.1388178,0.6244475,-9.733905,4000
274153510,0.007714955,0.0021436096,-0.004111845,4045,0,1.1040715,0.53216577,-9.850315,4045
274157465,0.0070684347,-0.0014682751,-0.002176181,3955,0,1.0858461,0.28596738,-9.8116,3955
274161465,-0.015591329,0.0018031949,-0.0015248707,4000,0,1.0836681,0.1782894,-9.7827635,4000
274165465,-0.018275036,-0.0011526159,-0.0018759951,4000,0,1.0527833,0.22874795,-9.418418,4000
274169465,-0.015594275,0.0029203272,-0.0020460908,4000,0,1.2286202,0.62111884,-9.75714,4000
274172679,0.006432998,-0.004062557,-0.001568718,3214,0,1.1167364,0.61242163,-9.434944,3214
274176665,0.014245151,-0.00060909294,-0.0041372175,3986,0,1.0952579,0.5217165,-9.876647,3986
274179899,0.012900641,-0.0015605537,-0.004771338,3234,0,1.0210644,0.2776359,-9.610627,3234
274184671,-0.010507762,0.0033972855,-0.0052056904,4772,0,1.088107,0.18087664,-9.706293,4772
274188706,-0.019096483,0.0017715273,-0.0031881295,4035,0,1.1000808,0.35869443,-9.391635,4035
274192665,-0.009480004,-0.0006273501,-0.0016988843,3959,0,1.1609613,0.7101092,-9.787893,3959
274196664,0.0078249825,-0.0016985275,-0.0031158756,3999,0,1.1183828,0.64878047,-9.540597,3999
274200717,0.009788371,0.00014524869,-0.0029837312,4053,0,1.0995766,0.48763987,-9.817474,4053
274204671,-0.004766506,0.0051142843,-0.0034374623,3954,0,1.0562941,0.12560587,-9.605764,3954
274208678,-0.016230902,0.0008641304,-0.0037668785,4007,0,1.0893018,0.21639907,-9.529167,4007
274212665,-0.02456314,0.0017610037,-0.0010698996,3987,0,1.2011532,0.5055473,-9.599256,3987
274216699,-0.0008070777,-0.002263459,-0.0014858465,4034,0,1.1182472,0.649953,-9.638593,4034
274220720,0.00922694,0.005173014,-0.0010124776,4021,0,1.1407727,0.51724696,-9.864716,4021
274224671,0.008038304,-0.0016028481,-0.0024934637,3951,0,1.0616202,0.19226763,-9.618221,3951
274228664,-0.019726185,0.0035306201,0.00040952745,3993,0,1.1122948,0.18541199,-9.706284,3993
274232665,-0.026039883,0.0014499144,-0.0002502065,4001,0,1.0927763,0.21408764,-9.36661,4001
274236664,-0.01820184,0.0017948615,-0.00029279204,3999,0,1.208361,0.5799428,-9.874012,3999
274240706,0.0056417286,0.0011414116,0.0010684938,4042,0,1.1110766,0.5892858,-9.602227,4042
274244704,0.006408932,0.00227478,-0.00051290647,3998,0,1.148486,0.3965588,-9.952899,3998
274248665,-0.0034512593,0.0037071402,0.00042908854,3961,0,1.0847985,-0.040026207,-9.582841,3961
274252664,-0.01928595,0.0014789248,0.0014951986,3999,0,1.1132869,0.13615692,-9.556744,3999
274256671,-0.025917875,0.0043408223,0.0024989361,4007,0,1.192247,0.39578274,-9.44675,4007
274260694,0.00072413473,-0.0003291774,0.003421588,4023,0,1.1478581,0.65360904,-9.692753,4023
274264665,0.016722972,0.004973246,0.0010582483,3971,0,1.1394198,0.5084241,-9.853261,3971
274268676,0.017133301,0.0011365584,0.0015256449,4011,0,1.0648757,0.27769005,-9.704911,4011
274272699,-0.010832023,0.003154665,0.0023091745,4023,0,1.1222751,0.20003764,-9.743453,4023
274276671,-0.016406586,-0.0018213047,0.0029570807,3972,0,1.0896808,0.31675568,-9.386531,3972
274280665,-0.010663706,0.0001952109,0.0029660328,3994,0,1.2043002,0.7023408,-9.778108,3994
274284687,0.011762097,-0.00021395851,0.0032312209,4022,0,1.1631243,0.697751,-9.552746,4022
274288664,0.0125689795,0.0007877093,0.00015387127,3977,0,1.1520252,0.579696,-10.041048,3977
274292664,0.0014451822,-0.0005755454,0.0013067721,4000,0,1.0119615,0.14999239,-9.6511135,4000
274296671,-0.01827352,0.002058121,0.0015137886,4007,0,1.1520755,0.29133886,-9.730361,4007
274300699,-0.027033769,0.0018655456,0.0002633137,4028,0,1.1651912,0.5194647,-9.464465,4028
274304670,-0.0053210757,-0.0009673088,0.0016935335,3971,0,1.1623136,0.745275,-9.778061,3971
274308665,0.011002785,0.003469954,-0.00032378407,3995,0,1.1953329,0.58733463,-9.750793,3995
274312665,0.011341626,-0.001222689,-0.0013464199,4000,0,1.0921764,0.4050331,-9.829056,4000
274316671,-0.010732288,0.0040810355,-0.0014423616,4006,0,1.0453874,0.1710707,-9.743353,4006
274320665,-0.019281542,-0.00079546456,0.00085884496,3994,0,1.0838245,0.23609902,-9.524022,3994
274324672,-0.019146925,0.00017473166,0.00012143097,4007,0,1.1822655,0.5955536,-9.682435,4007
274328684,0.005991306,-0.0029991197,0.0019575544,4012,0,1.1184989,0.637654,-9.463937,4012
274332665,0.0070749093,0.0016442849,-0.0015655853,3981,0,1.1878266,0.4711955,-9.897436,3981
274336673,0.005003099,0.00026033854,-0.00064288493,4008,0,1.050683,0.10983352,-9.549098,4008
274340665,-0.011920773,0.0021415553,-0.0011120006,3992,0,1.1366047,0.24158692,-9.714931,3992
274344665,-0.01947848,0.0039102933,-0.0021587394,4000,0,1.1324664,0.36042047,-9.397343,4000
274348684,-0.003552246,-0.00027629585,-0.00038565675,4019,0,1.1757518,0.6302472,-9.77431,4019
274352664,0.012661568,0.0021031452,-0.002635284,3980,0,1.1157852,0.53818685,-9.573648,3980
274356690,0.012386323,0.0012164139,-0.0014442792,4026,0,1.0810984,0.4172835,-9.839152,4026
274360674,-0.003945811,0.0048996834,-0.0017393272,3984,0,1.0374106,0.12713848,-9.660941,3984
274364665,-0.013233604,-0.0005674043,-0.0017590182,3991,0,1.0557562,0.21795602,-9.542788,3991
274368701,-0.0175313,0.001657798,-0.0017791028,4036,0,1.1639974,0.53348786,-9.671309,4036
274372664,0.005582183,0.0006884489,-0.0023395112,3963,0,1.122158,0.7137498,-9.560067,3963
274376664,0.010536784,0.0035797807,-0.0040636426,4000,0,1.1722921,0.52541274,-9.895466,4000
274380665,0.010779913,0.0008879982,-0.0023325777,4001,0,1.0347228,0.16695012,-9.584173,4001
274384704,-0.014211301,0.0030329835,-0.001497648,4039,0,1.1485482,0.23234501,-9.775921,4039
274388702,-0.023676269,-9.262625e-05,-0.0021044153,3998,0,1.0899537,0.30743295,-9.389457,3998
274400665,0.006064594,0.00060942216,-0.0020134633,4000,0,1.129685,0.46890658,-9.901856,4000
274404665,-0.006216086,0.0028656044,-0.0016728073,4000,0,1.0233393,0.067132406,-9.632424,4000
274408703,-0.018403497,-0.00197571,-0.00059107767,4038,0,1.123909,0.12018727,-9.601151,4038
274412705,-0.02241458,0.00030196787,4.879646e-05,4002,0,1.1840141,0.4569076,-9.555705,4002
274416665,0.0006410142,-0.0016434605,0.001092226,3960,0,1.1433966,0.6938558,-9.643447,3960
274420665,0.011592235,0.0044772574,0.00021061992,4000,0,1.2206267,0.52929986,-9.860866,4000
274424665,0.012251472,-0.0012023292,0.0015620923,4000,0,1.0560308,0.18277599,-9.689051,4000
274428664,-0.013991666,0.0038815707,0.0008339462,3999,0,1.1393621,0.17712815,-9.787454,3999
274432665,-0.025230762,-0.001974934,0.00031822958,4001,0,1.1217251,0.29019505,-9.40687,4001
274436671,-0.014717602,-0.001194996,0.0021416044,4006,0,1.200831,0.643395,-9.767474,4006
274440671,0.008948017,-0.0005137598,0.0029547813,4000,0,1.1888973,0.6231968,-9.527476,4000
274444664,0.01128818,-0.001413256,-6.53762e-05,3993,0,1.1593958,0.5246243,-9.993873,3993
274448665,0.005885699,-0.0014198867,0.0007721265,4001,0,1.0034531,0.09737117,-9.562335,4001
274452688,-0.01063083,-0.0004223087,0.00284841,4023,0,1.1766088,0.20960413,-9.70207,4023
274455902,-0.02273132,-3.6823785e-05,0.0011089344,3214,0,1.11981,0.46667987,-9.362113,3214
274459865,-0.0068721226,0.0007539775,0.0024952777,3963,0,1.1652119,0.7407659,-9.749456,3963
274463082,0.01795749,0.0020551735,0.002095755,3217,0,1.1729925,0.6480557,-9.550078,3217
274467864,0.01714721,0.0014908175,-0.0004462309,4782,0,1.1152517,0.5046878,-9.957106,4782
274471881,-0.0048590214,0.0036477537,0.00038641007,4017,0,1.0433486,0.18313691,-9.672504,4017
274475099,-0.01797115,-0.001979954,-0.0011544998,3218,0,1.1072507,0.27727902,-9.5770645,3218
274479865,-0.022704016,-0.0018629489,0.00023762787,4766,0,1.0965759,0.5753413,-9.460204,4766
274483106,-0.00033496253,-0.004061277,0.0006756454,3241,0,1.1059517,0.76837134,-9.596935,3241
274487865,0.008025163,0.0016093781,-0.0005479737,4759,0,1.1639029,0.55458826,-9.823014,4759
274491871,0.008142537,-0.0009207272,-0.0024786366,4006,0,0.998926,0.20777053,-9.637253,4006
274495865,-0.013948491,0.005567048,-0.0030035684,3994,0,1.1170746,0.20466262,-9.726478,3994
274499865,-0.025948578,0.0013859633,-0.003145536,4000,0,1.0855986,0.33913258,-9.370156,4000
274503140,-0.015226133,0.003298526,-0.0014350136,3275,0,1.131191,0.62227917,-9.681507,3275
274507865,0.0090067545,0.0037648305,-0.0035796552,4725,0,1.1298277,0.5756089,-9.526154,4725
274511906,0.009839463,0.0031219383,-0.004496715,4041,0,1.1244445,0.39805272,-9.910539,4041
274515865,-0.0071607213,0.005161838,-0.003480998,3959,0,1.0278407,0.06354788,-9.664454,3959
274519876,-0.02165067,0.00065097795,-0.0040745796,4011,0,1.0989542,0.14987515,-9.665538,4011
274523138,-0.026304185,0.0009656632,-0.00283998,3262,0,1.1159929,0.42756402,-9.524644,3262
274527865,-0.00674809,-0.00032205347,-0.0016331258,4727,0,1.174294,0.6075982,-9.673115,4727
274531871,0.0032988626,0.004307159,-0.0028364598,4006,0,1.2394974,0.45902914,-9.864719,4006
274535865,0.005600544,0.0017430964,-0.0020250068,3994,0,1.0770161,0.16835032,-9.760582,3994
274539900,-0.015509347,0.007711233,-0.0021910449,4035,0,1.154958,0.1087136,-9.8184595,4035
274543905,-0.024296343,0.0032714177,-0.0024522468,4005,0,1.1019096,0.24745978,-9.452845,4005
274547865,-0.014191355,0.0027172437,0.00011495028,3960,0,1.1771005,0.5522117,-9.719381,3960
274551865,0.013351674,0.0039842166,-0.0005918807,4000,0,1.2077987,0.55706143,-9.478375,4000
274555865,0.012761601,0.0016473942,-0.0029179503,4000,0,1.1669157,0.4934002,-9.943033,4000
274559865,-0.0007108741,0.0014861311,-0.0015273173,4000,0,1.0254718,0.12761714,-9.608416,4000
274563901,-0.020761156,3.862837e-05,0.0009402417,4036,0,1.1699632,0.21625403,-9.734127,4036
274567865,-0.025388049,0.0010453287,0.00028227922,3964,0,1.1041204,0.48911402,-9.463147,3964
274571865,-0.009338432,-0.000618036,0.0023603751,4000,0,1.1786902,0.7217577,-9.668963,4000
274575865,0.00337553,-0.00039122294,-0.00012593778,4000,0,1.2431562,0.5719575,-9.714696,4000
274579865,0.004280101,-0.0015907579,-0.001494959,4000,0,1.0730218,0.33084872,-9.747395,4000
274583869,-0.014827114,0.005373604,0.0010118708,4004,0,1.1224531,0.17050762,-9.724542,4004
274587865,-0.024120817,-0.00054481963,-8.41847e-05,3996,0,1.1458018,0.2633445,-9.506319,3996
274591864,-0.015554887,0.004113361,0.00037086918,3999,0,1.1538599,0.5652328,-9.638766,3999
274595865,0.00915292,0.0014563301,0.0008403122,4001,0,1.1693559,0.63358164,-9.553379,4001
274599865,0.010017352,0.0011764133,0.000832497,4000,0,1.1673963,0.553234,-9.986068,4000
274603923,0.0030527648,-0.00035228295,0.0011234761,4058,0,0.99269193,0.17612751,-9.647411,4058
274607865,-0.016151529,-0.0028625983,0.002466204,3942,0,1.1196144,0.21871708,-9.791869,3942
274611915,-0.026101554,-0.0019429622,0.0027572922,4050,0,1.0697893,0.44209644,-9.478009,4050
274615865,-0.0106914425,-0.003129142,0.0030031297,3950,0,1.1446682,0.73796195,-9.725953,3950
274619865,0.0046737655,0.0012264648,0.0010737013,4000,0,1.2114587,0.5520366,-9.666891,4000
274623906,0.00868038,2.8000543e-06,0.000611304,4041,0,1.0762113,0.35887718,-9.809081,4041
274627865,-0.00849396,0.006394851,0.0016936386,3959,0,1.0429672,0.13952452,-9.660737,3959
274631864,-0.018588826,0.0010237887,-0.000406519,3999,0,1.1080287,0.18955524,-9.518546,3999
274635865,-0.015337651,0.0034648562,-0.0004611929,4001,0,1.0734234,0.5114741,-9.583289,4001
274639864,0.009010775,0.00044863095,0.001062832,3999,0,1.1190863,0.6815218,-9.543918,3999
274643875,0.012542262,0.000995413,-0.0025092964,4011,0,1.1589566,0.5384963,-9.895585,4011
274647864,0.01015739,-0.00047989486,-0.0010591325,3989,0,0.9938914,0.19099106,-9.639895,3989
274651900,-0.011813122,0.0016319347,0.00026630246,4036,0,1.1221778,0.18350385,-9.754726,4036
274655871,-0.025238017,-0.0018160162,0.00021620173,3971,0,1.0789527,0.39127517,-9.411051,3971
274659865,-0.0150713,0.0022162483,-0.0010874002,3994,0,1.1431558,0.6854391,-9.720174,3994
274663864,0.0052873557,0.0067444043,-0.002594947,3999,0,1.2286807,0.5641072,-9.639898,3999
274667864,0.009205148,0.0038423028,-0.0050270734,4000,0,1.1248657,0.4090945,-9.960347,4000
274671877,-0.007154256,0.008459566,-0.003192378,4013,0,1.0514636,0.12847915,-9.704375,4013
274675871,-0.022293167,0.0014084178,-0.0020853952,3994,0,1.1540772,0.18882121,-9.685517,3994
274679864,-0.021571731,0.0040966338,-0.0026097905,3993,0,1.0837427,0.4877768,-9.575618,3993
274683865,0.002432149,0.0001509993,-0.0031436544,4001,0,1.1727357,0.6851576,-9.657945,4001
274687887,0.008687348,1.6023994e-05,-0.003755786,4022,0,1.2297319,0.5357333,-9.889632,4022
274691912,0.010070448,-0.004730139,-0.0028206154,4025,0,1.0401092,0.22532026,-9.720202,4025
274695871,-0.01181401,0.00021730344,-0.0027000862,3959,0,1.1664708,0.14659634,-9.732069,3959
274699877,-0.026398297,-0.005440613,-0.0051103276,4006,0,1.1382594,0.32786867,-9.422973,4006
274703865,-0.019588849,-0.0013317198,-0.0026418662,3988,0,1.1638552,0.6303922,-9.569879,3988
274707874,0.0014999177,0.0006834142,-0.0017775397,4009,0,1.2640938,0.6039409,-9.537894,4009
274711875,0.006185528,0.0003639665,-0.004023684,4001,0,1.1516539,0.42784554,-9.855122,4001
274715871,-0.0057595246,0.0040952936,-0.0024955892,3996,0,1.0394951,0.10757791,-9.604561,3996
274719865,-0.022991074,0.0025609373,-0.0021086154,3994,0,1.1624389,0.13630733,-9.644095,3994
274723865,-0.023538258,0.0023470875,-0.0041261977,4000,0,1.0684296,0.42021027,-9.409982,4000
274727876,-0.0047576064,0.0009306263,-0.0012937762,4011,0,1.1396534,0.68461686,-9.6274,4011
274731868,0.0056832237,0.0002739608,-0.0011593857,3992,0,1.2244942,0.50795907,-9.777059,3992
274735865,0.005107476,-0.0009087326,-0.0020181206,3997,0,1.0263422,0.21945897,-9.808469,3997
274739865,-0.015934058,0.0027937468,-0.0018431584,4000,0,1.0859733,0.12299995,-9.776254,4000
274743866,-0.027096217,-0.00035677597,-0.0006918657,4001,0,1.1034175,0.2797885,-9.522655,4001
274747871,-0.020544555,0.0020950488,0.0009246408,4005,0,1.1141928,0.56554323,-9.600492,4005
274751900,0.003927015,-0.0008408203,0.0020041997,4029,0,1.179003,0.59654236,-9.528008,4029
274755865,0.007158588,0.0004791811,0.000676342,3965,0,1.1526115,0.48813233,-9.870129,3965
274759871,-0.0022896123,0.004560628,0.002675558,4006,0,1.007976,0.12904947,-9.630325,4006
274763116,-0.017221492,0.0073521477,0.0020884627,3245,0,1.1482173,0.09384012,-9.79241,3245
274767871,-0.021881077,0.0032084724,3.5068402e-05,4755,0,1.0181421,0.38519207,-9.486992,4755
274771887,-0.0064707357,0.0032791272,0.0039908965,4016,0,1.1122917,0.73901415,-9.694536,4016
274775865,0.013289074,0.0040138587,0.002385157,3978,0,1.2297361,0.5453442,-9.62614,3978
274779870,0.0136446245,-0.00088295306,0.0014597662,4005,0,1.0494043,0.34018,-9.825378,4005
274783114,-0.0037384294,0.0010220978,0.0017697321,3244,0,0.9997584,0.21672222,-9.616956,3244
274787064,-0.018319115,-0.00019665851,0.0022820781,3950,0,1.1242611,0.29035178,-9.667148,3950
274791065,-0.018965118,0.002512658,0.0016018692,4001,0,1.022153,0.5297743,-9.527653,4001
274795076,-0.00013172296,0.001392381,0.004020366,4011,0,1.1478231,0.76215816,-9.668314,4011
274798335,0.009129401,0.0010524516,0.00266901,3259,0,1.2484344,0.6156001,-9.795714,3259
274803063,0.009236872,-0.0022537785,0.001019617,4728,0,1.034874,0.34688362,-9.815478,4728
274807083,-0.011664036,0.0069830627,0.0005464007,4020,0,1.1334085,0.17274316,-9.783364,4020
274811065,-0.022477418,0.0016535313,0.0013206528,3982,0,1.1054602,0.39173812,-9.5289755,3982
274815068,-0.014674696,0.005812573,0.00017334377,4003,0,1.1499699,0.66504717,-9.612346,4003
274818321,0.008984519,0.0022181435,0.00016990416,3253,0,1.242007,0.613978,-9.56148,3253
274823114,0.010678096,0.00075886236,-0.0014594996,4793,0,1.1993885,0.45477676,-9.906912,4793
274827085,-0.0014793373,0.0006680745,-0.002195973,3971,0,1.018168,0.19722916,-9.650963,3971
274831065,-0.019677114,-0.0019441132,-0.0029616319,3980,0,1.169955,0.19862533,-9.723886,3980
274835064,-0.01919429,-0.002835412,-0.002748395,3999,0,1.0557654,0.38832495,-9.445255,3999
274839093,-0.0036350316,-0.0026183883,-0.00060060504,4029,0,1.1874439,0.6714765,-9.638986,4029
274843114,0.008630297,-0.0009367552,-0.005149556,4021,0,1.2559636,0.5362338,-9.731622,4021
274847071,0.009244811,-0.0006812772,-0.0046534813,3957,0,1.0621812,0.27987087,-9.789631,3957
274851065,-0.0083054695,0.0049397866,-0.0029816662,3994,0,1.1078767,0.091261335,-9.693956,3994
274855065,-0.021852618,-0.000389881,-0.0027004872,4000,0,1.1019822,0.30250913,-9.5324,4000
274859110,-0.01765528,0.0028194233,-0.0030568987,4045,0,1.0882565,0.55488807,-9.531857,4045
274863114,0.007085734,0.0027230168,-0.0018018016,4004,0,1.2121989,0.5602772,-9.550459,4004
274867071,0.010920252,0.00018798017,-0.0042615305,3957,0,1.1421245,0.4406712,-9.877904,3957
274871071,0.0022212283,-0.00091373024,-0.002610538,4000,0,0.99463016,0.22404021,-9.65422,4000
274875064,-0.015353395,0.0010011393,-0.0032093008,3993,0,1.1669115,0.15459588,-9.754684,3993
274879083,-0.019459063,-0.001991241,-0.005085983,4019,0,1.0347751,0.3516698,-9.444624,4019
274883114,-0.0084490245,-0.0008028775,-0.0014301426,4031,0,1.1595443,0.6792724,-9.638406,4031
274887112,0.0077891396,0.0011961908,-0.00027535966,3998,0,1.2182716,0.5565984,-9.63084,3998
274891072,0.012257987,0.001514339,-0.0027399408,3960,0,1.0617828,0.32270882,-9.873891,3960
274895065,-0.003696188,0.0048021902,-0.0021486017,3993,0,1.0542135,0.09243425,-9.702096,3993
274899064,-0.022073595,-0.0012895155,-0.00057255616,3999,0,1.0812334,0.27605063,-9.635982,3999
274903071,-0.018166501,0.0025147416,-0.00019678765,4007,0,1.0310798,0.5284362,-9.479897,4007
274907111,0.005796162,0.0013105356,-0.00031374505,4040,0,1.1770905,0.63227147,-9.565902,4040
274911079,0.009765294,-0.00015099352,0.00010692395,3968,0,1.1807919,0.512181,-9.792493,3968
274915081,0.0065246527,0.0005953009,-0.0010334278,4002,0,0.99570316,0.2743492,-9.684959,4002
274919065,-0.014517522,0.001440489,0.00030741582,3984,0,1.143677,0.14067659,-9.742272,3984
274923103,-0.018290192,-0.0022622845,0.0003714155,4038,0,1.0442345,0.37925082,-9.473643,4038
274927082,-0.009902235,0.003182583,0.0021140054,3979,0,1.1493989,0.72478354,-9.624593,3979
274931071,0.012464531,0.0014595303,0.0015285688,3989,0,1.2593004,0.5645843,-9.604822,3989
274935065,0.013034142,-0.000478126,-0.00067826675,3994,0,1.1230278,0.3640983,-9.893602,3994
274939065,4.9213963e-06,0.0031603735,0.0011470501,4000,0,1.0419433,0.14924687,-9.673013,4000
274943105,-0.019920105,0.002301245,0.00041204962,4040,0,1.146626,0.28112426,-9.738198,4040
274947102,-0.015983684,0.0011699697,0.0025353709,3997,0,1.0425844,0.4794171,-9.529003,3997
274951065,0.003917582,0.0016572137,0.00229325,3963,0,1.1958445,0.66673493,-9.705338,3963
274955083,0.011713951,0.0010177969,0.0022540807,4018,0,1.2305188,0.5147796,-9.822245,4018
274959065,0.006224804,-0.00065546576,0.0029091302,3982,0,1.037278,0.2792035,-9.7927475,3982
274963108,-0.012137676,0.003487982,0.0021701448,4043,0,1.1626071,0.1343213,-9.802335,4043
274967083,-0.02010066,-0.00021182597,0.0032955182,3975,0,1.05966,0.36579788,-9.548237,3975
274971065,-0.012260408,0.0008374833,0.003457873,3982,0,1.1266264,0.64440507,-9.589649,3982
274975071,0.0062245643,0.00083445356,0.0036526788,4006,0,1.2545729,0.53713226,-9.5823555,4006
274979065,0.0074398434,-0.00087761146,0.0015498204,3994,0,1.113114,0.36398393,-9.836833,3994
274983094,0.000416531,0.0012422582,0.0021361317,4029,0,1.0120968,0.14510576,-9.567858,4029
274987065,-0.019629482,0.0021665934,0.00084573246,3971,0,1.1724609,0.21845432,-9.673555,3971
274991065,-0.01779855,-0.00024099101,0.0022805182,4000,0,1.0109352,0.4276977,-9.40363,4000
274995067,-8.753893e-05,0.0017115128,0.0013760388,4002,0,1.1605116,0.67371815,-9.632918,4002
274999064,0.01131631,0.001113964,0.00012329423,3997,0,1.2173009,0.49306878,-9.688167,3997
275003108,0.007786715,-0.0018507424,0.000603833,4044,0,1.0365927,0.30682093,-9.834067,4044
275007091,-0.004889069,0.0027989633,-2.6140708e-05,3983,0,1.0839705,0.12445278,-9.6950245,3983
275011065,-0.0154069755,-0.001938745,0.00095215195,3974,0,1.0499303,0.3421384,-9.566474,3974
275015067,-0.01256633,0.0019873253,0.00067129714,4002,0,1.0729296,0.60375863,-9.535187,4002
275019064,0.008256866,-0.00037202402,-0.0013127071,3997,0,1.2028494,0.63650423,-9.6350355,3997
275023072,0.012223151,6.488096e-05,-0.0028385958,4008,0,1.1362848,0.46947768,-9.917274,4008
275027083,0.0045364522,-0.00027137983,-0.0006603117,4011,0,1.01597,0.24267045,-9.694426,4011
275031073,-0.016549857,0.0018938766,-0.0006856514,3990,0,1.1499692,0.25907633,-9.744638,3990
275035073,-0.016851319,-0.0011060608,-0.002161725,4000,0,0.99979615,0.46641174,-9.453698,4000
275039083,-0.0043908684,0.0024859032,-0.002136658,4010,0,1.1825947,0.7246758,-9.643784,4010
275043102,0.009598753,0.00077996013,-0.0047028093,4019,0,1.2584153,0.5805305,-9.674602,4019
275047083,0.0069967695,-0.002069692,-0.003978798,3981,0,1.066457,0.3954068,-9.932957,3981
275051065,-0.0025015045,0.0045966455,-0.0045643765,3982,0,1.0637069,0.15702242,-9.661086,3982
275055081,-0.022140162,-0.0015660957,-0.0032326176,4016,0,1.126665,0.334598,-9.642994,4016
275059064,-0.020052237,4.705222e-05,-0.0034092446,3983,0,1.062901,0.54978055,-9.486339,3983
275063084,0.0009541874,-0.0023024306,-0.004646229,4020,0,1.2268728,0.6376953,-9.649822,4020
275067070,0.009377688,-0.0022977823,-0.004676763,3986,0,1.196846,0.42376322,-9.821524,3986
275074287,-0.013890977,0.0065456154,-0.0036674521,3221,0,1.1739031,0.07778731,-9.772952,3221
275077511,-0.018692028,-0.00021178027,-0.0037470204,3224,0,1.0931827,0.31248143,-9.588689,3224
275082293,-0.014912266,0.005651973,-0.0040003755,4782,0,1.1033461,0.5645138,-9.503834,4782
275086264,0.00714597,0.0040675304,-0.0054116123,3971,0,1.2634313,0.5610218,-9.59961,3971
275090265,0.009338332,0.0018285231,-0.0057939794,4001,0,1.1421648,0.38625348,-9.927668,4001
275094306,0.0007299075,0.0022769396,-0.0026769508,4041,0,1.0158501,0.16132979,-9.689618,4041
275098296,-0.023202812,0.0013493885,-0.0017732446,3990,0,1.1569953,0.1873802,-9.777733,3990
275102306,-0.022436026,-0.00065069407,-0.0019697605,4010,0,0.968079,0.39662212,-9.410949,4010
275106271,-0.006364669,0.0017210512,-0.0027024508,3965,0,1.1920595,0.62170035,-9.656381,3965
275110267,0.008895875,-0.0016591451,-0.0017174158,3996,0,1.2571604,0.47120568,-9.624153,3996
275114265,0.006527657,0.0003822232,0.0008744584,3998,0,1.0821245,0.29183596,-9.86149,3998
275118296,-0.0060627526,0.0017774567,-0.00046236828,4031,0,1.0980395,0.069602706,-9.661772,4031
275122273,-0.016942691,-0.00040201863,-0.0001564043,3977,0,1.1018014,0.29559886,-9.601673,3977
275126271,-0.016719928,0.0035764363,0.0015236173,3998,0,1.0777855,0.5218968,-9.358399,3998
275130265,0.003521624,0.0047581526,0.0009976464,3994,0,1.224933,0.6118184,-9.545875,3994
275134264,0.008322817,0.00039938992,0.00080848613,3999,0,1.1551329,0.41208047,-9.770302,3999
275138296,0.0010168734,0.0011601234,0.0040534814,4032,0,1.0330408,0.22042829,-9.678991,4032
275142293,-0.023088673,0.0021791947,0.0035345254,3997,0,1.1555221,0.21042123,-9.742286,3997
275146271,-0.022300992,-0.0022352792,0.0023153506,3978,0,0.99302644,0.3951941,-9.455654,3978
275150265,-0.009809359,0.0033795394,0.0019998122,3994,0,1.1862528,0.61275226,-9.620847,3994
275154271,0.0071823983,9.4675655e-05,0.003556811,4006,0,1.2669096,0.5032613,-9.611649,4006
275158342,0.008342982,0.001491446,0.0025185337,4071,0,1.082156,0.3744216,-9.95182,4071
275162265,-0.0017594992,0.0031661834,0.0036732354,3923,0,1.0432724,0.099898964,-9.697895,3923
275166264,-0.017612036,0.0020521067,0.004931749,3999,0,1.0905473,0.29711816,-9.715399,3999
275170290,-0.015314889,0.0048713,0.00389766,4026,0,0.9958863,0.5464657,-9.443809,4026
275174265,0.0040384596,0.0046345354,0.003563329,3975,0,1.1945032,0.6674826,-9.641817,3975
275178340,0.010084692,-0.00016442993,0.00159167,4075,0,1.1902063,0.4494642,-9.774251,4075
275182265,0.0024034118,-0.0033356114,0.0018950074,3925,0,1.0259277,0.33410352,-9.761823,3925
275186265,-0.016525935,0.0024018267,0.00047648983,4000,0,1.1396157,0.25249836,-9.697224,4000
275190264,-0.017546656,-0.0023786922,-3.6793994e-05,3999,0,1.0302491,0.40941802,-9.450545,3999
275194268,-0.012063701,0.003256497,0.000991467,4004,0,1.1675451,0.62627864,-9.53229,4004
275198326,0.005070308,0.0024213002,0.00018771365,4058,0,1.2577865,0.59692204,-9.55559,4058
275202265,0.0022811966,0.000874959,0.0005899891,3939,0,1.0932103,0.42666098,-9.941316,3939
275206265,-0.003786237,0.0024056188,-0.0012606051,4000,0,1.0389316,0.15361586,-9.649371,4000
275210265,-0.024490494,0.00019882008,-0.0011590745,4000,0,1.153344,0.30738595,-9.807838,4000
275214265,-0.020143531,-5.604973e-05,-0.001287568,4000,0,1.0101478,0.47934556,-9.417872,4000
275218343,-0.005540835,0.0015296862,-0.0014103776,4078,0,1.2395488,0.628949,-9.798165,4078
275222265,0.0038265001,-0.00030954182,-0.001752179,3922,0,1.2182175,0.41275096,-9.7774105,3922
275226264,0.00076528196,-0.00027468338,-0.0004059167,3999,0,1.058111,0.35724556,-9.907538,3999
275230273,-0.017602302,0.0038861712,-0.001683176,4009,0,1.1366589,0.14944762,-9.784946,4009
275234265,-0.02241577,-0.0047026007,-0.0019297865,3992,0,1.0453705,0.2761289,-9.601636,3992
275238309,-0.016975198,0.003377243,-0.0010196686,4044,0,1.1322086,0.5571467,-9.550326,4044
275242291,0.0027612462,-0.00050319376,-0.0030189566,3982,0,1.2758145,0.56101686,-9.615591,3982
275246265,0.0051061,4.174655e-05,-0.0032977622,3974,0,1.1274515,0.3736664,-9.883394,3974
275250279,0.004138357,0.00036393455,-0.0026826123,4014,0,1.0367179,0.16817695,-9.612207,4014
275254265,-0.017326184,0.0014706599,-0.0028237347,3986,0,1.1596171,0.3008505,-9.719056,3986
275258310,-0.017799497,-0.00058226846,-0.0043159877,4045,0,0.99351794,0.43205565,-9.270915,4045
275262282,-0.0068210624,0.002051081,-0.0035692966,3972,0,1.2162768,0.6514166,-9.620622,3972
275266265,0.008485676,-0.00060120784,-0.0037513117,3983,0,1.2109662,0.51861686,-9.5295,3983
275270302,0.004269852,0.00025531437,-0.003852723,4037,0,1.0843503,0.4000394,-9.876106,4037
275274264,-0.010135611,0.0016272897,-0.006198256,3962,0,1.0968367,0.11459836,-9.672895,3962
275278325,-0.01965785,-0.004521064,-0.0051798644,4061,0,1.0466087,0.33498746,-9.601214,4061
275282277,-0.016763452,0.0016737501,-0.0031267416,3952,0,1.0841298,0.5813602,-9.361345,3952
275286264,0.0028259016,-0.00088413333,-0.0025976766,3987,0,1.2513487,0.6521992,-9.611929,3987
275290289,0.004060429,0.0014972064,-0.0054591373,4025,0,1.1345198,0.43076453,-9.818734,4025
275294265,0.00075463456,-0.00039327794,-0.0038159317,3976,0,1.0036542,0.25121367,-9.699154,3976
275298339,-0.022367893,0.002330918,-0.004104321,4074,0,1.1287582,0.23457593,-9.819741,4074
275302265,-0.021791257,0.0005717055,-0.0025814113,3926,0,0.9440445,0.34120876,-9.4010935,3926
275306265,-0.00982562,0.0053727827,-0.0019372652,4000,0,1.158028,0.6138776,-9.681062,4000
275310271,0.009097648,-0.0011378898,-0.00043684765,4006,0,1.2214361,0.46225727,-9.599887,4006
275314265,0.0037591988,8.288489e-05,0.0013473773,3994,0,1.0728842,0.34698978,-10.009637,3994
275318319,-0.0075638248,0.0019192554,0.0011116907,4054,0,1.0410503,0.06692494,-9.677958,4054
275322265,-0.016153164,-0.00045354932,0.0008066881,3946,0,1.0866811,0.29256523,-9.741312,3946
275326278,-0.0136346305,0.0027037598,0.0030728104,4013,0,1.0381627,0.491568,-9.35845,4013
275330265,0.0047546723,0.0007183746,0.003926641,3987,0,1.2565048,0.65294,-9.706521,3987
275334265,0.0100019425,0.0019728716,0.0031862024,4000,0,1.1744287,0.42210916,-9.791087,4000
275338319,0.005184591,0.0013840427,0.003512362,4054,0,1.047979,0.29377314,-9.809001,4054
275342271,-0.019098848,0.0028135616,0.0026786858,3952,0,1.1498995,0.20511824,-9.846723,3952
275346273,-0.018530313,-0.0041919528,0.0029498267,4002,0,0.9949984,0.39314336,-9.481157,4002
275350265,-0.0070611206,0.0050003426,0.0037521883,3992,0,1.199274,0.63087326,-9.612921,3992
275354265,0.012963834,-0.0026276452,-2.2135168e-06,4000,0,1.3013083,0.5301383,-9.533482,4000
275358333,0.006961068,7.071214e-05,-0.0003462792,4068,0,1.1444323,0.4239155,-9.953594,4068
275362273,0.0021722596,0.0028419667,-3.2867533e-06,3940,0,1.0709695,0.13314398,-9.589067,3940
275366297,-0.016135497,-0.00035918737,0.0008184998,4024,0,1.1485044,0.36521274,-9.757344,4024
275370265,-0.019752309,0.0013060877,0.0021331154,3968,0,1.0124629,0.5271345,-9.283882,3968
275374265,-0.005142225,-0.0010244753,0.0013929065,4000,0,1.2836888,0.6856882,-9.730728,4000
275378331,0.004742925,-0.0038304622,0.002251646,4066,0,1.2090958,0.4423447,-9.65642,4066
275382271,0.00037337266,-0.00095484336,0.00096065283,3940,0,1.0853211,0.3768287,-9.832296,3940
275386265,-0.018731728,0.0030361412,-0.00011160003,3994,0,1.1242063,0.17698745,-9.67858,3994
275390265,-0.018041924,-0.003775099,-0.00089407124,4000,0,1.0249667,0.323531,-9.504747,4000
275393498,-0.015586166,0.0048310687,0.0010952626,3233,0,1.090366,0.5403068,-9.387802,3233
275397465,0.00066835503,0.0017455526,0.0023485378,3967,0,1.2307417,0.59209216,-9.628459,3967
275401465,0.0069428924,0.003240683,-0.00067680434,4000,0,1.1470125,0.38674563,-9.7308,4000
275405465,0.009323769,0.00068218296,-0.0027802165,4000,0,1.0233357,0.27102768,-9.669241,4000
275409465,-0.0147708,0.0052108667,-0.0009199849,4000,0,1.0911506,0.24382393,-9.767633,4000
275413483,-0.018037703,-0.00067216397,-0.0011269276,4018,0,0.942582,0.37838292,-9.412372,4018
275417478,-0.01170746,0.0039997636,-0.0004976381,3995,0,1.1850386,0.6054499,-9.673573,3995
275421465,0.0076293307,-0.00055678294,-0.002054624,3987,0,1.2355868,0.51899743,-9.587758,3987
275425471,0.0021105693,-0.0004581707,-0.0016573089,4006,0,1.1080126,0.43850023,-10.007659,4006
275429464,-0.0046808054,0.0010120212,-0.0017070012,3993,0,1.062683,0.1339611,-9.69017,3993
275433520,-0.017455807,-0.00050460355,-0.00282132,4056,0,1.1069232,0.3428921,-9.772529,4056
275437465,-0.016514324,0.004378184,-0.003687008,3945,0,1.0260664,0.49324384,-9.383152,3945
275441464,-0.0028250879,0.0025245845,-0.0025396496,3999,0,1.2550584,0.6453797,-9.745446,3999
275445470,0.008341655,0.0018430186,-0.0017447437,4006,0,1.1649735,0.43142736,-9.790186,4006
275449465,0.006466862,0.00025311028,-0.002736107,3995,0,1.0275332,0.33653313,-9.830702,3995
275453475,-0.016640607,0.0040758676,-0.003373325,4010,0,1.1186571,0.24386361,-9.792907,4010
275457465,-0.020037012,-0.0035517544,-0.0034873248,3990,0,0.98906267,0.3623121,-9.444866,3990
275461465,-0.016167488,0.0028912975,-0.0012318578,4000,0,1.1886456,0.59692246,-9.515634,4000
275465496,0.0009611685,-0.0028411916,-0.0012241598,4031,0,1.2756993,0.52804106,-9.523425,4031
275469465,-0.0007371665,-0.00036565916,-0.0024652842,3969,0,1.1433448,0.4161498,-9.939053,3969
275473497,-0.0013411643,0.0024786573,-0.004203597,4032,0,1.078524,0.11597153,-9.642395,4032
275477476,-0.018206941,0.0016019142,-0.0016684085,3979,0,1.1565126,0.25517982,-9.780889,3979
275481465,-0.017047018,0.0043477416,-0.0007157261,3989,0,1.0043217,0.43007618,-9.271145,3989
275485485,-0.004524039,0.0047811805,-0.0006724408,4020,0,1.275381,0.60767144,-9.700122,4020
275489465,0.009042563,0.0014590077,0.00017918849,3980,0,1.2029959,0.39427388,-9.606374,3980
275493465,0.0070215673,-0.0014096126,0.0006887645,4000,0,1.07332,0.3695018,-9.8406,4000
275497477,-0.010551497,0.0037651726,7.312435e-05,4012,0,1.1003531,0.18148988,-9.720039,4012
275501465,-0.017997215,-0.0015362176,0.00048669986,3988,0,1.0167412,0.3402663,-9.542576,3988
275505471,-0.013335688,0.0038710057,-0.000739866,4006,0,1.151092,0.5376604,-9.447481,4006
275509465,0.004162564,-0.001722056,0.00010299828,3994,0,1.2582355,0.5680167,-9.54802,3994
275513467,0.0031519716,0.0012460222,6.0566563e-05,4002,0,1.1318388,0.43546358,-9.8864565,4002
275517477,0.0021985779,0.0003996433,0.0022774038,4010,0,1.0415301,0.1659013,-9.700241,4010
275521464,-0.014947465,0.0015065116,0.003288373,3987,0,1.1108036,0.30271178,-9.82886,3987
275525471,-0.01640119,-0.00073741225,-0.0006647161,4007,0,0.9420356,0.4385802,-9.350993,4007
275529465,-0.004351597,0.0020186629,0.0011635324,3994,0,1.2299792,0.6137232,-9.721162,3994
275533481,0.010453783,-0.00024500175,-0.00020188269,4016,0,1.2218226,0.47569486,-9.563367,4016
275537465,0.0054509304,0.0026319732,0.001380215,3984,0,1.0957531,0.45923054,-9.916138,3984
275541465,-0.010887537,0.00038482295,0.002529939,4000,0,1.081647,0.19939776,-9.730389,4000
275545464,-0.021206914,-0.0015696957,0.0015850941,3999,0,1.038551,0.32470274,-9.685179,3999
275549465,-0.018551175,0.0075991326,0.001143535,4001,0,1.0932093,0.5144153,-9.4238615,4001
275553481,-0.0018990233,0.0017911947,0.0007956129,4016,0,1.2680452,0.636136,-9.679506,4016
275557471,0.0026491869,0.0023963521,0.0012074285,3990,0,1.1506307,0.42073342,-9.874834,3990
275561505,0.004396626,0.0010144054,0.0014595743,4034,0,1.0546604,0.21123691,-9.805946,4034
275565465,-0.01558667,0.0042345417,0.0015565335,3960,0,1.1092643,0.27524054,-9.906141,3960
275569494,-0.014029305,-0.0024610301,-0.00028116093,4029,0,0.9573337,0.41323814,-9.435656,4029
275573480,-0.0073689357,0.0008933676,-0.0014455067,3986,0,1.2309594,0.59542406,-9.732327,3986
275577471,0.010055309,-0.00096674,0.00011229705,3991,0,1.2565284,0.480356,-9.553799,3991
275581477,0.006682778,-0.0003945682,0.000675273,4006,0,1.1230273,0.48729753,-9.959441,4006
275585464,-0.0050835474,-0.0005617617,-0.0006431734,3987,0,1.0900831,0.20162958,-9.659632,3987
275589464,-0.01591337,-0.0028823614,-0.0007400186,4000,0,1.0866184,0.3093849,-9.701692,4000
275593466,-0.016746366,0.0034586366,-0.0019815313,4002,0,1.0648793,0.51300716,-9.314256,4002
275597471,-0.0036556188,-0.0019325899,-0.0024078172,4005,0,1.2704107,0.6942259,-9.66295,4005
275601478,0.0070064026,0.0013830566,-0.0018754125,4007,0,1.1819129,0.4569814,-9.731602,4007
275605464,0.0070522972,0.0019528804,-0.004549441,3986,0,1.072434,0.26362815,-9.753154,3986
275609464,-0.015770927,0.0019561162,-0.004185632,4000,0,1.1394352,0.24835946,-9.799242,4000
275613466,-0.015249771,-0.0035989739,-0.002008349,4002,0,0.975106,0.4126403,-9.418969,4002
275617501,-0.009476346,0.0056543276,-0.004174484,4035,0,1.216199,0.602561,-9.588027,4035
275621497,0.0091569,-0.0009221958,-0.004154037,3996,0,1.2561448,0.4997148,-9.484116,3996
275625465,0.0028452624,0.00089419034,-0.004412546,3968,0,1.1176943,0.4974218,-9.930211,3968
275629471,-0.004885485,0.00047525088,-0.0031967692,4006,0,1.0576158,0.18610492,-9.614829,4006
275633483,-0.01804003,-0.00028459664,-0.0010230398,4012,0,1.0751506,0.2756182,-9.745734,4012
275637465,-0.019652853,0.0030245297,-0.00023073789,3982,0,0.9909368,0.444797,-9.308426,3982
275641500,-0.0074897823,0.0012294671,0.00014608889,4035,0,1.2345474,0.60957533,-9.744631,4035
275645487,0.0045800367,0.0017944148,-0.0016271137,3987,0,1.1760213,0.3609912,-9.704758,3987
275648709,0.010411839,-0.0007733924,-0.002164768,3222,0,1.0763875,0.3214753,-9.95029,3222
275653465,-0.008499487,0.0028395662,-0.00010779467,4756,0,1.1024799,0.17047681,-9.826113,4756
275657465,-0.013148048,-0.0007567978,-0.000589941,4000,0,0.9583071,0.33077827,-9.56584,4000
275660712,-0.0073841694,0.0063718613,-0.0031287014,3247,0,1.0914319,0.48298126,-9.440815,3247
275664665,0.001641023,-0.0009922069,-0.0016591785,3953,0,1.2372384,0.6322373,-9.666,3953
275668669,0.0054944213,0.0030483317,-0.0004327278,4004,0,1.1589912,0.45688775,-9.816197,4004
275672678,0.00924793,0.00069298275,-0.00013087699,4009,0,1.0738965,0.26492143,-9.773638,4009
275676665,-0.011170128,0.0038231802,0.00048629002,3987,0,1.1332164,0.27032235,-9.851862,3987
275680680,-0.013806278,-0.0020224345,0.0006742751,4015,0,0.9604246,0.42201087,-9.44628,4015
275684665,-0.0072318376,0.005097522,0.00086103193,3985,0,1.2286595,0.6220971,-9.716279,3985
275688679,0.008273398,-0.00096427364,0.001777411,4014,0,1.2569491,0.4881159,-9.558424,4014
275692666,0.0057993615,0.0014432785,0.00011156089,3987,0,1.1360911,0.48749846,-9.990151,3987
275695903,-0.001258482,0.0017861642,0.001020792,3237,0,1.0889351,0.21421032,-9.708392,3237
275700712,-0.015004874,0.0016335568,0.0012706934,4809,0,1.1228567,0.3150336,-9.789546,4809
275704665,-0.015133685,0.0015557073,0.0008458694,3953,0,1.0596532,0.47267663,-9.360323,3953
275708686,-0.0042419527,-0.0008882439,0.0023643672,4021,0,1.2501622,0.67038655,-9.741056,4021
275712687,0.0037331914,-0.0016002877,0.002960473,4001,0,1.1947497,0.47924888,-9.737317,4001
275716664,0.006192098,-0.0018541691,0.0003540586,3977,0,1.0977542,0.29150805,-9.808183,3977
275720671,-0.012188294,0.0022711994,-0.00017793012,4007,0,1.1137009,0.25418633,-9.76306,4007
275724665,-0.012821881,-0.0027322776,-0.00067787536,3994,0,0.97614515,0.35668814,-9.390695,3994
275728684,-0.007258147,0.004726638,-0.0022159647,4019,0,1.1971574,0.5162226,-9.522761,4019
275732670,0.014746508,-0.0007784906,-0.0009615492,3986,0,1.2416445,0.49230328,-9.495245,3986
275736665,0.012995267,0.0015530459,0.00026857978,3995,0,1.1173279,0.47907683,-9.891763,3995
275740671,0.0072832666,0.003912285,-0.0014701636,4006,0,1.0630759,0.21301167,-9.644681,4006
275744665,-0.007898822,0.0011578498,-0.0015671727,3994,0,1.0786651,0.2942343,-9.731731,3994
275748670,-0.008932947,0.0021307536,-0.0044520632,4005,0,0.9601334,0.48926947,-9.241173,4005
275752670,-0.0017829379,0.002478427,-0.005174827,4000,0,1.2423183,0.636576,-9.646262,4000
275756712,0.008550454,0.0004098364,-0.0027935116,4042,0,1.1832663,0.45163074,-9.609173,4042
275760665,0.0076376093,0.00046094274,-0.0011177561,3953,0,1.0795119,0.38204885,-9.883517,3953
275764665,-0.010244243,0.0034380942,-0.00045080707,4000,0,1.0633214,0.23101339,-9.726099,4000
275768670,-0.01871258,-0.0026890845,-0.0034664602,4005,0,0.98189396,0.32961732,-9.517666,4005
275772671,-0.014388213,0.0063120024,-0.003339246,4001,0,1.116949,0.47846958,-9.406528,4001
275776666,0.0033433917,0.0012211328,-0.0016402168,3995,0,1.2022542,0.5117001,-9.560125,3995
275780664,0.0015967867,0.005700673,-0.0017147593,3998,0,1.1406959,0.43022,-9.868194,3998
275784699,6.480272e-05,0.0026988096,-0.0019389293,4035,0,1.0482491,0.18034194,-9.782968,4035
275788667,-0.01461692,0.0046291845,-0.002479472,3968,0,1.0532566,0.22442304,-9.887897,3968
275792675,-0.017784767,0.006536418,-0.0030903788,4008,0,0.96129775,0.35133553,-9.38369,4008
275796716,-0.010338229,0.005234352,-0.0012100242,4041,0,1.2519846,0.5621381,-9.768133,4041
275800665,0.0046352753,0.0002892155,0.00041935383,3949,0,1.1891555,0.3859474,-9.611303,3949
275804665,0.00492542,-0.0020944774,-0.001693347,4000,0,1.108544,0.33586994,-10.005806,4000
275808712,-0.008296742,0.0015795009,-7.4700336e-05,4047,0,1.0708228,0.15661888,-9.777969,4047
275812711,-0.01480316,-0.0008836816,0.000748758,3999,0,1.0361418,0.2918637,-9.696571,3999
275816669,-0.013742816,0.005740994,0.0012599097,3958,0,1.1462407,0.40053833,-9.484756,3958
275820665,-8.003751e-05,0.00021507152,0.0010644564,3996,0,1.3145034,0.52125126,-9.693117,3996
275824665,0.0029696757,0.001899734,0.0033365905,4000,0,1.2075728,0.45239717,-9.87198,4000
275828689,0.0043294025,0.0007075052,0.001044998,4024,0,1.1146125,0.24967466,-9.853155,4024
275832671,-0.00990137,0.001109883,0.001063065,3982,0,1.1383438,0.26610038,-9.884116,3982
275836711,-0.010226442,-0.0034418735,0.00298644,4040,0,1.0149686,0.43961862,-9.385825,4040
275840667,-0.0071223304,0.0018766249,0.001213917,3956,0,1.2778116,0.6113505,-9.635647,3956
275844671,0.0077380496,-0.004285052,0.0029567697,4004,0,1.2485161,0.4876069,-9.517102,4004
275848664,0.005493659,-0.002469726,0.003008033,3993,0,1.1275642,0.4944353,-9.903041,3993
275852664,-0.0037528905,-0.0012826722,0.004688614,4000,0,1.0776094,0.2531135,-9.642184,4000
275856695,-0.012302266,-0.0031296897,0.0039080163,4031,0,1.0835071,0.4023682,-9.656537,4031
275860665,-0.011833905,0.0020268615,0.0027099522,3970,0,1.0807011,0.46059266,-9.280874,3970
275864671,-0.0014603684,-0.0012521554,0.0016794659,4006,0,1.2477766,0.67180634,-9.626146,4006
275868699,0.0011191492,9.554737e-05,0.0016146186,4028,0,1.2002246,0.4840136,-9.603954,4028
275872665,0.005816089,-0.0020499397,0.0022692205,3966,0,1.0970342,0.34692124,-9.795582,3966
275876686,-0.011717111,0.0014696171,0.0013294612,4021,0,1.0337526,0.3100977,-9.703593,4021
275880687,-0.011721401,-0.0036107998,0.0016831461,4001,0,0.96688193,0.34772304,-9.365429,4001
275884672,-0.014800527,-0.00059052516,-0.0011766478,3985,0,1.156079,0.6086987,-9.5708685,3985
275888665,0.00632161,-0.0027082274,4.6886464e-05,3993,0,1.1511514,0.41241905,-9.438691,3993
275892665,0.0050122,0.001986487,0.000101178186,4000,0,1.1141247,0.48203543,-9.890152,4000
275896673,-0.0012151768,0.0009218211,-0.00014017224,4008,0,1.0364931,0.24027671,-9.698262,4008
275900680,-0.012621566,0.0012247072,0.00013820536,4007,0,0.9653568,0.3301605,-9.733921,4007
275904671,-0.013144085,0.00604558,0.000107351516,3991,0,0.9836126,0.39258063,-9.220354,3991
275908665,-0.005118339,0.0039810026,-0.0022668962,3994,0,1.2109308,0.5671857,-9.69822,3994
275912665,0.0014558706,0.0039826143,-0.00095702347,4000,0,1.1143442,0.46700227,-9.682166,4000
275916711,0.003092035,0.0020825823,-0.0010108599,4046,0,1.0996218,0.3032772,-9.922841,4046
275920670,-0.010617164,0.004013104,-0.00078974623,3959,0,1.0689093,0.24143068,-9.846664,3959
275924674,-0.013991874,0.00035954817,-0.0017914594,4004,0,0.945973,0.36885235,-9.550311,4004
275928665,-0.013723755,0.004403335,-0.0033071323,3991,0,1.1605202,0.46625674,-9.545581,3991
275932664,0.0036355562,-0.00014725623,-0.002147743,3999,0,1.2571374,0.46804637,-9.590471,3999
275936718,0.0055258926,0.0022870272,-0.0011885494,4054,0,1.1667966,0.4596416,-9.90247,4054
275940672,0.0007251828,0.004610654,-0.0026854763,3954,0,1.0972108,0.29670188,-9.780948,3954
275944686,-0.009245372,0.0035619764,-0.004486103,4014,0,1.1275021,0.26085496,-9.80961,4014
275948665,-0.012629901,0.0039990954,-0.0042433445,3979,0,1.0442109,0.4155994,-9.397747,3979
275952706,-0.007901546,0.0040898686,-0.0044621862,4041,0,1.3086061,0.6003162,-9.732216,4041
275956681,0.003330834,0.00051552453,-0.0025903515,3975,0,1.2879982,0.43983382,-9.578085,3975
275960665,0.00443494,0.0011257319,-0.003947285,3984,0,1.1810218,0.4091484,-9.919835,3984
275964720,-0.0071155485,0.002254087,-0.004639808,4055,0,1.0618063,0.27064046,-9.750166,4055
275968665,-0.020193433,0.00029325104,-0.0053184913,3945,0,1.0648822,0.37214446,-9.585717,3945
275972665,-0.019330628,0.0037257539,-0.0074786767,4000,0,1.1782212,0.47128025,-9.404493,4000
275976704,-0.005263569,-0.0027402723,-0.0032857915,4039,0,1.2770063,0.5399272,-9.673842,4039
275980699,0.0016333613,-0.0012591243,-0.003271993,3995,0,1.2491539,0.46292487,-9.830545,3995
275984715,-0.0017884166,-0.002063265,-0.0038377123,4016,0,1.129149,0.27444884,-9.885586,4016
275988665,-0.008707835,-0.0006751451,-0.003701538,3950,0,1.0710592,0.19878815,-9.762044,3950
275992665,-0.012876982,-0.0019203548,-0.0031323363,4000,0,1.0352048,0.33911073,-9.430006,4000
