timestamp,rollspeed,pitchspeed,yawspeed,rollspeed_integ,pitchspeed_integ,yawspeed_integ,additional_integ1
273391183,-0.0071423906,0.00047537044,-0.0019332215,0.0,0.0,0.0,0.0
273395154,-0.001751434,-0.0002583915,-0.0019103899,0.0,0.0,0.0,0.0
273399203,0.0062388587,-0.0014876615,-0.0023934222,0.0,0.0,0.0,0.0
273403155,0.009201005,-0.00060498394,-0.002604845,0.0,0.0,0.0,0.0
273407184,0.006488916,-0.0016711988,-0.0027560554,0.0,0.0,0.0,0.0
273411175,0.0010406147,-0.0012500669,-0.0027745473,0.0,0.0,0.0,0.0
273415168,0.00044105528,-0.00061013026,-0.0018326906,0.0,0.0,0.0,0.0
273419183,0.0021216322,0.0003228354,-0.001247172,0.0,0.0,0.0,0.0
273423153,0.0047089425,0.0012523194,-0.0012324571,0.0,0.0,0.0,0.0
273427156,0.0027059994,0.0026800912,-0.0019579402,0.0,0.0,0.0,0.0
273431159,-0.0020749033,0.0028314353,-0.002266821,0.0,0.0,0.0,0.0
273435143,-0.0044688205,0.0032465942,-0.0014393417,0.0,0.0,0.0,0.0
273439181,-0.0014223056,0.0029178383,-0.00044083962,0.0,0.0,0.0,0.0
273443182,0.0053712265,0.0014002213,7.3105504e-05,0.0,0.0,0.0,0.0
273447190,0.008480776,0.0013911091,-2.1890504e-05,0.0,0.0,0.0,0.0
273451145,0.004760522,0.00055652077,-6.6665176e-05,0.0,0.0,0.0,0.0
273455178,-0.0023950096,0.0006830683,0.00031771063,0.0,0.0,0.0,0.0
273459187,-0.00497244,-0.00011030049,0.0005537553,0.0,0.0,0.0,0.0
273463177,-0.004141608,-0.0009479157,0.0005185921,0.0,0.0,0.0,0.0
273467197,-0.0013913387,-0.0014241025,0.0009591581,0.0,0.0,0.0,0.0
273471156,-0.0036052372,0.0004813472,0.0012184612,0.0,0.0,0.0,0.0
273475180,-0.0087662125,0.0009905306,0.0015868789,0.0,0.0,0.0,0.0
273479145,-0.012590036,0.0017941357,0.002566394,0.0,0.0,0.0,0.0
273483171,-0.009545328,0.0017077683,0.003917965,0.0,0.0,0.0,0.0
273487193,-0.002231218,0.0012540483,0.00450184,0.0,0.0,0.0,0.0
273491159,0.0032999294,0.0011996819,0.0043234294,0.0,0.0,0.0,0.0
273495221,0.0026027197,0.0006263667,0.0040224874,0.0,0.0,0.0,0.0
273499151,-0.0033963881,-0.00013825134,0.004110351,0.0,0.0,0.0,0.0
273503172,-0.005871789,-0.0012348882,0.004970154,0.0,0.0,0.0,0.0
273507165,-0.0022948855,-0.0020319247,0.0054631922,0.0,0.0,0.0,0.0
273511143,0.0048453133,-0.0023474158,0.0049138484,0.0,0.0,0.0,0.0
273515195,0.0071210978,-0.00061577064,0.0041691293,0.0,0.0,0.0,0.0
273519165,0.004232714,-0.00014519738,0.003392737,0.0,0.0,0.0,0.0
273523170,-0.00040713605,0.00045784796,0.0033173074,0.0,0.0,0.0,0.0
273527194,0.00073690806,-0.00041579443,0.0033144658,0.0,0.0,0.0,0.0
273531143,0.0057179243,-0.0017731835,0.0028881682,0.0,0.0,0.0,0.0
273535168,0.010291778,-0.001628719,0.0025553778,0.0,0.0,0.0,0.0
273539186,0.007384347,-0.0014853317,0.0019329406,0.0,0.0,0.0,0.0
273543180,-0.0012359605,-0.0014293143,0.00087515835,0.0,0.0,0.0,0.0
273547185,-0.0069869035,-0.0004898609,0.00012439914,0.0,0.0,0.0,0.0
273551145,-0.0059285946,-0.00027333136,0.00020518835,0.0,0.0,0.0,0.0
273554391,-0.0014760648,-0.00054509006,0.00011803795,0.0,0.0,0.0,0.0
273558407,0.0027615442,0.0007148554,-0.0007721315,0.0,0.0,0.0,0.0
273562386,0.00075241923,0.00086100225,-0.001806512,0.0,0.0,0.0,0.0
273566341,-0.0051377406,0.0007777092,-0.0023137943,0.0,0.0,0.0,0.0
273570350,-0.005787107,0.00033765857,-0.0022790302,0.0,0.0,0.0,0.0
273574359,-0.00060143415,-0.0001136862,-0.002488711,0.0,0.0,0.0,0.0
273578372,0.0066373893,-0.00029709237,-0.0030800332,0.0,0.0,0.0,0.0
273582376,0.007008913,0.0011268123,-0.00429452,0.0,0.0,0.0,0.0
273586342,0.0016878534,0.0006013375,-0.0049209036,0.0,0.0,0.0,0.0
273590351,-0.004524733,0.0003289685,-0.0044312924,0.0,0.0,0.0,0.0
273594382,-0.0046405317,-0.0009539946,-0.0034527509,0.0,0.0,0.0,0.0
273598372,0.0015092602,-0.0025518865,-0.0028891664,0.0,0.0,0.0,0.0
273602343,0.007137436,-0.0019388929,-0.0032521896,0.0,0.0,0.0,0.0
273606366,0.00576274,-0.0008912452,-0.0039955503,0.0,0.0,0.0,0.0
273610347,-0.00090195565,6.1682775e-05,-0.0044054175,0.0,0.0,0.0,0.0
273614388,-0.0043182005,0.00088294805,-0.004447494,0.0,0.0,0.0,0.0
273618385,-0.0025526676,0.0015715715,-0.0037161657,0.0,0.0,0.0,0.0
273622381,0.0023561725,0.0021366794,-0.003089338,0.0,0.0,0.0,0.0
273626385,0.0020317584,0.002604938,-0.0029411493,0.0,0.0,0.0,0.0
273630347,-0.0031617358,0.0015131071,-0.0021365597,0.0,0.0,0.0,0.0
273634382,-0.009530068,0.0012815421,-0.0016253678,0.0,0.0,0.0,0.0
273638378,-0.010085339,0.00038241793,-0.0008340908,0.0,0.0,0.0,0.0
273642384,-0.00444566,-0.00028345134,-0.00045231852,0.0,0.0,0.0,0.0
273646370,0.0027131946,0.0002705896,-0.0008467565,0.0,0.0,0.0,0.0
273650348,0.002642899,0.0013618228,-0.0009932203,0.0,0.0,0.0,0.0
273654369,-0.0028606164,0.0017628932,-0.0004335224,0.0,0.0,0.0,0.0
273658382,-0.0073082563,0.002408865,0.0008160976,0.0,0.0,0.0,0.0
273662368,-0.0058994256,0.0023938688,0.0021706547,0.0,0.0,0.0,0.0
273666350,-0.0007575918,0.0023684413,0.0030902312,0.0,0.0,0.0,0.0
273670357,0.0021492809,0.0035915375,0.0032608286,0.0,0.0,0.0,0.0
273674378,-0.0007920414,0.0023173285,0.0030896706,0.0,0.0,0.0,0.0
273678373,-0.0075091217,0.0003934485,0.0030844004,0.0,0.0,0.0,0.0
273682396,-0.009477163,-0.0016383037,0.0037315078,0.0,0.0,0.0,0.0
273686356,-0.00466922,-0.002287526,0.0037605718,0.0,0.0,0.0,0.0
273690377,0.0035983361,-0.0025455677,0.0033754609,0.0,0.0,0.0,0.0
273694344,0.0054067494,-0.0019730984,0.0024867856,0.0,0.0,0.0,0.0
273698391,0.00027013896,-0.0014483231,0.0022528314,0.0,0.0,0.0,0.0
273702366,-0.005658225,-0.00054882094,0.0025080303,0.0,0.0,0.0,0.0
273706344,-0.00607632,-0.00045361056,0.0031401333,0.0,0.0,0.0,0.0
273710388,-0.0009879656,-0.00085452886,0.0031690719,0.0,0.0,0.0,0.0
273714344,0.0037570558,6.697397e-05,0.0028830273,0.0,0.0,0.0,0.0
273718376,0.002145972,-0.00017897686,0.0034895143,0.0,0.0,0.0,0.0
273722386,-0.0040270085,-0.0005321547,0.0036956042,0.0,0.0,0.0,0.0
273726356,-0.006118374,-0.0015789904,0.0035732996,0.0,0.0,0.0,0.0
273730410,-0.00034737587,-0.0022585918,0.0030557988,0.0,0.0,0.0,0.0
273734343,0.008407576,-0.0019362837,0.0020271898,0.0,0.0,0.0,0.0
273738379,0.010701264,-0.00011027721,0.0005741021,0.0,0.0,0.0,0.0
273742382,0.00565515,0.00069095264,-0.0006481289,0.0,0.0,0.0,0.0
273746340,-0.0018846616,0.0015883723,-0.00110965,0.0,0.0,0.0,0.0
273750390,-0.0039405446,0.00057018513,-0.001440163,0.0,0.0,0.0,0.0
273754352,2.7834903e-05,-0.0003269919,-0.0018080103,0.0,0.0,0.0,0.0
273758386,0.0039339745,0.00010574481,-0.0025665762,0.0,0.0,0.0,0.0
273762392,0.0010557277,0.0008071846,-0.0029793836,0.0,0.0,0.0,0.0
273766347,-0.006089534,0.0014244764,-0.0029192225,0.0,0.0,0.0,0.0
273770393,-0.009405514,0.0015340195,-0.0024419574,0.0,0.0,0.0,0.0
273774391,-0.0048011933,0.0010237459,-0.0023959288,0.0,0.0,0.0,0.0
273778384,0.0035374505,0.0013423034,-0.0035589174,0.0,0.0,0.0,0.0
273782372,0.006948564,0.0017948778,-0.004776999,0.0,0.0,0.0,0.0
273786344,0.0037212023,0.00039602595,-0.0051395525,0.0,0.0,0.0,0.0
273790368,-0.0020282334,0.00015897781,-0.004607709,0.0,0.0,0.0,0.0
273794384,-0.0032107616,-0.0009968297,-0.0033325767,0.0,0.0,0.0,0.0
273798395,0.00115461,-0.0018053513,-0.0023440775,0.0,0.0,0.0,0.0
273802370,0.0065826653,-0.0010655372,-0.0020734798,0.0,0.0,0.0,0.0
273806347,0.005100969,-8.460216e-05,-0.0018494818,0.0,0.0,0.0,0.0
273810353,-0.001399552,0.00027205155,-0.0010361813,0.0,0.0,0.0,0.0
273814373,-0.0064053154,0.0011044435,-0.0006941992,0.0,0.0,0.0,0.0
273818418,-0.003921452,0.0006086149,-0.0009303488,0.0,0.0,0.0,0.0
273822399,0.0033115793,0.0007940674,-0.0011204083,0.0,0.0,0.0,0.0
273826341,0.0069235265,0.0019763634,-0.00086710404,0.0,0.0,0.0,0.0
273830349,0.0035104135,0.0017993886,-0.00081235607,0.0,0.0,0.0,0.0
273834344,-0.0034906268,0.0012267139,-0.0005463486,0.0,0.0,0.0,0.0
273838427,-0.0053313207,7.3626405e-05,0.00037955528,0.0,0.0,0.0,0.0
273842344,-0.00044584507,-0.000994221,0.00092334714,0.0,0.0,0.0,0.0
273846368,0.006558959,-0.00076095713,0.0010642918,0.0,0.0,0.0,0.0
273850362,0.0067209653,-0.0006694318,0.00087709096,0.0,0.0,0.0,0.0
273854363,-0.00052726874,-0.0011483716,0.0010923503,0.0,0.0,0.0,0.0
273858470,-0.006995079,-0.0005322384,0.0019820558,0.0,0.0,0.0,0.0
273862345,-0.0054765893,-0.00083580706,0.0025936319,0.0,0.0,0.0,0.0
273866351,0.0016694162,-0.0007758966,0.0024451234,0.0,0.0,0.0,0.0
273870388,0.0071652336,-2.0199339e-05,0.0023354483,0.0,0.0,0.0,0.0
273874341,0.0051259804,9.42098e-05,0.0017409668,0.0,0.0,0.0,0.0
273877573,0.00082323747,-7.9410966e-05,0.0016863187,0.0,0.0,0.0,0.0
273882341,-0.0032367609,-0.00021368428,0.0025444934,0.0,0.0,0.0,0.0
273886350,0.0015580237,-0.0007068967,0.0030758872,0.0,0.0,0.0,0.0
273890368,0.008380183,-0.00075498235,0.0028746615,0.0,0.0,0.0,0.0
273894350,0.00872178,-0.0005676592,0.0027253125,0.0,0.0,0.0,0.0
273897574,0.0036584856,-0.0010157427,0.0029059164,0.0,0.0,0.0,0.0
273901552,-0.004334952,-0.0007829679,0.00260957,0.0,0.0,0.0,0.0
273905551,-0.006649601,-0.0010250274,0.0023464626,0.0,0.0,0.0,0.0
273909541,-0.00046764128,-0.00094632705,0.0015756345,0.0,0.0,0.0,0.0
273913541,0.00675913,0.00042187376,0.0009263222,0.0,0.0,0.0,0.0
273917581,0.0073106317,0.0016947795,0.000705259,0.0,0.0,0.0,0.0
273921556,0.0020275055,0.00229826,0.0002180913,0.0,0.0,0.0,0.0
273925594,-0.0026883092,0.0027362243,0.00021621375,0.0,0.0,0.0,0.0
273929541,0.00053265365,0.0020141138,0.00016712624,0.0,0.0,0.0,0.0
273933541,0.0074219,0.0024532545,0.00060469203,0.0,0.0,0.0,0.0
273937585,0.010602552,0.0033457973,0.0005447367,0.0,0.0,0.0,0.0
273941543,0.005162146,0.0026441694,0.00022739408,0.0,0.0,0.0,0.0
273945577,-0.0031720102,0.0019454765,-0.00056309305,0.0,0.0,0.0,0.0
273949541,-0.0068522254,0.0009730258,-0.001338932,0.0,0.0,0.0,0.0
273953543,-0.0023124316,-0.00018157269,-0.0021310637,0.0,0.0,0.0,0.0
273957568,0.005865955,6.07135e-05,-0.0029348414,0.0,0.0,0.0,0.0
273961540,0.0075321877,0.0011265888,-0.0034873942,0.0,0.0,0.0,0.0
273965565,0.0012582941,0.0007015879,-0.0030353658,0.0,0.0,0.0,0.0
273969560,-0.0054852557,0.0007543827,-0.0027167713,0.0,0.0,0.0,0.0
273973541,-0.0040400866,0.00033800607,-0.0021897347,0.0,0.0,0.0,0.0
273977571,0.0025244819,-3.6369544e-05,-0.0017621955,0.0,0.0,0.0,0.0
273981541,0.007377007,0.000105661806,-0.0014331948,0.0,0.0,0.0,0.0
273985550,0.0047040386,0.00017055939,-0.0010554246,0.0,0.0,0.0,0.0
273989547,-0.0031777853,-0.00063342747,-0.0012960639,0.0,0.0,0.0,0.0
273993541,-0.008387267,-0.0021114536,-0.0015006104,0.0,0.0,0.0,0.0
273997583,-0.0040383195,-0.0037501897,-0.0018306391,0.0,0.0,0.0,0.0
274001540,0.0045317034,-0.0040089227,-0.0019193233,0.0,0.0,0.0,0.0
274005550,0.00808651,-0.0033757938,-0.001733941,0.0,0.0,0.0,0.0
274009593,0.0031829276,-0.002760768,-0.0009915564,0.0,0.0,0.0,0.0
274013541,-0.0041528395,-0.0013826144,-0.00028796308,0.0,0.0,0.0,0.0
274017579,-0.0040604,-0.001097493,0.00015930625,0.0,0.0,0.0,0.0
274021543,0.0025643383,-0.0004013299,0.00036664086,0.0,0.0,0.0,0.0
274025553,0.007886246,0.00013566553,0.00027138696,0.0,0.0,0.0,0.0
274029582,0.0045829546,0.0009125833,-0.0003196951,0.0,0.0,0.0,0.0
274033543,-0.0036733919,0.0012065492,-0.00031164422,0.0,0.0,0.0,0.0
274037541,-0.00949953,0.0010916722,2.0703184e-05,0.0,0.0,0.0,0.0
274041547,-0.00568543,1.2811972e-05,0.0011494705,0.0,0.0,0.0,0.0
274045560,0.0023059987,-0.00032633462,0.0021004963,0.0,0.0,0.0,0.0
274049563,0.0058441074,0.00014867785,0.0022647525,0.0,0.0,0.0,0.0
274053540,0.0009941189,0.0007912725,0.0026140567,0.0,0.0,0.0,0.0
274057545,-0.006544762,0.0018893116,0.0034678564,0.0,0.0,0.0,0.0
274061567,-0.0069950097,0.0021623478,0.0037342384,0.0,0.0,0.0,0.0
274065575,0.0005671382,0.0030069954,0.0030537946,0.0,0.0,0.0,0.0
274069582,0.007982497,0.0031877218,0.0026202642,0.0,0.0,0.0,0.0
274073554,0.006290599,0.002910582,0.002013868,0.0,0.0,0.0,0.0
274077555,-0.0017007128,0.002151392,0.0014988645,0.0,0.0,0.0,0.0
274081552,-0.007931429,0.0022223229,0.0011550151,0.0,0.0,0.0,0.0
274085567,-0.0046130153,0.0011401378,0.0014507641,0.0,0.0,0.0,0.0
274089541,0.0030251674,0.00048776483,0.0009499765,0.0,0.0,0.0,0.0
274093582,0.0073896926,-0.0002678652,0.0007038375,0.0,0.0,0.0,0.0
274097554,0.0024816561,-0.0012360954,0.0010765874,0.0,0.0,0.0,0.0
274101560,-0.005380439,-0.001406147,0.0015644241,0.0,0.0,0.0,0.0
274105572,-0.00697472,-0.0012763927,0.002050249,0.0,0.0,0.0,0.0
274109550,-0.0006059194,-0.0007092452,0.001527284,0.0,0.0,0.0,0.0
274113602,0.0061521083,-6.286253e-05,0.00015584397,0.0,0.0,0.0,0.0
274117543,0.0057930625,0.00057135196,-0.0013683,0.0,0.0,0.0,0.0
274121541,-0.0014661388,0.0006960628,-0.0017739371,0.0,0.0,0.0,0.0
274125582,-0.00899508,0.00045038923,-0.001834552,0.0,0.0,0.0,0.0
274129554,-0.0068578725,-0.0012735946,-0.001533214,0.0,0.0,0.0,0.0
274133588,0.0006294218,-0.0017132713,-0.0019121126,0.0,0.0,0.0,0.0
274137541,0.005842765,-0.0017108459,-0.002581219,0.0,0.0,0.0,0.0
274141544,0.0030447461,-0.0009223174,-0.00275845,0.0,0.0,0.0,0.0
274145586,-0.0032891375,-0.00048767676,-0.0031292846,0.0,0.0,0.0,0.0
274149541,-0.006960358,-0.00057497795,-0.0030455356,0.0,0.0,0.0,0.0
274153586,-0.003234086,-0.00073622516,-0.002765859,0.0,0.0,0.0,0.0
274157541,0.003772513,-0.0007242013,-0.0025882958,0.0,0.0,0.0,0.0
274161541,0.00552522,-0.0006223758,-0.0022106739,0.0,0.0,0.0,0.0
274165554,0.000108344946,-0.001044675,-0.0016824594,0.0,0.0,0.0,0.0
274169541,-0.007104274,-0.00062061904,-0.0013357502,0.0,0.0,0.0,0.0
274172794,-0.0069737667,-0.0008919139,-0.0013217696,0.0,0.0,0.0,0.0
274176741,0.0001564133,-0.0015504884,-0.0015599973,0.0,0.0,0.0,0.0
274179975,0.009097553,-0.0021769418,-0.002459072,0.0,0.0,0.0,0.0
274184747,0.0104239825,-0.0010181798,-0.003566146,0.0,0.0,0.0,0.0
274188785,0.004632296,-0.00047916197,-0.0040246956,0.0,0.0,0.0,0.0
274192783,-0.0034099878,0.00030686136,-0.0033146082,0.0,0.0,0.0,0.0
274196743,-0.0028677573,-0.0010141253,-0.0026580163,0.0,0.0,0.0,0.0
274200806,0.0031382889,-0.0014934341,-0.002441687,0.0,0.0,0.0,0.0
274204760,0.007862643,-0.0010365145,-0.0025263715,0.0,0.0,0.0,0.0
274208754,0.0041920454,0.00027699734,-0.0026027204,0.0,0.0,0.0,0.0
274212783,-0.004426418,0.00055666803,-0.0025410806,0.0,0.0,0.0,0.0
274216778,-0.008267012,6.0325256e-06,-0.0017722141,0.0,0.0,0.0,0.0
274220800,-0.003350338,9.9000055e-05,-0.001142585,0.0,0.0,0.0,0.0
274224747,0.004473221,0.0004503514,-0.0009566383,0.0,0.0,0.0,0.0
274228740,0.0052877273,0.00051937066,-0.0007360288,0.0,0.0,0.0,0.0
274232741,-0.0016756235,0.00047607836,-0.0002473371,0.0,0.0,0.0,0.0
274236754,-0.010638764,0.00088455377,0.00010436625,0.0,0.0,0.0,0.0
274240785,-0.009829609,0.00012465136,0.0005606415,0.0,0.0,0.0,0.0
274244824,-0.0021225722,0.00036397856,0.00069555425,0.0,0.0,0.0,0.0
274248752,0.0045196544,0.0003906882,0.00057764206,0.0,0.0,0.0,0.0
274252744,0.0018852763,0.0012918948,0.0010060852,0.0,0.0,0.0,0.0
274256747,-0.0057700053,0.0014862928,0.0015958849,0.0,0.0,0.0,0.0
274260778,-0.009297264,0.0015864073,0.00241762,0.0,0.0,0.0,0.0
274264781,-0.002013538,0.0013859704,0.0029749875,0.0,0.0,0.0,0.0
274268754,0.008650725,0.0016120209,0.00269455,0.0,0.0,0.0,0.0
274272782,0.012654103,0.0016878655,0.0024331557,0.0,0.0,0.0,0.0
274276747,0.0070124557,0.0004991627,0.0026396322,0.0,0.0,0.0,0.0
274280767,-0.0013190904,-0.00048215676,0.0029943194,0.0,0.0,0.0,0.0
274284766,-0.0015509725,-0.0016187618,0.0034143024,0.0,0.0,0.0,0.0
274288744,0.0053804778,-0.0011968219,0.0030660168,0.0,0.0,0.0,0.0
274292746,0.010942095,-0.0014369267,0.0022906808,0.0,0.0,0.0,0.0
274296747,0.0067175645,-0.0005834896,0.0019691898,0.0,0.0,0.0,0.0
274300805,-0.002743939,-0.00016114023,0.0016755487,0.0,0.0,0.0,0.0
274304746,-0.009353152,0.00019822351,0.0013281394,0.0,0.0,0.0,0.0
274308741,-0.004834728,-2.4853507e-06,0.0014968213,0.0,0.0,0.0,0.0
274312741,0.0034532226,0.00021306612,0.000753612,0.0,0.0,0.0,0.0
274316749,0.0077867955,-6.705744e-05,-0.00011894136,0.0,0.0,0.0,0.0
274320778,0.003325838,-5.9347367e-06,-0.00022525375,0.0,0.0,0.0,0.0
274324748,-0.0054076,-0.00044168922,0.00021690654,0.0,0.0,0.0,0.0
274328803,-0.0070152185,-0.0015851811,0.00082305016,0.0,0.0,0.0,0.0
274332741,-0.00058194296,-0.0018078042,0.0009161419,0.0,0.0,0.0,0.0
274336750,0.0061937743,-0.0014917875,0.0005254486,0.0,0.0,0.0,0.0
274340778,0.005828131,-0.00023530179,0.00016403614,0.0,0.0,0.0,0.0
274344741,0.0007507694,0.0004418888,-0.0003985123,0.0,0.0,0.0,0.0
274348797,-0.004153816,0.0013603452,-0.0009215347,0.0,0.0,0.0,0.0
274352748,-0.000408235,0.00046213414,-0.0008625295,0.0,0.0,0.0,0.0
274356769,0.0064883586,0.0003671589,-0.0011976209,0.0,0.0,0.0,0.0
274360798,0.0110893175,0.0005414309,-0.0013751688,0.0,0.0,0.0,0.0
274364741,0.00721314,0.0009069139,-0.0012312569,0.0,0.0,0.0,0.0
274368777,-0.0010639913,0.00037128793,-0.0011728788,0.0,0.0,0.0,0.0
274372741,-0.0040363646,-5.5068056e-05,-0.0012371538,0.0,0.0,0.0,0.0
274376740,0.0015384192,0.00066912395,-0.0017713333,0.0,0.0,0.0,0.0
274380746,0.0087458035,0.0006570377,-0.0022634394,0.0,0.0,0.0,0.0
274384783,0.008620003,0.0013655839,-0.0020570192,0.0,0.0,0.0,0.0
274388783,0.0016062122,0.0005625122,-0.0017229338,0.0,0.0,0.0,0.0
274400744,-0.00035362598,-0.00015398243,-0.00078659033,0.0,0.0,0.0,0.0
274404741,0.0048982166,-0.0003323342,-0.0010183579,0.0,0.0,0.0,0.0
274408792,0.0018523782,2.2902852e-05,-0.0009035918,0.0,0.0,0.0,0.0
274412826,-0.0058476627,-0.00088561664,-0.00047175132,0.0,0.0,0.0,0.0
274416741,-0.008866484,-0.0014487015,0.00019482942,0.0,0.0,0.0,0.0
274420750,-0.0019677095,-0.00059724174,0.0007219957,0.0,0.0,0.0,0.0
274424750,0.007040178,-0.00020292745,0.0013249738,0.0,0.0,0.0,0.0
274428791,0.008690299,0.00034790218,0.0015970408,0.0,0.0,0.0,0.0
274432794,0.0020696837,-2.650381e-05,0.0014291344,0.0,0.0,0.0,0.0
274436762,-0.0068690134,-0.0007975455,0.0015279541,0.0,0.0,0.0,0.0
274440769,-0.0065183043,-0.0020625456,0.0020389345,0.0,0.0,0.0,0.0
274444744,0.0006867703,-0.0019384576,0.002249403,0.0,0.0,0.0,0.0
274448782,0.008772923,-0.002476954,0.0018168704,0.0,0.0,0.0,0.0
274452764,0.008172522,-0.0016962439,0.0019722546,0.0,0.0,0.0,0.0
274455989,0.0031066623,-0.0019339803,0.0021176075,0.0,0.0,0.0,0.0
274459944,-0.0033397782,-0.0013584315,0.002178748,0.0,0.0,0.0,0.0
274463219,-5.5683777e-06,-0.00088259205,0.0025432187,0.0,0.0,0.0,0.0
274467943,0.008570988,-4.404597e-05,0.0020721604,0.0,0.0,0.0,0.0
274471957,0.013549702,0.00040672347,0.0013603834,0.0,0.0,0.0,0.0
274475221,0.007969963,0.00058599503,0.0006682743,0.0,0.0,0.0,0.0
274479977,-0.0027779858,-0.00094798463,0.00029936823,0.0,0.0,0.0,0.0
274483224,-0.007478935,-0.002467994,0.00044225075,0.0,0.0,0.0,0.0
274487941,-0.0023074662,-0.0025701919,0.00054015004,0.0,0.0,0.0,0.0
274491947,0.005018563,-0.0023488193,4.3722743e-05,0.0,0.0,0.0,0.0
274495982,0.006089852,-0.0006291703,-0.0007384097,0.0,0.0,0.0,0.0
274499978,-0.00049891835,0.0004943465,-0.0018567212,0.0,0.0,0.0,0.0
274503221,-0.008220056,0.0014985848,-0.002037038,0.0,0.0,0.0,0.0
274507941,-0.0063994187,0.0015912879,-0.002146746,0.0,0.0,0.0,0.0
274511982,0.001274633,0.0023062984,-0.0027169103,0.0,0.0,0.0,0.0
274515982,0.006941078,0.002460801,-0.0032518767,0.0,0.0,0.0,0.0
274519965,0.0028577275,0.002798974,-0.0033084091,0.0,0.0,0.0,0.0
274523226,-0.006550134,0.0015629003,-0.003211359,0.0,0.0,0.0,0.0
274527941,-0.011215674,0.00041072222,-0.0026333304,0.0,0.0,0.0,0.0
274531947,-0.00645329,0.0003566381,-0.0021197603,0.0,0.0,0.0,0.0
274535982,0.0007277676,0.0006262391,-0.0018901895,0.0,0.0,0.0,0.0
274539976,0.002611217,0.0018081355,-0.0016504929,0.0,0.0,0.0,0.0
274543981,-0.0023096344,0.0028203113,-0.0016660707,0.0,0.0,0.0,0.0
274547941,-0.008608645,0.003066785,-0.0014648621,0.0,0.0,0.0,0.0
274551941,-0.0061987685,0.0023160013,-0.00051457406,0.0,0.0,0.0,0.0
274555968,0.0029224595,0.002254958,-0.00057428336,0.0,0.0,0.0,0.0
274559947,0.010174852,0.0012030967,-0.00095917267,0.0,0.0,0.0,0.0
274564037,0.0064494344,0.0010765162,-0.0007161609,0.0,0.0,0.0,0.0
274567941,-0.003701813,-4.893169e-06,0.00025784248,0.0,0.0,0.0,0.0
274571941,-0.010457862,-0.00026867358,0.0009611164,0.0,0.0,0.0,0.0
274575941,-0.0072246534,-0.0010124124,0.0015866889,0.0,0.0,0.0,0.0
274579941,-0.00073117344,-0.0018057221,0.0010855434,0.0,0.0,0.0,0.0
274583982,0.0015566167,-0.0014140331,0.0005473399,0.0,0.0,0.0,0.0
274587941,-0.0028737616,-0.00037712976,0.0007084677,0.0,0.0,0.0,0.0
274591943,-0.009027449,0.00030917965,0.0005329978,0.0,0.0,0.0,0.0
274595941,-0.007518096,0.0007910902,0.0008857908,0.0,0.0,0.0,0.0
274599941,0.00063858693,0.0011395519,0.0010498918,0.0,0.0,0.0,0.0
274604010,0.008358629,0.00042035547,0.0013879419,0.0,0.0,0.0,0.0
274607941,0.0072429767,-0.00034574728,0.0016302713,0.0,0.0,0.0,0.0
274611995,-0.0015078387,-0.0021774739,0.0024327892,0.0,0.0,0.0,0.0
274615943,-0.008958857,-0.0029702294,0.0028416521,0.0,0.0,0.0,0.0
274619940,-0.0065700384,-0.0031826142,0.0031091876,0.0,0.0,0.0,0.0
274624022,1.1708587e-05,-0.0025111937,0.002434579,0.0,0.0,0.0,0.0
274627941,0.0045369277,-0.0010201563,0.001940351,0.0,0.0,0.0,0.0
274631949,0.0017185416,0.0009332757,0.0015804787,0.0,0.0,0.0,0.0
274635944,-0.0045641223,0.001447165,0.00082922325,0.0,0.0,0.0,0.0
274639941,-0.0049075405,0.0015282573,0.00069622777,0.0,0.0,0.0,0.0
274643992,0.0027196456,0.0012076457,0.00037254754,0.0,0.0,0.0,0.0
274647966,0.010903008,0.00013159018,-0.00044254377,0.0,0.0,0.0,0.0
274651980,0.010906896,6.471842e-05,-0.00043204724,0.0,0.0,0.0,0.0
274655961,0.0024992246,-0.0010826382,6.1599276e-05,0.0,0.0,0.0,0.0
274659955,-0.006767824,-0.0010342704,0.00014373835,0.0,0.0,0.0,0.0
274663982,-0.0067778886,-7.105735e-05,-0.00030828582,0.0,0.0,0.0,0.0
274667981,-0.0007337439,0.001933614,-0.001341803,0.0,0.0,0.0,0.0
274671962,0.0043521565,0.0033125952,-0.0026642045,0.0,0.0,0.0,0.0
274675951,0.001268649,0.0045293,-0.002808753,0.0,0.0,0.0,0.0
274679945,-0.00653014,0.0035709857,-0.0024873288,0.0,0.0,0.0,0.0
274683967,-0.009398328,0.0025472324,-0.0023344778,0.0,0.0,0.0,0.0
274687963,-0.002523493,0.0013265198,-0.0024622376,0.0,0.0,0.0,0.0
274691988,0.006278784,-0.001073996,-0.002704754,0.0,0.0,0.0,0.0
274695958,0.008333197,-0.0025725714,-0.0022910796,0.0,0.0,0.0,0.0
274699952,0.0011619851,-0.0037483373,-0.0027654234,0.0,0.0,0.0,0.0
274703971,-0.008195706,-0.0043113683,-0.0031716535,0.0,0.0,0.0,0.0
274707953,-0.009456944,-0.0039003773,-0.0026193643,0.0,0.0,0.0,0.0
274711956,-0.004096531,-0.0024342253,-0.0023808666,0.0,0.0,0.0,0.0
274715947,0.0018136075,-0.0010176764,-0.0024759392,0.0,0.0,0.0,0.0
274719941,-0.00010178285,0.0012658809,-0.0022181747,0.0,0.0,0.0,0.0
274723954,-0.0073949504,0.0014977076,-0.0022654315,0.0,0.0,0.0,0.0
274727955,-0.011292718,0.0016882159,-0.0022897064,0.0,0.0,0.0,0.0
274731982,-0.0056635826,0.00069628726,-0.0016858948,0.0,0.0,0.0,0.0
274735941,0.002065424,-0.0004299247,-0.0013981136,0.0,0.0,0.0,0.0
274739941,0.0038575418,-0.000938566,-0.001158044,0.0,0.0,0.0,0.0
274743942,-0.002868616,-0.0007058531,-0.0011683323,0.0,0.0,0.0,0.0
274747947,-0.010826783,-0.00051658944,-0.000514706,0.0,0.0,0.0,0.0
274752018,-0.010985868,-0.00054921734,0.00063541136,0.0,0.0,0.0,0.0
274755944,-0.0036616423,-0.0004411653,0.001466174,0.0,0.0,0.0,0.0
274759947,0.0037530945,0.00022304023,0.0019172104,0.0,0.0,0.0,0.0
274763205,0.0039403304,0.001659076,0.002435425,0.0,0.0,0.0,0.0
274767950,-0.0041555665,0.0028379338,0.0021396677,0.0,0.0,0.0,0.0
274772009,-0.0083895065,0.0030548351,0.0021705136,0.0,0.0,0.0,0.0
274775944,-0.0027108127,0.0027143494,0.0027105268,0.0,0.0,0.0,0.0
274779950,0.006543734,0.0017803876,0.0027350183,0.0,0.0,0.0,0.0
274783196,0.010450918,0.00054373697,0.0026418688,0.0,0.0,0.0,0.0
274787151,0.0075103184,7.8282086e-05,0.0024642092,0.0,0.0,0.0,0.0
274791144,-0.0011598575,-0.00045921787,0.0024857065,0.0,0.0,0.0,0.0
274795154,-0.005906307,9.718083e-05,0.002666979,0.0,0.0,0.0,0.0
274798449,-0.0014010216,0.00034196884,0.0033072503,0.0,0.0,0.0,0.0
274803147,0.005849594,-0.00079332513,0.0030590422,0.0,0.0,0.0,0.0
274807165,0.0074669896,-0.0003263282,0.0023410504,0.0,0.0,0.0,0.0
274811145,0.0008244803,0.0009080692,0.00192667,0.0,0.0,0.0,0.0
274815160,-0.006584863,0.00193724,0.0014452104,0.0,0.0,0.0,0.0
274818431,-0.005713973,0.0024500326,0.0010977678,0.0,0.0,0.0,0.0
274823193,0.0015975984,0.0020568368,0.0004549915,0.0,0.0,0.0,0.0
274827175,0.007702223,0.00085364515,-0.0001702265,0.0,0.0,0.0,0.0
274831147,0.0052620573,0.0001594153,-0.0011572144,0.0,0.0,0.0,0.0
274835143,-0.0026397053,-0.001762011,-0.0019306027,0.0,0.0,0.0,0.0
274839215,-0.007368227,-0.0027295535,-0.0017877517,0.0,0.0,0.0,0.0
274843204,-0.0027752682,-0.003410764,-0.0018443593,0.0,0.0,0.0,0.0
274847153,0.0049051964,-0.0032969252,-0.0030536593,0.0,0.0,0.0,0.0
274851145,0.007856907,-0.0019786241,-0.0035709424,0.0,0.0,0.0,0.0
274855144,0.0023060439,-0.00031790795,-0.0032099218,0.0,0.0,0.0,0.0
274859231,-0.0055647455,0.00021528953,-0.0029123288,0.0,0.0,0.0,0.0
274863231,-0.0064207152,0.0008717538,-0.0023272962,0.0,0.0,0.0,0.0
274867162,0.00022083474,0.0012098642,-0.0021487486,0.0,0.0,0.0,0.0
274871157,0.0069565107,0.0003004826,-0.0024053915,0.0,0.0,0.0,0.0
274875143,0.0065897177,-4.470814e-06,-0.0024101255,0.0,0.0,0.0,0.0
274879192,-0.00039412873,-0.0011594621,-0.002796925,0.0,0.0,0.0,0.0
274883232,-0.006341637,-0.0017763508,-0.0031296504,0.0,0.0,0.0,0.0
274887191,-0.0036979145,-0.0019902224,-0.0021366416,0.0,0.0,0.0,0.0
274891154,0.0037697365,-0.0014421381,-0.0013568809,0.0,0.0,0.0,0.0
274895144,0.008568837,-0.00018318655,-0.0014126977,0.0,0.0,0.0,0.0
274899177,0.0040590568,0.00085062685,-0.0011126454,0.0,0.0,0.0,0.0
274903193,-0.004067937,0.00041093235,-0.00063564914,0.0,0.0,0.0,0.0
274907190,-0.0064506084,0.000746249,-0.00015184551,0.0,0.0,0.0,0.0
274911158,-0.00025655888,0.0005256947,0.00037702048,0.0,0.0,0.0,0.0
274915161,0.007010442,-7.649779e-05,0.00037444575,0.0,0.0,0.0,0.0
274919144,0.007732846,-9.743974e-05,0.00030418579,0.0,0.0,0.0,0.0
274923188,0.0008124248,-0.0011066037,0.00048484243,0.0,0.0,0.0,0.0
274927184,-0.0055293073,-0.001094749,0.00096399325,0.0,0.0,0.0,0.0
274931174,-0.002666351,-0.0005945034,0.0016540734,0.0,0.0,0.0,0.0
274935148,0.0053215967,-0.0003584288,0.0015666322,0.0,0.0,0.0,0.0
274939147,0.010384619,-0.0003815695,0.0013837374,0.0,0.0,0.0,0.0
274943189,0.0065329084,0.00088566483,0.0011554441,0.0,0.0,0.0,0.0
274947183,-0.0013587056,0.0008724452,0.0013370216,0.0,0.0,0.0,0.0
274951145,-0.0045016534,0.00095957716,0.0021025664,0.0,0.0,0.0,0.0
274955172,0.00071914773,0.0008209994,0.002571811,0.0,0.0,0.0,0.0
274959145,0.0076645166,-2.2423104e-05,0.0028958688,0.0,0.0,0.0,0.0
274963190,0.008629981,-0.00015609339,0.0030420886,0.0,0.0,0.0,0.0
274967256,0.00137068,-0.0001486513,0.003197373,0.0,0.0,0.0,0.0
274971145,-0.0057815593,-0.00035650033,0.0034155557,0.0,0.0,0.0,0.0
274975149,-0.0047251093,-0.00049841957,0.0038638618,0.0,0.0,0.0,0.0
274979144,0.001071346,-0.00075438886,0.003667249,0.0,0.0,0.0,0.0
274983186,0.005978194,-0.001019613,0.0032982884,0.0,0.0,0.0,0.0
274987211,0.004008292,7.133861e-05,0.0025735137,0.0,0.0,0.0,0.0
274991146,-0.0026504388,-0.00010806054,0.002230554,0.0,0.0,0.0,0.0
274995146,-0.0061512645,0.00015088648,0.0022156902,0.0,0.0,0.0,0.0
274999157,-0.0008641216,5.7888683e-05,0.0018664782,0.0,0.0,0.0,0.0
275003190,0.0066517666,-0.0005792734,0.001284836,0.0,0.0,0.0,0.0
275007203,0.00956184,-0.0011348549,0.000994189,0.0,0.0,0.0,0.0
275011152,0.0047413297,-0.0010547591,0.0010249487,0.0,0.0,0.0,0.0
275015149,-0.0017789342,-0.00116633,0.001062124,0.0,0.0,0.0,0.0
275019143,-0.0020888224,-0.00092828495,0.00097524805,0.0,0.0,0.0,0.0
275023155,0.00373453,-0.00064308493,-4.5839988e-05,0.0,0.0,0.0,0.0
275027207,0.009216613,-0.0008968654,-0.0006232393,0.0,0.0,0.0,0.0
275031152,0.007878933,-0.00039938453,-0.00066371687,0.0,0.0,0.0,0.0
275035154,0.00061699376,-0.0007951736,-0.00085118023,0.0,0.0,0.0,0.0
275039172,-0.0048306873,-0.0004204957,-0.0010350206,0.0,0.0,0.0,0.0
275043182,-0.0015182658,-0.00027619518,-0.0017718456,0.0,0.0,0.0,0.0
275047203,0.0047658384,-0.00083262613,-0.002769384,0.0,0.0,0.0,0.0
275051184,0.007858911,-0.0006185626,-0.003414451,0.0,0.0,0.0,0.0
275055181,0.0026920086,0.0004408427,-0.0035551745,0.0,0.0,0.0,0.0
275059153,-0.0053926,-0.0005545411,-0.0034181876,0.0,0.0,0.0,0.0
275063173,-0.0080302395,-0.0010739128,-0.003323074,0.0,0.0,0.0,0.0
275067204,-0.0026287627,-0.0019601395,-0.0035014048,0.0,0.0,0.0,0.0
275074399,0.006137597,-0.0020884802,-0.0035903894,0.0,0.0,0.0,0.0
275077587,0.00088142464,-0.00069477805,-0.0033359136,0.0,0.0,0.0,0.0
275082369,-0.005260988,0.0006873717,-0.0033028,0.0,0.0,0.0,0.0
275086348,-0.004674875,0.002119631,-0.0035734018,0.0,0.0,0.0,0.0
275090341,0.0018849284,0.0027056811,-0.00424532,0.0,0.0,0.0,0.0
275094423,0.006986121,0.0022002202,-0.004077303,0.0,0.0,0.0,0.0
275098380,0.0043279966,0.0021184902,-0.0033343798,0.0,0.0,0.0,0.0
275102385,-0.003971265,0.0005963646,-0.0023308075,0.0,0.0,0.0,0.0
275106347,-0.00948259,0.0001454379,-0.0018504445,0.0,0.0,0.0,0.0
275110348,-0.0053623477,-0.0008713663,-0.0016985132,0.0,0.0,0.0,0.0
275114342,0.0025758853,-0.0015127381,-0.0010416163,0.0,0.0,0.0,0.0
275118409,0.0068898043,-0.0015849473,-0.00019351993,0.0,0.0,0.0,0.0
275122349,0.002669432,-0.0009470978,0.00030217302,0.0,0.0,0.0,0.0
275126362,-0.0037625507,-0.0005298007,0.0006766715,0.0,0.0,0.0,0.0
275130348,-0.0052333106,0.001157985,0.001332008,0.0,0.0,0.0,0.0
275134354,0.00019433163,0.0019111919,0.0015065572,0.0,0.0,0.0,0.0
275138399,0.0052775024,0.0014518055,0.002050915,0.0,0.0,0.0,0.0
275142369,0.0035159178,0.0011805657,0.0031673242,0.0,0.0,0.0,0.0
275146347,-0.004426247,-0.00017523946,0.0034791713,0.0,0.0,0.0,0.0
275150340,-0.010069463,-0.00043505122,0.0033538882,0.0,0.0,0.0,0.0
275154351,-0.0067797834,-0.00050666404,0.0032667238,0.0,0.0,0.0,0.0
275158418,0.0014686484,-0.0005499774,0.003273182,0.0,0.0,0.0,0.0
275162383,0.0070998045,-5.8126287e-05,0.0033297034,0.0,0.0,0.0,0.0
275166340,0.004100567,0.0011095171,0.0040249606,0.0,0.0,0.0,0.0
275170381,-0.0021835295,0.0013558429,0.0044924025,0.0,0.0,0.0,0.0
275174340,-0.003752367,0.002871887,0.004606796,0.0,0.0,0.0,0.0
275178422,0.0015998362,0.0027485737,0.0042108875,0.0,0.0,0.0,0.0
275182368,0.006543831,0.00078309653,0.003389005,0.0,0.0,0.0,0.0
275186344,0.006209441,-0.00092167663,0.0024676453,0.0,0.0,0.0,0.0
275190347,-0.0004899241,-0.0016843427,0.0016545884,0.0,0.0,0.0,0.0
275194345,-0.0066689486,-0.0016765059,0.001079642,0.0,0.0,0.0,0.0
275198408,-0.005543628,-0.00061011757,0.0009879541,0.0,0.0,0.0,0.0
275202425,0.00022688834,0.00020294194,0.000800169,0.0,0.0,0.0,0.0
275206346,0.0040235035,0.000532249,0.0006857371,0.0,0.0,0.0,0.0
275210340,-0.00024133315,0.0010462871,0.00012952415,0.0,0.0,0.0,0.0
275214344,-0.006969161,7.696834e-05,-0.00036728563,0.0,0.0,0.0,0.0
275218420,-0.009806275,0.00016519264,-0.0006950288,0.0,0.0,0.0,0.0
275222414,-0.0055298354,-0.00033672928,-0.00080897764,0.0,0.0,0.0,0.0
275226359,0.00010614935,-0.0009705871,-0.0007833876,0.0,0.0,0.0,0.0
275230349,0.0018849515,-0.0008130972,-0.0007898824,0.0,0.0,0.0,0.0
275234342,-0.0038955011,-0.0008567389,-0.0008395634,0.0,0.0,0.0,0.0
275238386,-0.0102429595,-0.0014905396,-0.00083682017,0.0,0.0,0.0,0.0
275242408,-0.009521702,-0.0009846555,-0.0011735742,0.0,0.0,0.0,0.0
275246341,-0.0024282136,-0.0007969968,-0.0017114882,0.0,0.0,0.0,0.0
275250361,0.0043010535,-0.00072201516,-0.0021649508,0.0,0.0,0.0,0.0
275254341,0.004094363,-0.00020542624,-0.0022525906,0.0,0.0,0.0,0.0
275258388,-0.0010026013,-0.00063459534,-0.0026656447,0.0,0.0,0.0,0.0
275262413,-0.0055790623,-0.00025276717,-0.003057326,0.0,0.0,0.0,0.0
275266344,-0.0028314292,-0.00066443294,-0.0031686097,0.0,0.0,0.0,0.0
275270381,0.0029876158,-0.0009054194,-0.0032280304,0.0,0.0,0.0,0.0
275274340,0.005831477,-0.0012736442,-0.003759536,0.0,0.0,0.0,0.0
275278414,0.00022954866,-0.0013558518,-0.004402449,0.0,0.0,0.0,0.0
275282354,-0.0066369064,-0.0022216474,-0.004410389,0.0,0.0,0.0,0.0
275286388,-0.007368968,-0.0015785913,-0.0036143586,0.0,0.0,0.0,0.0
275290365,-0.001274215,-0.0011248,-0.0032874232,0.0,0.0,0.0,0.0
275294340,0.0033633406,-0.0006374744,-0.0033573592,0.0,0.0,0.0,0.0
275298424,0.002000999,-4.9400143e-05,-0.0035393173,0.0,0.0,0.0,0.0
275302351,-0.004735206,-0.00032008847,-0.0034312168,0.0,0.0,0.0,0.0
275306377,-0.009739553,0.00082583516,-0.0027025787,0.0,0.0,0.0,0.0
275310374,-0.006180371,0.0008914843,-0.0017949918,0.0,0.0,0.0,0.0
275314341,0.0011423775,2.782396e-05,-0.0006543357,0.0,0.0,0.0,0.0
275318395,0.005376861,-0.0005321847,0.0005672441,0.0,0.0,0.0,0.0
275322348,0.0012507478,-0.00011074729,0.0013665634,0.0,0.0,0.0,0.0
275326357,-0.0038592839,-0.00039232522,0.0019187058,0.0,0.0,0.0,0.0
275330378,-0.00423483,0.00034447643,0.0029049767,0.0,0.0,0.0,0.0
275334348,0.0021897103,0.00032166636,0.003683968,0.0,0.0,0.0,0.0
275338395,0.0076248515,0.00054477574,0.0040632403,0.0,0.0,0.0,0.0
275342347,0.006795517,0.00060614164,0.003907021,0.0,0.0,0.0,0.0
275346356,-0.00058897585,-0.0005177187,0.0037539622,0.0,0.0,0.0,0.0
275350379,-0.0061742,-0.0007237786,0.0037979155,0.0,0.0,0.0,0.0
275354344,-0.0031518522,-0.0007911238,0.0034523504,0.0,0.0,0.0,0.0
275358409,0.0045134122,-0.0011788304,0.0020178766,0.0,0.0,0.0,0.0
275362349,0.009436046,-0.0008213398,0.0012861607,0.0,0.0,0.0,0.0
275366387,0.0055351714,0.00046330376,0.00094088353,0.0,0.0,0.0,0.0
275370436,-0.0016537705,-0.00014199317,0.0011101577,0.0,0.0,0.0,0.0
275374341,-0.005849596,-1.4508725e-05,0.0016013647,0.0,0.0,0.0,0.0
275378408,-0.002679614,-0.0018483227,0.0021563482,0.0,0.0,0.0,0.0
275382351,0.0013937475,-0.00307685,0.0023553292,0.0,0.0,0.0,0.0
275386342,0.0016274229,-0.002699947,0.0017390903,0.0,0.0,0.0,0.0
275390415,-0.0039939857,-0.0020866748,0.0010370216,0.0,0.0,0.0,0.0
275393574,-0.008109855,-0.0016021407,0.0007066006,0.0,0.0,0.0,0.0
275397568,-0.008333322,3.980822e-05,0.0010092873,0.0,0.0,0.0,0.0
275401544,-0.0016532666,0.001069271,0.001434946,0.0,0.0,0.0,0.0
275405557,0.005392709,0.0013182741,0.0006245381,0.0,0.0,0.0,0.0
275409541,0.006936886,0.0015657467,-0.000365543,0.0,0.0,0.0,0.0
275413559,0.0015465878,0.0011751761,-0.0007508404,0.0,0.0,0.0,0.0
275417644,-0.0050455704,0.0010524036,-0.0006623521,0.0,0.0,0.0,0.0
275421541,-0.004341578,0.0005602585,-0.0006608325,0.0,0.0,0.0,0.0
275425547,0.00089204265,-0.00017842639,-0.0009179368,0.0,0.0,0.0,0.0
275429543,0.0046930755,-0.0010104366,-0.0011532492,0.0,0.0,0.0,0.0
275433596,0.0011240807,-0.00052466337,-0.0012724574,0.0,0.0,0.0,0.0
275437619,-0.0045280755,-0.00042853935,-0.0018514232,0.0,0.0,0.0,0.0
275441544,-0.006465628,0.0011844831,-0.002392522,0.0,0.0,0.0,0.0
275445546,-0.0014415658,0.001414526,-0.0021983143,0.0,0.0,0.0,0.0
275449541,0.0046735555,0.0009705435,-0.001847158,0.0,0.0,0.0,0.0
275453554,0.005544533,0.000678523,-0.00216722,0.0,0.0,0.0,0.0
275457615,-0.00037472695,-2.1848246e-05,-0.0024818121,0.0,0.0,0.0,0.0
275461541,-0.0074162125,-0.00074788416,-0.0023787804,0.0,0.0,0.0,0.0
275465583,-0.008412186,-0.0012745463,-0.0015989577,0.0,0.0,0.0,0.0
275469541,-0.0037970948,-0.0020036877,-0.0014156676,0.0,0.0,0.0,0.0
275473574,0.0014369697,-0.0014055505,-0.0016751327,0.0,0.0,0.0,0.0
275477552,-6.942684e-05,8.956331e-05,-0.0021261673,0.0,0.0,0.0,0.0
275481541,-0.0046495902,0.00040476932,-0.0016294881,0.0,0.0,0.0,0.0
275485561,-0.006829063,0.0025273105,-0.001121511,0.0,0.0,0.0,0.0
275489544,-0.0017371248,0.002449581,-0.0003212595,0.0,0.0,0.0,0.0
275493547,0.004253689,0.0012334402,0.00029032564,0.0,0.0,0.0,0.0
275497560,0.007105327,-5.633803e-06,0.000694907,0.0,0.0,0.0,0.0
275501544,0.0019969703,-0.00015436823,0.00094051677,0.0,0.0,0.0,0.0
275505574,-0.004630405,-0.00046832894,0.00074861,0.0,0.0,0.0,0.0
275509541,-0.005442357,-0.00016576424,0.0005194173,0.0,0.0,0.0,0.0
275513543,-0.00013229065,-0.00045777456,0.0004912108,0.0,0.0,0.0,0.0
275517553,0.0048230262,-0.00032157748,0.0008754198,0.0,0.0,0.0,0.0
275521582,0.0036633168,0.00017084111,0.001961809,0.0,0.0,0.0,0.0
275525602,-0.0013102135,-0.0006383924,0.0022003425,0.0,0.0,0.0,0.0
275529542,-0.004537534,-0.00020445907,0.0018419316,0.0,0.0,0.0,0.0
275533557,-0.0006731963,-0.00081079855,0.0014438333,0.0,0.0,0.0,0.0
275537541,0.004616934,-0.00031852897,0.0009780189,0.0,0.0,0.0,0.0
275541577,0.0070231003,-0.00028209656,0.0014572092,0.0,0.0,0.0,0.0
275545586,0.0007738485,-0.00045952195,0.0020205844,0.0,0.0,0.0,0.0
275549541,-0.0069179926,-0.0001285068,0.0021253356,0.0,0.0,0.0,0.0
275553557,-0.0096393265,0.0018336212,0.0020154116,0.0,0.0,0.0,0.0
275557547,-0.0040302654,0.0021295361,0.0017678358,0.0,0.0,0.0,0.0
275561594,0.0020792435,0.0017353503,0.0018439812,0.0,0.0,0.0,0.0
275565582,0.00285072,0.00171018,0.0018185661,0.0,0.0,0.0,0.0
275569573,-0.00076002395,0.0004978953,0.0017037364,0.0,0.0,0.0,0.0
275573569,-0.003916656,-0.0003118004,0.000945059,0.0,0.0,0.0,0.0
275577550,-0.0013755369,-0.0015124833,0.00025921536,0.0,0.0,0.0,0.0
275581561,0.0041742995,-0.0018074464,0.0003582432,0.0,0.0,0.0,0.0
275585571,0.007902324,-0.001973449,0.00032802526,0.0,0.0,0.0,0.0
275589544,0.0038264804,-0.0018080539,0.00032535117,0.0,0.0,0.0,0.0
275593550,-0.0029751877,-0.001984735,-9.9632365e-05,0.0,0.0,0.0,0.0
275597550,-0.0065710437,-0.0009101997,-0.00096520584,0.0,0.0,0.0,0.0
275601574,-0.0019810311,-0.00097197946,-0.0012566894,0.0,0.0,0.0,0.0
275605605,0.004302051,-0.00036747655,-0.0019380152,0.0,0.0,0.0,0.0
275609544,0.0049536666,0.00012197811,-0.0028173036,0.0,0.0,0.0,0.0
275613546,6.800471e-05,-0.0008811695,-0.0031215444,0.0,0.0,0.0,0.0
275617577,-0.0042440053,-0.00047607464,-0.0028953373,0.0,0.0,0.0,0.0
275621573,-0.0028410088,-0.00043611886,-0.0032137795,0.0,0.0,0.0,0.0
275625604,0.0022344487,-0.00023100746,-0.0033630403,0.0,0.0,0.0,0.0
275629547,0.005770276,-0.0003940473,-0.0034968448,0.0,0.0,0.0,0.0
275633559,0.0020001156,5.7505677e-06,-0.0028325564,0.0,0.0,0.0,0.0
275637541,-0.0048724622,-0.000492336,-0.0016800801,0.0,0.0,0.0,0.0
275641580,-0.008721712,0.0005951023,-0.0005190804,0.0,0.0,0.0,0.0
275645563,-0.00465383,0.00045058737,1.1300144e-05,0.0,0.0,0.0,0.0
275648785,9.6664764e-05,0.00024785998,-0.00021193182,0.0,0.0,0.0,0.0
275653579,0.00524215,-0.00034576148,-0.0004813897,0.0,0.0,0.0,0.0
275657541,0.0017701464,-7.8333076e-05,-0.0001671827,0.0,0.0,0.0,0.0
275660798,-0.0013248427,0.00038535031,-0.00044900592,0.0,0.0,0.0,0.0
275664763,-0.0021787891,0.0010661713,-0.0009892129,0.0,0.0,0.0,0.0
275668745,0.0022542758,0.00084872684,-0.0009792529,0.0,0.0,0.0,0.0
275672820,0.007268695,0.0008245992,-0.00058209343,0.0,0.0,0.0,0.0
275676741,0.007634649,0.0008111249,5.6639896e-05,0.0,0.0,0.0,0.0
275680756,0.0026795904,-5.378679e-05,0.00063076825,0.0,0.0,0.0,0.0
275684741,-0.0018520877,0.0002859108,0.00095731637,0.0,0.0,0.0,0.0
275688759,-0.00081259897,6.6578155e-05,0.0015813871,0.0,0.0,0.0,0.0
275692787,0.0033601131,-7.624598e-05,0.0016671566,0.0,0.0,0.0,0.0
275695990,0.0070404364,-6.642484e-05,0.0015660669,0.0,0.0,0.0,0.0
275700829,0.0037563778,0.00073457125,0.0015022664,0.0,0.0,0.0,0.0
275704741,-0.0022424432,0.00013693736,0.0016791748,0.0,0.0,0.0,0.0
275708762,-0.005572225,0.00020202517,0.001681176,0.0,0.0,0.0,0.0
275712764,-0.0018910025,-0.0009827819,0.0023391643,0.0,0.0,0.0,0.0
275716748,0.0031756093,-0.0021237158,0.002412471,0.0,0.0,0.0,0.0
275720788,0.004407134,-0.0021553277,0.0017878371,0.0,0.0,0.0,0.0
275724741,0.0008863327,-0.0021559815,0.0010272842,0.0,0.0,0.0,0.0
275728767,-0.0025564036,-0.0011467328,0.00013746822,0.0,0.0,0.0,0.0
275732746,-0.00027695158,-0.0004262447,-0.0005533289,0.0,0.0,0.0,0.0
275736741,0.0071131214,-5.3992146e-05,-0.0003929701,0.0,0.0,0.0,0.0
275740785,0.013482717,0.0007755937,-0.0002594501,0.0,0.0,0.0,0.0
275744741,0.012146765,0.0017326318,-0.00049619743,0.0,0.0,0.0,0.0
275748754,0.006154648,0.0010252658,-0.0010339522,0.0,0.0,0.0,0.0
275752746,0.0016765126,0.0015218322,-0.0026262398,0.0,0.0,0.0,0.0
275756816,0.0034636944,0.00055819214,-0.0033938568,0.0,0.0,0.0,0.0
275760779,0.0070681544,-0.0001563154,-0.003024494,0.0,0.0,0.0,0.0
275764741,0.0073157335,-0.00025485724,-0.0018812229,0.0,0.0,0.0,0.0
275768750,0.0017034104,-0.00023333647,-0.0013200308,0.0,0.0,0.0,0.0
275772751,-0.005014112,6.524613e-06,-0.0017765032,0.0,0.0,0.0,0.0
275776786,-0.0062867287,0.0009990581,-0.0018292064,0.0,0.0,0.0,0.0
275780771,-0.0016592192,0.0019898198,-0.0016060203,0.0,0.0,0.0,0.0
275784778,0.0033689705,0.0028036102,-0.001445736,0.0,0.0,0.0,0.0
275788743,0.0026572938,0.003031124,-0.001392172,0.0,0.0,0.0,0.0
275792751,-0.0023952052,0.0030662124,-0.0016924604,0.0,0.0,0.0,0.0
275796791,-0.0065989876,0.0043749255,-0.001800624,0.0,0.0,0.0,0.0
275800741,-0.0041420716,0.003283533,-0.0012500358,0.0,0.0,0.0,0.0
275804741,0.0008239937,0.0011798206,-0.0005994169,0.0,0.0,0.0,0.0
275808788,0.0039185854,-0.00055445527,-0.000410397,0.0,0.0,0.0,0.0
275812790,0.001129942,-0.0007184672,0.00015670693,0.0,0.0,0.0,0.0
275816745,-0.003177002,-0.00033746212,0.0008205021,0.0,0.0,0.0,0.0
275820741,-0.0052452153,0.00093344727,0.001371085,0.0,0.0,0.0,0.0
275824741,-0.0011432581,0.0008877872,0.0019823234,0.0,0.0,0.0,0.0
275828768,0.004346656,0.00068941375,0.0024774347,0.0,0.0,0.0,0.0
275832763,0.0049423994,0.0001852879,0.0023165909,0.0,0.0,0.0,0.0
275836791,0.0015671672,-0.0013002066,0.0024338104,0.0,0.0,0.0,0.0
275840792,-0.0013063061,-0.0016033442,0.0025278865,0.0,0.0,0.0,0.0
275844761,0.00044812448,-0.0024415855,0.0023968057,0.0,0.0,0.0,0.0
275848782,0.004211959,-0.002971455,0.0029805698,0.0,0.0,0.0,0.0
275852744,0.0066840127,-0.0033541892,0.0034945519,0.0,0.0,0.0,0.0
275856774,0.004046,-0.0029233498,0.0042412383,0.0,0.0,0.0,0.0
275860781,-0.00015790574,-0.002820886,0.00436324,0.0,0.0,0.0,0.0
275864751,-0.0035014553,-0.0015131519,0.0037859962,0.0,0.0,0.0,0.0
275868829,-0.0001513455,-0.0016333278,0.0031923808,0.0,0.0,0.0,0.0
275872741,0.0038709703,-0.0017152614,0.0024048868,0.0,0.0,0.0,0.0
275876761,0.0047803656,-0.0018984878,0.002440431,0.0,0.0,0.0,0.0
275880765,0.00064212177,-0.0021650204,0.0021794736,0.0,0.0,0.0,0.0
275884748,-0.0038029812,-0.0025367711,0.001712956,0.0,0.0,0.0,0.0
275888767,-0.0035477704,-0.0029266113,0.0007915549,0.0,0.0,0.0,0.0
275892741,0.0006368384,-0.0022082906,0.00059899717,0.0,0.0,0.0,0.0
275896754,0.005544786,-0.0011410979,0.0005685718,0.0,0.0,0.0,0.0
275900756,0.004020095,-0.0001469967,0.00032696867,0.0,0.0,0.0,0.0
275904749,-1.9871164e-05,0.0006294529,0.00069122046,0.0,0.0,0.0,0.0
275908768,-0.0039173127,0.0025871699,9.885657e-05,0.0,0.0,0.0,0.0
275912741,-0.0015063458,0.002895005,-0.00038821204,0.0,0.0,0.0,0.0
275916794,0.0024282408,0.0027551148,-0.0006291845,0.0,0.0,0.0,0.0
275920746,0.0030358648,0.0019761669,-0.00058903825,0.0,0.0,0.0,0.0
275924792,-0.00047310954,0.0016102154,-0.0005764285,0.0,0.0,0.0,0.0
275928768,-0.004386843,0.0015180215,-0.0010894932,0.0,0.0,0.0,0.0
275932748,-0.0043768054,0.001191123,-0.0015816899,0.0,0.0,0.0,0.0
275936807,8.929521e-05,0.0008434395,-0.0015088177,0.0,0.0,0.0,0.0
275940758,0.005314173,0.0011884589,-0.0014078828,0.0,0.0,0.0,0.0
275944804,0.005795885,0.002207133,-0.0020083373,0.0,0.0,0.0,0.0
275948741,0.0014340116,0.0020539667,-0.002702805,0.0,0.0,0.0,0.0
275952785,-0.002752996,0.0028691143,-0.003441349,0.0,0.0,0.0,0.0
275956757,-0.001377353,0.002069443,-0.0034820826,0.0,0.0,0.0,0.0
275960741,0.00230935,0.001305885,-0.0031988486,0.0,0.0,0.0,0.0
275964799,0.0039011757,0.00048493745,-0.0032419204,0.0,0.0,0.0,0.0
275968744,0.00030475622,0.00065203954,-0.0037663379,0.0,0.0,0.0,0.0
275972754,-0.005620551,0.00044824486,-0.004736419,0.0,0.0,0.0,0.0
275976780,-0.008862797,0.00025588938,-0.005093808,0.0,0.0,0.0,0.0
275980778,-0.005233093,-0.0010824281,-0.004291107,0.0,0.0,0.0,0.0
275984790,0.0004070378,-0.0022777074,-0.003818314,0.0,0.0,0.0,0.0
275988741,0.001976243,-0.0029325974,-0.0033729663,0.0,0.0,0.0,0.0
275992741,-0.00067710644,-0.00336847,-0.0029979297,0.0,0.0,0.0,0.0
275996788,-0.004562555,-0.002420052,-0.0028996458,0.0,0.0,0.0,0.0
276000741,-0.0038637072,-0.002480511,-0.002177804,0.0,0.0,0.0,0.0
276003991,-0.00074812677,-0.002542125,-0.0017137784,0.0,0.0,0.0,0.0
276007947,0.0031195155,-0.002872238,-0.0011250603,0.0,0.0,0.0,0.0
276011978,0.001798071,-0.0038182465,-0.000506596,0.0,0.0,0.0,0.0
276015941,-0.0030508414,-0.0045278184,0.00045420096,0.0,0.0,0.0,0.0
276019941,-0.007674556,-0.003398057,0.0012149394,0.0,0.0,0.0,0.0
276023964,-0.0059255594,-0.002957323,0.0018072434,0.0,0.0,0.0,0.0
276027947,-0.00020646071,-0.0018653661,0.0022215135,0.0,0.0,0.0,0.0
276031986,0.0037803398,-0.0003382474,0.0023036557,0.0,0.0,0.0,0.0
276035941,0.0026085207,0.0014556516,0.0025063953,0.0,0.0,0.0,0.0
276039941,-0.00080891,0.0031984348,0.002257141,0.0,0.0,0.0,0.0
276043995,-0.0030567753,0.004333942,0.0019033372,0.0,0.0,0.0,0.0
276047947,-0.00089641707,0.0039412472,0.002160788,0.0,0.0,0.0,0.0
276051990,0.0026978864,0.0029065653,0.0027786717,0.0,0.0,0.0,0.0
276055944,0.0026142434,0.0021816124,0.0028753846,0.0,0.0,0.0,0.0
276059951,-0.0024511255,0.0013969056,0.0026677267,0.0,0.0,0.0,0.0
276063982,-0.008067298,0.0016768076,0.0019884435,0.0,0.0,0.0,0.0
276067955,-0.00782836,0.0015347819,0.0015395614,0.0,0.0,0.0,0.0
276072008,-0.0033446644,0.0021794126,0.0020062288,0.0,0.0,0.0,0.0
276075977,0.0005127955,0.0028910902,0.0018958588,0.0,0.0,0.0,0.0
276079947,0.00010145549,0.0039674668,0.0019487871,0.0,0.0,0.0,0.0
276083967,-0.0034783524,0.0042365585,0.0017712306,0.0,0.0,0.0,0.0
276087964,-0.0067509245,0.0041420218,0.0008907841,0.0,0.0,0.0,0.0
276091971,-0.005666947,0.0028907247,0.0009165581,0.0,0.0,0.0,0.0
276095966,-0.0031428984,0.0010542821,0.0014591833,0.0,0.0,0.0,0.0
276099965,-0.0027877209,-0.0005263853,0.0021680254,0.0,0.0,0.0,0.0
276103968,-0.006480216,-0.00067738816,0.00203269,0.0,0.0,0.0,0.0
276107944,-0.010642622,0.00016782235,0.0011017695,0.0,0.0,0.0,0.0
276111955,-0.009752018,-2.9423973e-05,0.00035669157,0.0,0.0,0.0,0.0
276115966,-0.0033885944,-0.00050283724,0.0003317717,0.0,0.0,0.0,0.0
276119947,0.0040720184,-0.0011485969,0.0011090548,0.0,0.0,0.0,0.0
276123982,0.0068539847,-0.0012123405,0.0011324269,0.0,0.0,0.0,0.0
276127944,0.004860832,-0.0009403474,0.00020120127,0.0,0.0,0.0,0.0
276131957,0.0015918987,-0.00051681965,-0.0009952146,0.0,0.0,0.0,0.0
276135962,0.0023455233,-0.0013005702,-0.00089137326,0.0,0.0,0.0,0.0
276139958,0.005571308,-0.0015814407,-0.00046821625,0.0,0.0,0.0,0.0
276143941,0.006106437,-0.0019895015,-0.000558974,0.0,0.0,0.0,0.0
276147941,0.0014357634,-0.0026045148,-0.0006622927,0.0,0.0,0.0,0.0
276151966,-0.004564804,-0.0023828899,-0.0012555271,0.0,0.0,0.0,0.0
276155958,-0.00721363,-0.0026480006,-0.0017885368,0.0,0.0,0.0,0.0
276159978,-0.0037477752,-0.0032082838,-0.0018148846,0.0,0.0,0.0,0.0
276163943,0.0011928482,-0.0029951218,-0.0020592562,0.0,0.0,0.0,0.0
276167940,0.002029909,-0.0020324201,-0.002004285,0.0,0.0,0.0,0.0
276171975,-0.0026085791,-0.00080996414,-0.002547903,0.0,0.0,0.0,0.0
276175947,-0.008832094,0.0008199584,-0.0039634425,0.0,0.0,0.0,0.0
276179998,-0.009433725,0.00090795534,-0.004053085,0.0,0.0,0.0,0.0
276183944,-0.0063476125,0.00045998243,-0.003197067,0.0,0.0,0.0,0.0
276187941,-0.0039382996,-0.0009384289,-0.0023502584,0.0,0.0,0.0,0.0
276191974,-0.005206401,-0.0017435474,-0.0018118282,0.0,0.0,0.0,0.0
276195947,-0.0077699837,-0.0012529357,-0.0015368615,0.0,0.0,0.0,0.0
276199993,-0.0075924373,-0.0013390214,-0.0013161491,0.0,0.0,0.0,0.0
276203941,-0.0007680794,-0.0010763664,-0.00079516694,0.0,0.0,0.0,0.0
276207941,0.006544641,-0.00014086964,0.00011600819,0.0,0.0,0.0,0.0
276211979,0.010331575,0.0014545813,0.00081561995,0.0,0.0,0.0,0.0
276215940,0.00928057,0.0038870538,0.0011679989,0.0,0.0,0.0,0.0
276219950,0.005251829,0.005015551,0.00067857595,0.0,0.0,0.0,0.0
276223941,0.0043915864,0.0046381014,0.0011964235,0.0,0.0,0.0,0.0
276227941,0.006569601,0.0036291564,0.0022399956,0.0,0.0,0.0,0.0
276231968,0.0076130535,0.0010882189,0.0027893102,0.0,0.0,0.0,0.0
276235948,0.0048487606,-0.0006289553,0.0027850668,0.0,0.0,0.0,0.0
276239940,-0.00021594856,-0.00178116,0.0018771766,0.0,0.0,0.0,0.0
276244000,-0.004072631,-0.0017533461,0.00054933253,0.0,0.0,0.0,0.0
276247944,-0.0016873702,-0.0012431546,0.00039384025,0.0,0.0,0.0,0.0
276251978,0.0026412026,-0.00041811616,0.00092213054,0.0,0.0,0.0,0.0
276255941,0.004698085,0.00021411595,0.0010044044,0.0,0.0,0.0,0.0
276259949,0.0010731504,0.0013989658,0.0009006273,0.0,0.0,0.0,0.0
276263984,-0.0058278763,0.0024940444,0.00018823141,0.0,0.0,0.0,0.0
276267206,-0.008823015,0.0026453035,0.00032865425,0.0,0.0,0.0,0.0
276271161,-0.0068788673,0.0011534771,0.00079651864,0.0,0.0,0.0,0.0
276278427,-0.0016322988,-0.0039638174,0.0013427769,0.0,0.0,0.0,0.0
276283194,-0.0035303826,-0.00492745,0.0023755454,0.0,0.0,0.0,0.0
276286409,-0.0053997515,-0.0046312707,0.0025706128,0.0,0.0,0.0,0.0
276291165,-0.0028406577,-0.004045592,0.0024190182,0.0,0.0,0.0,0.0
276295174,0.005143416,-0.0028490247,0.0023139967,0.0,0.0,0.0,0.0
276299182,0.011148803,-0.0019264729,0.0020672425,0.0,0.0,0.0,0.0
276303198,0.011846689,-0.0011917847,0.0021053462,0.0,0.0,0.0,0.0
276307167,0.008035725,-0.001454629,0.0018647937,0.0,0.0,0.0,0.0
276311195,0.0035278788,-0.002200078,0.0014893302,0.0,0.0,0.0,0.0
276315161,0.0044351807,-0.0028927708,0.0017450002,0.0,0.0,0.0,0.0
276319183,0.0069083534,-0.0027083792,0.0018259839,0.0,0.0,0.0,0.0
276323193,0.007874606,-0.0026008831,0.0012829779,0.0,0.0,0.0,0.0
276327185,0.0052477256,-0.0015671339,0.0003542834,0.0,0.0,0.0,0.0
276331183,0.0010450091,-0.000264131,-0.0005771365,0.0,0.0,0.0,0.0
276335150,-0.0003789696,0.0004046593,-0.0012950373,0.0,0.0,0.0,0.0
276339143,0.0025225827,0.0002948863,-0.0014044708,0.0,0.0,0.0,0.0
276343197,0.0047566146,3.37729e-05,-0.0020866115,0.0,0.0,0.0,0.0
276347190,0.002885272,-3.3960445e-05,-0.0024300043,0.0,0.0,0.0,0.0
276351168,-0.0030221515,0.0010012911,-0.0028486159,0.0,0.0,0.0,0.0
276355166,-0.008601854,0.0024323137,-0.003630855,0.0,0.0,0.0,0.0
276359143,-0.008587111,0.0027503136,-0.0033878007,0.0,0.0,0.0,0.0
276363195,-0.0053585875,0.0027140297,-0.0031275155,0.0,0.0,0.0,0.0
276367179,-0.001934988,0.0025128587,-0.0025402722,0.0,0.0,0.0,0.0
276371156,-0.0023683459,0.0039314157,-0.0017812657,0.0,0.0,0.0,0.0
276375170,-0.0053357454,0.00437186,-0.0013323317,0.0,0.0,0.0,0.0
276379158,-0.0059651565,0.003145603,-0.000822463,0.0,0.0,0.0,0.0
276383200,-0.000772296,0.0012356914,-7.301796e-05,0.0,0.0,0.0,0.0
276387177,0.0050033503,-6.061513e-06,0.0010125289,0.0,0.0,0.0,0.0
276391150,0.0077027935,0.00042881723,0.0013750312,0.0,0.0,0.0,0.0
276395201,0.006023514,0.0012408684,0.0012323707,0.0,0.0,0.0,0.0
276399145,0.0022114622,0.0012260545,0.00033752233,0.0,0.0,0.0,0.0
276403193,0.002262446,0.0009822864,0.00053141196,0.0,0.0,0.0,0.0
276407178,0.0057006697,0.00016253768,0.0013542823,0.0,0.0,0.0,0.0
276411165,0.009078219,-0.000774736,0.001856324,0.0,0.0,0.0,0.0
276415201,0.007827068,-0.0007075813,0.00229963,0.0,0.0,0.0,0.0
276419143,0.0025293324,-0.0019756807,0.002214219,0.0,0.0,0.0,0.0
276423200,-0.0026091523,-0.0026803769,0.0020771143,0.0,0.0,0.0,0.0
276427191,-0.002183319,-0.0032038307,0.0020935005,0.0,0.0,0.0,0.0
276431143,6.263936e-05,-0.002906677,0.002233354,0.0,0.0,0.0,0.0
276435200,0.0005909628,-0.00239146,0.002526654,0.0,0.0,0.0,0.0
276439152,-0.003928612,-0.00075698656,0.0025628654,0.0,0.0,0.0,0.0
276443149,-0.010012111,-0.00062687456,0.0017584318,0.0,0.0,0.0,0.0
276447192,-0.011434814,-0.0010324953,0.0014816745,0.0,0.0,0.0,0.0
276451143,-0.006988432,-0.0014792016,0.0018182476,0.0,0.0,0.0,0.0
276455217,-0.000951007,-0.0026397957,0.0021459823,0.0,0.0,0.0,0.0
276459185,0.0013381862,-0.002255065,0.002689876,0.0,0.0,0.0,0.0
276463189,-0.0005653403,-0.0020877784,0.0024421606,0.0,0.0,0.0,0.0
276467193,-0.0029544719,-0.0017646891,0.0015846572,0.0,0.0,0.0,0.0
276471150,0.00054139877,-0.0010514121,0.0015804112,0.0,0.0,0.0,0.0
276475195,0.005483122,0.00032847142,0.0019411054,0.0,0.0,0.0,0.0
276479202,0.009417185,0.0011587776,0.00219049,0.0,0.0,0.0,0.0
276483151,0.008880099,0.002744375,0.0019096897,0.0,0.0,0.0,0.0
276487144,0.0043073194,0.0032532355,0.0008314117,0.0,0.0,0.0,0.0
276491144,0.0021950707,0.0030606347,0.00010215209,0.0,0.0,0.0,0.0
276495186,0.0058963094,0.0026640424,-8.3817984e-05,0.0,0.0,0.0,0.0
276499186,0.009956246,0.0014127875,-0.00061591703,0.0,0.0,0.0,0.0
276503167,0.010546595,0.0010658331,-0.001159847,0.0,0.0,0.0,0.0
276507161,0.0057051955,0.000747152,-0.0025269734,0.0,0.0,0.0,0.0
276511148,-0.00049244845,0.00085518777,-0.0039591226,0.0,0.0,0.0,0.0
276515169,-0.0024684723,0.0008263363,-0.0044529913,0.0,0.0,0.0,0.0
276519165,-0.0017581638,0.0005364814,-0.0048149554,0.0,0.0,0.0,0.0
276523176,-0.0013254392,0.00043644547,-0.005196376,0.0,0.0,0.0,0.0
276527147,-0.0054286816,0.0019758071,-0.005616119,0.0,0.0,0.0,0.0
276531150,-0.012036663,0.0018824853,-0.00592696,0.0,0.0,0.0,0.0
276535172,-0.01583239,0.0016207122,-0.0060547628,0.0,0.0,0.0,0.0
276539154,-0.011964403,0.00089932396,-0.005431062,0.0,0.0,0.0,0.0
276543183,-0.0055010677,-0.0005119937,-0.0048489864,0.0,0.0,0.0,0.0
276547145,-0.0013559456,-0.00065020146,-0.004160062,0.0,0.0,0.0,0.0
276551162,-0.0015342957,-0.00012255553,-0.0037543327,0.0,0.0,0.0,0.0
276558402,-0.0028022039,-0.0022022203,-0.0025464494,0.0,0.0,0.0,0.0
276562383,0.0022432164,-0.0032046575,-0.0010059155,0.0,0.0,0.0,0.0
276566381,0.0071696853,-0.0031571675,0.0006507075,0.0,0.0,0.0,0.0
276569608,0.0076991743,-0.0012492543,0.0019635253,0.0,0.0,0.0,0.0
276574341,0.0036835992,0.0009400499,0.0020276648,0.0,0.0,0.0,0.0
276578375,-0.0015351297,0.0023326888,0.0019503566,0.0,0.0,0.0,0.0
276582382,-0.0011014896,0.002154463,0.0024533137,0.0,0.0,0.0,0.0
276586374,0.0013359911,0.001167579,0.0029423079,0.0,0.0,0.0,0.0
276590357,0.0035569172,-9.4252755e-05,0.0027056655,0.0,0.0,0.0,0.0
276594340,0.0019084597,4.1460153e-06,0.0020936253,0.0,0.0,0.0,0.0
276598375,-0.0028654593,-0.0008343053,0.0011268103,0.0,0.0,0.0,0.0
276602380,-0.006797371,-0.0012496631,0.0009187324,0.0,0.0,0.0,0.0
276606355,-0.00522106,-0.0017190049,0.0019417033,0.0,0.0,0.0,0.0
276610353,-0.0023123454,-0.002150117,0.0027719382,0.0,0.0,0.0,0.0
276614355,-0.0020254478,-0.00070278154,0.003512499,0.0,0.0,0.0,0.0
276618395,-0.006923138,0.001304345,0.0028928732,0.0,0.0,0.0,0.0
276622388,-0.013495099,0.0033528437,0.0018315522,0.0,0.0,0.0,0.0
276626364,-0.014069196,0.0040737917,0.002492832,0.0,0.0,0.0,0.0
276630403,-0.009502167,0.0034150495,0.0035669403,0.0,0.0,0.0,0.0
276634345,-0.0025592777,0.001226754,0.0044176118,0.0,0.0,0.0,0.0
276638394,0.0007768879,0.00081292086,0.0052041574,0.0,0.0,0.0,0.0
276642388,-0.00021517323,-0.0004522325,0.005239495,0.0,0.0,0.0,0.0
276646348,-0.0017583179,-0.0012316282,0.0054097474,0.0,0.0,0.0,0.0
276650408,0.0024978945,-0.0018860492,0.005882084,0.0,0.0,0.0,0.0
276654347,0.0077262437,-0.0022028494,0.0056739342,0.0,0.0,0.0,0.0
276658414,0.010640888,-0.0006598104,0.004913303,0.0,0.0,0.0,0.0
276662395,0.00820639,0.0019783704,0.004084581,0.0,0.0,0.0,0.0
276666351,0.0029734394,0.0036456021,0.0026782164,0.0,0.0,0.0,0.0
276670373,0.00069112564,0.0041827364,0.0019627702,0.0,0.0,0.0,0.0
276674347,0.00237509,0.0029860497,0.0016595369,0.0,0.0,0.0,0.0
276678372,0.0052904366,0.0006886937,0.00086109526,0.0,0.0,0.0,0.0
276682341,0.004311425,0.0007927971,6.564078e-05,0.0,0.0,0.0,0.0
276686348,-0.00034572836,-0.0007940999,-0.0013734149,0.0,0.0,0.0,0.0
276690394,-0.005500982,-0.0018960923,-0.0030319137,0.0,0.0,0.0,0.0
276694348,-0.005114725,-0.0026917688,-0.0030668033,0.0,0.0,0.0,0.0
276698397,-0.0029545743,-0.002876807,-0.0026948021,0.0,0.0,0.0,0.0
276702341,-0.0011138855,-0.002646822,-0.0029141805,0.0,0.0,0.0,0.0
276706341,-0.004196605,-0.0009021144,-0.00350594,0.0,0.0,0.0,0.0
276710395,-0.010106403,0.00041245576,-0.004559865,0.0,0.0,0.0,0.0
276714393,-0.012943087,0.0012274607,-0.004589117,0.0,0.0,0.0,0.0
276718404,-0.0089969095,0.00022021041,-0.0040483098,0.0,0.0,0.0,0.0
276722342,-0.0017216387,-0.0011997279,-0.0040735984,0.0,0.0,0.0,0.0
276726344,0.0023491324,-0.00034661463,-0.003908468,0.0,0.0,0.0,0.0
276730378,0.0014019972,-0.0009413141,-0.0038526566,0.0,0.0,0.0,0.0
276734383,-0.0015262351,-0.0013418455,-0.0031258394,0.0,0.0,0.0,0.0
276738402,0.0010958132,-0.0017275851,-0.0017575517,0.0,0.0,0.0,0.0
276742354,0.0064055654,-0.002143357,-0.0009780461,0.0,0.0,0.0,0.0
276746360,0.011961624,-0.0016657163,-0.00071205985,0.0,0.0,0.0,0.0
276750386,0.011445802,0.0010747517,-0.0008494396,0.0,0.0,0.0,0.0
276754366,0.0069331094,0.0015883477,-0.0014802504,0.0,0.0,0.0,0.0
276758384,0.003200989,0.0014742714,-0.0015125057,0.0,0.0,0.0,0.0
276762344,0.0049305065,0.00041584705,-0.0015511905,0.0,0.0,0.0,0.0
276766348,0.008623408,-0.00086264045,-0.0017504955,0.0,0.0,0.0,0.0
276770378,0.0101417415,-0.00094055873,-0.0018052778,0.0,0.0,0.0,0.0
276774384,0.0058965543,-0.0006352692,-0.0020011906,0.0,0.0,0.0,0.0
276778429,-0.0010174676,0.00020319805,-0.0019846524,0.0,0.0,0.0,0.0
276782348,-0.002908444,0.0010045944,-0.0013875882,0.0,0.0,0.0,0.0
276786354,-0.0010635816,0.0012112511,-0.0010158813,0.0,0.0,0.0,0.0
276790376,0.0019171741,0.00022662769,-0.00072984054,0.0,0.0,0.0,0.0
276794341,0.0007686964,0.0008294354,-0.0002247928,0.0,0.0,0.0,0.0
276798399,-0.0042747254,-1.3399171e-05,6.1024068e-05,0.0,0.0,0.0,0.0
276802342,-0.009366026,0.00031413964,0.00053045194,0.0,0.0,0.0,0.0
276806351,-0.00781396,0.00055933243,0.0014456187,0.0,0.0,0.0,0.0
276810382,-0.0022925697,0.0008159055,0.0020179306,0.0,0.0,0.0,0.0
276814340,0.0027232207,0.0012187784,0.0023674085,0.0,0.0,0.0,0.0
276818410,0.0018408243,0.00088299566,0.0021203628,0.0,0.0,0.0,0.0
276822340,-0.0023778114,-5.1287585e-05,0.0020382304,0.0,0.0,0.0,0.0
276826341,-0.0018956377,-0.0005412155,0.0026578803,0.0,0.0,0.0,0.0
276830343,0.0028000355,-0.00061672344,0.0031408332,0.0,0.0,0.0,0.0
276834351,0.009608846,-0.000993777,0.0031042423,0.0,0.0,0.0,0.0
276838436,0.011456996,0.0009887597,0.0027074355,0.0,0.0,0.0,0.0
276842341,0.007268452,0.0021781642,0.0021052305,0.0,0.0,0.0,0.0
276846346,0.0013247589,0.003186483,0.0020943217,0.0,0.0,0.0,0.0
276850357,0.0014327771,0.0027553106,0.0025158147,0.0,0.0,0.0,0.0
276854363,0.003998009,0.0015796152,0.0029855883,0.0,0.0,0.0,0.0
276858415,0.0064201904,0.00041621097,0.003196323,0.0,0.0,0.0,0.0
276862341,0.0029877855,-0.00023947505,0.0028267193,0.0,0.0,0.0,0.0
276866350,-0.003441778,-0.0020061296,0.0021653816,0.0,0.0,0.0,0.0
276870347,-0.0075819264,-0.0027254357,0.0014794068,0.0,0.0,0.0,0.0
276876778,-0.0043287813,-0.0034396676,0.0015517693,0.0,0.0,0.0,0.0
276881541,-0.0020512845,-0.0018942733,0.0015880843,0.0,0.0,0.0,0.0
276885623,-0.0053125075,-0.0004893177,0.0007823913,0.0,0.0,0.0,0.0
276889552,-0.010970594,0.00015541771,0.00039406458,0.0,0.0,0.0,0.0
276893541,-0.0111780595,0.00025205303,0.0005729301,0.0,0.0,0.0,0.0
276897541,-0.0070235594,0.00036123977,0.000617415,0.0,0.0,0.0,0.0
276901547,-0.0005587591,-0.00025931787,0.00040240516,0.0,0.0,0.0,0.0
276905584,0.0020902923,0.0002950317,0.0006148799,0.0,0.0,0.0,0.0
276909547,0.0005526659,-0.00025135133,0.0007072099,0.0,0.0,0.0,0.0
276913544,-0.0026563494,0.00015759433,0.0012346578,0.0,0.0,0.0,0.0
276917541,-0.00036998838,-4.535308e-05,0.0013570376,0.0,0.0,0.0,0.0
276921584,0.004767586,0.00020473322,0.0005474192,0.0,0.0,0.0,0.0
276925589,0.009963254,0.00080004917,-0.00020120887,0.0,0.0,0.0,0.0
276929547,0.0096084755,0.0017065014,-0.0006873679,0.0,0.0,0.0,0.0
276933547,0.0051391576,0.002113943,-0.0009636642,0.0,0.0,0.0,0.0
276937541,0.0025750808,0.0023090495,-0.000666371,0.0,0.0,0.0,0.0
276941541,0.0038961591,0.0016555722,-0.0007590893,0.0,0.0,0.0,0.0
276945609,0.007394051,0.00059057085,-0.0014352554,0.0,0.0,0.0,0.0
276949570,0.006887782,0.0013882344,-0.0016880687,0.0,0.0,0.0,0.0
276953547,0.0012594082,0.00065205013,-0.0017809831,0.0,0.0,0.0,0.0
276957541,-0.0055433586,0.0005441243,-0.0018999132,0.0,0.0,0.0,0.0
276961547,-0.0068581062,0.0004369655,-0.0018656084,0.0,0.0,0.0,0.0
276965582,-0.0053839046,-0.00048299727,-0.0015599958,0.0,0.0,0.0,0.0
276969577,-0.002471921,-0.001142387,-0.0016555781,0.0,0.0,0.0,0.0
276973546,-0.003951083,-0.00039071124,-0.0021323476,0.0,0.0,0.0,0.0
276977541,-0.009295821,-0.0005767485,-0.0024877358,0.0,0.0,0.0,0.0
276981547,-0.012380909,-0.0008445964,-0.0022842651,0.0,0.0,0.0,0.0
276985578,-0.009278538,-0.0015658041,-0.0020025345,0.0,0.0,0.0,0.0
276989567,-0.002430085,-0.002045838,-0.002240661,0.0,0.0,0.0,0.0
276993589,0.0015820072,-0.0007074611,-0.0023256,0.0,0.0,0.0,0.0
276997541,5.1876064e-05,-0.00031839707,-0.002048158,0.0,0.0,0.0,0.0
277001547,-0.0051076566,0.0007368106,-0.0012532724,0.0,0.0,0.0,0.0
277005568,-0.00569368,0.0008066782,2.2580556e-05,0.0,0.0,0.0,0.0
277009587,-0.0017500864,0.00023173995,0.00014203336,0.0,0.0,0.0,0.0
277013624,0.0047249952,0.00029221165,-0.00017478195,0.0,0.0,0.0,0.0
277017545,0.005675284,0.0018146085,-0.0004556469,0.0,0.0,0.0,0.0
